     3.04           OBSERVATION DATA    M: Mixed            RINEX VERSION / TYPE
CONVBIN demo5 b34c                      20220306 234653 UTC PGM / RUN BY / DATE 
log: 2022-02-25_13-26-06_GNSS-1.ubx                         COMMENT             
format: u-blox UBX, option: -TADJ=1                         COMMENT             
format: u-blox UBX                                          COMMENT             
log: 2022-02-25_13-26-06_GNSS-1.ubx                         COMMENT             
                                                            MARKER NAME         
                                                            MARKER NUMBER       
                                                            MARKER TYPE         
                                                            OBSERVER / AGENCY   
                                                            REC # / TYPE / VERS 
                                                            ANT # / TYPE        
  2077970.7070 -5684018.1979  2006789.4508                  APPROX POSITION XYZ 
        0.0000        0.0000        0.0000                  ANTENNA: DELTA H/E/N
G    4 C1C L1C C2X L2X                                      SYS / # / OBS TYPES 
R    4 C1C L1C C2C L2C                                      SYS / # / OBS TYPES 
E    4 C1X L1X C7X L7X                                      SYS / # / OBS TYPES 
C    3 C2I L2I C7I                                          SYS / # / OBS TYPES 
    15.000                                                  INTERVAL            
  2022    02    25    13    26   15.0000000     GPS         TIME OF FIRST OBS   
  2022    02    25    17    27   00.0000000     GPS         TIME OF LAST OBS    
G L1C                                                       SYS / PHASE SHIFT   
G L2X  0.00000                                              SYS / PHASE SHIFT   
R L1C                                                       SYS / PHASE SHIFT   
R L2C                                                       SYS / PHASE SHIFT   
E L1X  0.00000                                              SYS / PHASE SHIFT   
E L7X  0.00000                                              SYS / PHASE SHIFT   
C L2I                                                       SYS / PHASE SHIFT   
 14 R01  1 R02 -4 R03  5 R04  6 R08  6 R11  0 R12 -1 R13 -2 GLONASS SLOT / FRQ #
    R14 -7 R17  4 R21  4 R22 -3 R23  3 R24  2               GLONASS SLOT / FRQ #
 C1C    0.000 C1P    0.000 C2C    0.000 C2P    0.000        GLONASS COD/PHS/BIS 
                                                            END OF HEADER       
> 2022 02 25 13 26 15.0000000  0 32                     
G10  23161248.279 1 121713155.98111  23161248.779 1  94841418.80512
G16  22215971.277 1 116745711.60711                                
G22  21100845.465 1 110885682.75511                                
G26  20141293.203 1 105843208.65211  20141292.279 1  82475227.64511
C20  21967452.016 1 114390287.64611                
C32  23519214.559 1 122470712.06911                
C37  23659582.537 1 123201649.96611                
C36  25918799.059 1 134965993.02011                
C19  24345301.841 1 126772381.47511                
C27  25789245.504 1 134291369.67911                
R02  21960029.120 1 117182933.54811  21960030.381 1  91142290.67611
R11  21690898.774 1 115909574.32611  21690897.496 1  90151884.08011
R01  19254230.198 1 102924891.01511  19254230.888 1  80052696.12111
R08  21246799.233 1 113775633.93011  21246797.132 1  88492140.29511
R13  22436229.126 2 119808199.47114  22436228.684 2  93184183.28613
G29  24216621.054 1 127259194.44711  24216619.756 1  99163005.90313
G31  21603022.798 1 113524643.68111  21603018.882 1  88460741.21311
G32  21006136.533 1 110387987.89911  21006135.525 1  86016611.30011
E01  25017380.991 1 131467221.13611  25017382.704 1 100734624.79311
E04  23937727.154 1 125793603.43211  23937727.557 1  96387306.70811
E24  26741501.068 1 140527534.74612  26741503.183 1 107676958.36411
C30  26835449.600 9               9                
C28  26563184.673 1 138321472.86112                
R12  20015218.036 1 106917701.58211  20015217.939 1  83158214.34211
E18  29352105.516 1 154246355.46812  29352109.520 1 118188780.99611
E31  23615554.329 1 124100576.12511  23615556.680 1  95090060.26211
G03  24471601.976 1 128599115.49412  24471602.577 1 100207137.07112
E19  25971014.110 1 136478599.15912  25971015.094 1 104574504.31812
E09  24643497.301 1 129502457.95011  24643499.952 1  99229168.13311
E12  27182886.405 8               9  27182896.742 9               9
G25                                  24208980.289 9               9
G27                                  25629766.672 8               9
> 2022 02 25 13 26 30.0000000  0 32                     
G10  23171029.355 1 121764555.192 1  23171029.408 1  94881470.084 1
G16  22206684.085 1 116696905.820 1                                
G22  21097647.168 1 110868877.097 1                                
G26  20138933.775 1 105830809.825 1  20138932.678 1  82465566.217 1
C20  21965737.227 1 114381357.542 1                
C32  23525918.421 1 122505621.144 1                
C37  23664850.837 1 123229083.395 1                
C36  25913491.366 1 134938354.948 1                
C19  24337093.059 1 126729633.579 1                
C27  25784370.823 1 134265985.736 1                
R02  21948992.845 1 117124038.021 1  21948992.992 1  91096483.063 1
R11  21699398.435 1 115954998.316 1  21699398.119 1  90187213.816 1
R01  19253069.160 1 102918683.935 1  19253069.720 1  80047868.392 1
R08  21254662.597 1 113817738.836 1  21254659.595 1  88524888.497 1
R13  22429738.969 2 119773547.818 4  22429740.658 2  93157231.959 2
G29  24215974.940 1 127255799.488 1  24215973.827 1  99160360.452 3
G31  21605537.351 1 113537858.977 1  21605533.824 1  88471038.844 1
G32  21005998.186 1 110387262.439 1  21005997.530 1  86016046.000 1
E01  25023053.845 1 131497036.222 1  25023056.407 1 100757470.106 1
E04  23935251.992 1 125780595.506 1  23935252.110 1  96377339.595 1
E24  26734783.952 1 140492240.340 2  26734786.832 1 107649914.616 1
C30  26831536.410 9               9                
C28  26559841.553 1 138304060.942 2                
R12  20016421.049 1 106924125.949 1  20016420.498 1  83163211.060 1
E18  29344017.278 1 154203847.941 2  29344020.640 1 118156210.299 1
E31  23614241.133 1 124093676.832 1  23614243.849 1  95084773.784 1
G03  24463389.693 1 128555958.755 2  24463389.790 1 100173508.461 2
E19  25974999.200 1 136499541.800 2  25975000.634 1 104590551.276 2
E09  24636636.927 1 129466405.722 1  24636639.589 1  99201543.696 1
E12  27184295.259 8               9  27184303.227 9               9
G25                                  24218978.929 9               9
G27                                  25621484.929 9               9
> 2022 02 25 13 26 45.0000000  0 32                     
G10  23180815.296 1 121815984.099 1  23180816.039 1  94921544.530 1
G16  22197412.877 1 116648185.768 1                                
G22  21094459.077 1 110852123.539 1                                
G25  24229050.046 9               9  24228980.867 9               9
G26  20136600.181 1 105818547.765 1  20136599.255 1  82456011.358 1
C20  21964044.034 1 114372541.581 1                
C32  23532636.707 1 122540607.393 1                
C37  23670120.060 1 123256521.335 1                
C36  25908193.234 1 134910768.210 1                
C19  24328891.875 1 126686932.339 1                
C27  25779488.744 1 134240564.106 1                
R02  21937963.230 1 117065182.778 1  21937963.192 1  91050706.793 1
R11  21707900.828 1 116000430.575 1  21707900.092 1  90222550.008 1
R01  19251941.176 1 102912655.381 1  19251941.606 1  80043179.512 1
R08  21262549.301 1 113859973.680 1  21262546.491 1  88557737.810 1
R13  22423270.312 2 119739003.209 4  22423272.395 2  93130363.974 3
G29  24215348.691 1 127252507.676 2  24215347.065 1  99157795.430 2
G31  21608054.137 1 113551083.868 1  21608050.307 1  88481343.950 1
G32  21005876.752 1 110386624.508 1  21005875.720 1  86015548.889 1
E01  25028735.726 1 131526892.861 1  25028737.949 1 100780347.254 1
E04  23932787.005 1 125767641.763 1  23932787.225 1  96367413.998 1
E24  26728078.925 1 140457001.311 2  26728081.201 1 107622913.302 1
C30  26827597.935 9               9                
C28  26556503.480 1 138286680.951 2                
R12  20017645.741 1 106930668.270 1  20017645.528 1  83168299.541 1
E18  29335912.060 1 154161253.971 2  29335915.204 1 118123573.361 1
E31  23612945.002 1 124086865.145 1  23612947.490 1  95079554.438 1
G03  24455192.601 1 128512882.479 2  24455193.045 1 100139942.550 2
E19  25978995.584 1 136520545.812 3  25978997.345 1 104606645.233 2
E09  24629775.606 1 129430348.614 1  24629778.112 1  99173915.522 1
E12  27185685.470 9               9  27185688.218 9               9
G27                                  25613177.372 9               9
> 2022 02 25 13 27 00.0000000  0 32                     
G10  23190607.400 1 121867440.353 1  23190608.744 1  94961640.258 1
G16  22188157.796 1 116599549.965 1                                
G22  21091280.549 1 110835420.344 1                                
G26  20134292.457 1 105806420.490 1  20134291.635 1  82446561.539 1
C20  21962372.743 1 114363837.911 1                
C32  23539369.741 1 122575668.609 1                
C37  23675389.746 1 123283961.609 1                
C36  25902905.125 1 134883230.802 1                
C19  24320700.280 1 126644276.035 1                
C27  25774599.111 1 134215102.990 1                
R02  21926941.301 1 117006366.060 1  21926941.161 1  91004960.454 1
R11  21716404.501 1 116045868.693 1  21716402.822 1  90257890.717 1
R01  19250846.722 1 102906803.716 1  19250847.164 1  80038628.200 1
R08  21270460.325 1 113902336.068 1  21270457.599 1  88590686.303 1
R13  22416820.837 2 119704563.769 4  22416821.381 2  93103577.748 3
G29  24214741.609 1 127249317.239 2  24214739.665 1  99155309.349 2
G31  21610572.419 1 113564316.148 1  21610568.360 1  88491654.802 1
G32  21005771.601 1 110386072.329 1  21005770.328 1  86015118.615 1
E01  25034425.223 1 131556788.839 1  25034426.862 1 100803254.548 1
E04  23930331.572 1 125754740.363 1  23930332.101 1  96357528.497 1
E24  26721383.785 1 140421815.770 2  26721385.668 1 107595952.975 1
C30  26823646.502 8               9                
C28  26553171.448 1 138269331.168 2                
R12  20018891.732 1 106937326.450 1  20018891.951 1  83173478.110 1
E18  29327788.877 1 154118571.655 2  29327792.853 1 118090868.740 1
E31  23611665.317 1 124080139.015 1  23611667.596 1  95074400.653 1
G03  24447010.241 1 128469884.925 2  24447010.940 1 100106438.007 2
E19  25983003.529 1 136541609.083 3  25983005.631 1 104622784.613 2
E09  24622912.933 1 129394284.801 2  24622915.332 1  99146282.200 1
E12  27187054.266 9               9  27187064.009 9               9
G25                                  24239016.268 9               9
G27                                  25604866.452 8               9
> 2022 02 25 13 27 15.0000000  0 32                     
G10  23200404.293 1 121918922.764 1  23200405.245 1  95001756.372 2
G16  22178918.791 1 116550997.871 1                                
G22  21088111.815 1 110818767.076 1                                
G26  20132010.264 1 105794427.231 1  20132009.332 1  82437216.147 1
C20  21960722.625 1 114355245.880 1                
C32  23546117.419 1 122610803.801 1                
C37  23680659.515 1 123311403.261 1                
C36  25897626.004 1 134855741.933 1                
C19  24312517.259 1 126601664.161 1                
C27  25769702.249 1 134189601.931 1                
R02  21915926.016 1 116947588.004 1  21915926.771 1  90959244.210 1
R11  21724908.586 1 116091311.418 1  21724906.580 1  90293235.057 1
R01  19249784.729 1 102901128.231 1  19249785.595 1  80034213.934 1
R08  21278395.461 1 113944825.116 1  21278391.878 1  88623733.325 1
R13  22410391.402 2 119670228.783 4  22410390.508 2  93076872.757 3
G29  24214153.193 1 127246227.704 2  24214152.927 1  99152901.915 2
G31  21613091.553 1 113577554.702 1  21613087.556 1  88501970.548 1
G32  21005682.943 1 110385605.280 1  21005681.953 1  86014754.680 1
E01  25040121.419 1 131586723.142 1  25040123.141 1 100826191.217 1
E04  23927886.951 1 125741890.770 1  23927886.899 1  96347682.693 1
E24  26714698.003 1 140386683.100 2  26714699.984 1 107569033.139 1
C30  26819673.656 9               9                
C28  26549845.554 1 138252011.052 2                
R12  20020159.297 1 106944099.226 1  20020159.764 1  83178745.813 1
E18  29319650.485 1 154075800.377 2  29319653.640 1 118058095.964 1
E31  23610401.375 1 124073497.599 1  23610403.845 1  95069311.775 1
G03  24438843.149 1 128426965.685 2  24438843.898 1 100072994.441 2
E19  25987022.823 1 136562730.795 3  25987025.179 1 104638968.754 2
E09  24616048.454 1 129358213.684 2  24616051.237 1  99118643.289 1
E12                                  27188421.926 9               9
G25                                  24249033.194 9               9
G27                                  25596544.740 8 104813561.25618
> 2022 02 25 13 27 30.0000000  0 31                     
G10  23210205.659 1 121970429.315 1  23210206.093 1  95041891.282 2
G16  22169695.185 1 116502528.184 1                                
G22  21084951.832 1 110802162.344 1                                
G26  20129753.061 1 105782566.306 1  20129752.213 1  82427973.868 1
C20  21959093.899 1 114346763.926 1                
C32  23552878.900 1 122646011.144 1                
C37  23685928.899 1 123338844.488 1                
C36  25892356.020 1 134828299.961 1                
C19  24304342.402 1 126559095.343 1                
C27  25764796.699 1 134164059.480 1                
R02  21904917.258 1 116888847.116 1  21904918.222 1  90913556.861 1
R11  21733412.693 1 116136756.917 1  21733411.597 1  90328581.524 1
R01  19248755.863 1 102895627.545 1  19248756.793 1  80029935.603 1
R08  21286352.938 1 113987438.492 1  21286350.020 1  88656877.037 1
R13  22403980.728 2 119635996.426 4  22403979.690 2  93050247.642 4
G29  24213584.875 1 127243237.412 2  24213583.615 1  99150571.827 2
G31  21615611.553 1 113590797.927 1  21615607.414 1  88512289.932 1
G32  21005610.292 1 110385221.917 1  21005609.254 1  86014455.940 1
E01  25045824.276 1 131616693.884 1  25045826.509 1 100849155.805 1
E04  23925451.269 1 125729091.439 1  23925451.336 1  96337875.407 1
E24  26708022.006 1 140351601.699 1  26708024.162 1 107542152.595 1
C30  26815705.355 9               9                
C28  26546524.799 1 138234719.245 2                
R12  20021448.606 1 106950984.501 1  20021448.688 1  83184101.033 1
E18  29311494.763 1 154032938.636 2  29311497.242 1 118025253.852 1
E31  23609153.249 1 124066939.178 1  23609155.722 1  95064286.488 1
G03  24430690.433 1 128384123.329 2  24430691.046 1 100039610.813 2
E19  25991053.487 1 136583909.378 2  25991055.404 1 104655196.489 2
E09  24609182.478 1 129322133.767 2  24609185.608 1  99090997.636 1
E12                                  27189762.622 8               9
G27                                  25588206.972 8               9
> 2022 02 25 13 27 45.0000000  0 31                     
G10  23220012.678 1 122021961.452 1  23220013.189 1  95082046.155 1
G16  22160487.609 1 116454142.973 1                                
G22  21081801.362 1 110785608.094 1                                
G26  20127521.747 1 105770839.534 1  20127520.742 1  82418836.116 1
C20  21957486.529 1 114338394.001 1                
C32  23559653.734 1 122681292.232 1                
C37  23691199.255 1 123366286.872 1                
C36  25887095.657 1 134800906.635 1                
C19  24296176.262 1 126516571.683 1                
C27  25759883.717 1 134138477.719 1                
R02  21893916.312 1 116830145.102 1  21893917.897 1  90867899.769 1
R11  21741918.040 1 116182206.558 1  21741917.261 1  90363931.213 1
R01  19247759.850 1 102890303.573 1  19247760.744 1  80025794.731 1
R08  21294334.135 1 114030178.042 1  21294332.015 1  88690118.869 1
R13  22397589.602 2 119601868.705 4  22397588.581 2  93023703.822 3
G29  24213034.689 1 127240348.259 2  24213033.601 1  99148320.523 2
G31  21618132.890 1 113604047.403 1  21618128.930 1  88522614.185 1
G32  21005553.607 1 110384924.250 1  21005552.667 1  86014223.981 1
E01  25051534.689 1 131646702.666 1  25051537.010 1 100872149.525 1
E04  23923025.530 1 125716344.386 1  23923025.601 1  96328108.171 1
E24  26701356.166 1 140316573.519 2  26701358.294 1 107515312.850 1
C30  26811688.781 9               9                
C28  26543209.886 1 138217457.774 2                
R12  20022759.116 1 106957983.928 1  20022759.030 1  83189545.027 1
G27  25579866.908 9               9  25579856.063 9               9
E18  29303321.816 1 153989988.409 2  29303324.259 1 117992343.912 1
E31  23607921.520 1 124060465.498 1  23607923.900 1  95059326.138 1
G03  24422552.350 1 128341359.959 2  24422552.872 1 100006288.729 2
E19  25995094.449 1 136605146.430 2  25995097.020 1 104671468.992 2
E09  24602315.409 1 129286047.014 1  24602318.249 1  99063346.747 1
E12                                  27191087.535 8               9
> 2022 02 25 13 28 00.0000000  0 31                     
G10  23229824.340 1 122073521.053 1  23229824.693 1  95122222.424 2
G16  22151296.917 1 116405844.866 1                                
G22  21078661.250 1 110769107.046 1                                
G26  20125316.021 1 105759249.193 1  20125315.009 1  82409804.680 1
C20  21955901.172 1 114330138.461 1                
C32  23566443.812 1 122716649.136 1                
C37  23696470.009 1 123393732.572 1                
C36  25881844.930 1 134773564.239 1                
C19  24288018.599 1 126474095.727 1                
C27  25754963.990 1 134112859.089 1                
R02  21882924.663 1 116771485.682 1  21882924.689 1  90822275.790 1
R11  21750424.148 1 116227662.130 1  21750423.361 1  90399285.532 1
R01  19246797.272 1 102885158.920 1  19246798.290 1  80021793.340 1
R08  21302339.005 1 114073045.594 1  21302336.683 1  88723460.265 1
R13  22391218.284 2 119567848.021 4  22391217.064 2  92997243.342 3
G29  24212504.414 1 127237562.779 2  24212503.336 1  99146150.032 2
G31  21620655.833 1 113617305.252 1  21620652.174 1  88532944.980 1
G32  21005513.672 1 110384714.757 1  21005513.194 1  86014060.720 1
E01  25057252.640 1 131676751.578 1  25057255.108 1 100895174.005 1
E04  23920609.978 1 125703652.088 1  23920610.447 1  96318382.904 1
E24  26694701.397 1 140281601.014 2  26694703.428 1 107488515.734 1
C30  26807688.461 9               9                
C28  26539901.186 1 138200229.267 2                
R12  20024090.954 1 106965099.432 1  20024091.223 1  83195079.323 1
G27  25571503.244 8               9  25571479.050 9               9
E18  29295132.764 1 153946952.062 2  29295135.112 1 117959368.025 1
E31  23606706.121 1 124054078.803 1  23606708.517 1  95054432.432 1
G03  24414430.386 1 128298678.231 2  24414430.879 1  99973030.272 2
E19  25999148.024 1 136626444.475 3  25999149.903 1 104687788.226 2
E09  24595448.115 1 129249955.917 2  24595450.291 1  99035692.536 1
E12                                  27192396.942 8               9
> 2022 02 25 13 28 15.0000000  0 31                     
G10  23239640.391 1 122125107.809 1  23239641.417 1  95162419.834 2
G16  22142122.489 1 116357634.199 1                                
G22  21075531.545 1 110752659.366 1                                
G26  20123136.330 1 105747795.300 1  20123135.698 1  82400879.575 1
C20  21954337.570 1 114321997.459 1                
C32  23573248.391 1 122752081.649 1                
C37  23701740.730 1 123421181.406 1                
C36  25876603.681 1 134746272.759 1                
C19  24279870.872 1 126431667.737 1                
C27  25750037.396 1 134087203.869 1                
R02  21871940.143 1 116712868.847 1  21871940.235 1  90776684.936 1
R11  21758931.426 1 116273123.590 1  21758930.710 1  90434644.422 1
R01  19245868.884 1 102880193.769 1  19245869.589 1  80017931.541 1
R08  21310368.233 1 114116041.187 1  21310365.783 1  88756901.240 1
R13  22384867.543 2 119533934.579 4  22384867.724 2  92970866.192 2
G29  24211994.171 1 127234881.141 2  24211992.757 1  99144060.455 3
G31  21623180.292 1 113630571.486 1  21623176.575 1  88543282.295 1
G32  21005490.732 1 110384593.675 1  21005490.176 1  86013966.356 1
E01  25062979.126 1 131706840.399 1  25062980.562 1 100918229.065 1
E04  23918205.577 1 125691014.782 1  23918205.665 1  96308699.757 1
E24  26688056.806 1 140246684.287 1  26688058.894 1 107461761.360 1
C30  26803668.559 9               9                
C28  26536599.562 1 138183033.939 2                
R12  20025444.787 1 106972330.696 1  20025444.798 1  83200703.618 1
G27  25563129.156 9               9  25563091.470 9               9
E18  29286926.583 1 153903829.819 2  29286929.234 1 117926326.300 1
E31  23605507.358 1 124047779.046 1  23605509.720 1  95049605.343 1
G03  24406324.294 1 128256078.464 3  24406324.396 1  99939835.641 3
E19  26003211.336 1 136647803.215 2  26003214.323 1 104704153.997 2
E09  24588579.718 1 129213860.657 2  24588581.690 1  99008035.126 1
E12                                  27193692.104 4               9
> 2022 02 25 13 28 30.0000000  0 30                     
G10  23249462.424 1 122176723.534 1  23249463.001 1  95202639.809 1
G16  22132965.600 1 116309513.498 1                                
G22  21072412.244 1 110736267.693 1                                
G26  20120983.116 1 105736480.055 1  20120982.441 1  82392062.497 1
C20  21952796.837 1 114313973.261 1                
C32  23580067.755 1 122787591.733 1                
C37  23707013.280 1 123448635.342 1                
C36  25871372.805 1 134719034.385 1                
C19  24271732.921 1 126389290.218 1                
C27  25745104.306 1 134061514.521 1                
R02  21860963.815 1 116654297.883 1  21860964.028 1  90731129.745 1
R11  21767439.792 1 116318592.520 1  21767439.390 1  90470009.118 1
R01  19244973.784 1 102875410.721 1  19244974.665 1  80014211.388 1
R08  21318421.524 1 114159166.351 1  21318419.002 1  88790442.995 1
R13  22378536.906 2 119500130.386 4  22378537.973 2  92944574.050 3
G29  24211504.781 1 127232305.780 2  24211502.722 1  99142053.631 3
G31  21625706.592 1 113643848.148 1  21625702.736 1  88553627.727 1
G32  21005484.683 1 110384563.356 1  21005483.858 1  86013942.720 1
E01  25068712.811 1 131736971.097 1  25068714.318 1 100941316.220 1
E04  23915811.542 1 125678434.768 1  23915811.697 1  96299060.512 1
E24  26681423.247 1 140211825.675 1  26681425.605 1 107435051.515 1
C28  26533303.411 1 138165874.308 2                
R12  20026820.682 1 106979679.632 1  20026820.379 1  83206419.460 1
E18  29278704.071 1 153860623.987 2  29278706.932 1 117893220.553 1
E31  23604325.138 1 124041568.338 1  23604327.942 1  95044846.495 1
G03  24398234.141 1 128213563.076 3  24398233.875 1  99906706.766 2
E19  26007288.247 1 136669225.215 3  26007290.813 1 104720568.244 2
E09  24581710.106 1 129177763.586 1  24581712.850 1  98980376.344 1
E12                                  27194971.778 4               9
G27                                  25554702.438 9               9
> 2022 02 25 13 28 45.0000000  0 30                     
G10  23259290.437 1 122228369.247 1  23259291.197 1  95242883.189 1
G16  22123826.112 1 116261484.559 1                                
G22  21069304.170 1 110719933.615 1                                
G26  20118856.793 1 105725304.870 1  20118856.014 1  82383354.559 1
C20  21951278.741 1 114306067.410 1                
C32  23586902.093 1 122823180.623 1                
C37  23712286.888 1 123476095.654 1                
C36  25866152.287 1 134691850.479 1                
C19  24263604.631 1 126346964.838 1                
C27  25740164.787 1 134035792.706 1                
R02  21849995.902 1 116595774.076 1  21849996.620 1  90685611.235 1
R11  21775950.218 1 116364070.114 1  21775949.549 1  90505380.557 1
R01  19244113.494 1 102870811.218 1  19244114.261 1  80010633.991 1
R08  21326499.466 1 114202422.611 1  21326496.283 1  88824086.742 1
R13  22372227.244 2 119466437.009 4  22372228.232 2  92918368.128 3
G29  24211034.524 1 127229838.323 1  24211033.186 1  99140130.988 2
G31  21628235.508 1 113657136.577 1  21628231.635 1  88563982.351 1
G32  21005496.763 1 110384625.474 1  21005495.566 1  86013991.098 1
E01  25074454.691 1 131767144.899 1  25074456.125 1 100964436.392 1
E04  23913428.746 1 125665913.709 1  23913428.998 1  96289466.450 1
E24  26674801.354 1 140177026.698 1  26674803.688 1 107408387.393 1
C28  26530015.481 1 138148751.972 2                
R12  20028218.430 1 106987147.418 1  20028218.479 1  83212227.739 1
E18  29270466.367 1 153817336.148 1  29270469.624 1 117860051.962 1
E31  23603160.595 1 124035448.069 1  23603163.168 1  95040156.932 1
G03  24390158.069 1 128171133.726 3  24390160.103 1  99873645.048 2
E19  26011377.240 1 136690711.756 2  26011379.419 1 104737031.921 2
E09  24574842.094 1 129141666.333 1  24574843.723 1  98952717.414 1
E12                                  27196236.993 4 109507981.16516
G27                                  25546302.631 9               9
> 2022 02 25 13 29 00.0000000  0 29                     
G10  23269123.369 1 122280040.985 1  23269123.762 1  95283146.824 1
G16  22114703.137 1 116213544.028 1                                
G22  21066206.308 1 110703653.674 1                                
G26  20116756.022 1 105714266.115 1  20116755.237 1  82374752.922 1
C20  21949782.305 1 114298276.424 1                
C32  23593751.252 1 122858844.525 1                
C37  23717560.502 1 123503558.577 1                
C36  25860941.813 1 134664717.444 1                
C19  24255486.418 1 126304688.269 1                
C27  25735218.175 1 134010035.035 1                
R02  21839036.424 1 116537294.273 1  21839037.597 1  90640126.996 1
R11  21784462.171 1 116409552.327 1  21784461.305 1  90540755.615 1
R01  19243286.774 1 102866391.901 1  19243287.498 1  80007196.724 1
R08  21334600.680 1 114245805.591 1  21334598.415 1  88857829.031 1
R13  22365937.367 2 119432851.019 5  22365938.426 2  92892245.718 3
G29  24210585.037 1 127227475.262 2  24210584.112 1  99138289.613 2
G31  21630765.493 1 113670432.709 1  21630762.131 1  88574342.951 1
G32  21005525.299 1 110384776.542 1  21005524.301 1  86014108.807 1
E01  25080204.114 1 131797357.947 1  25080205.385 1 100987586.644 1
E04  23911056.432 1 125653448.183 1  23911056.922 1  96279914.931 1
E24  26668190.138 1 140142283.899 1  26668192.361 1 107381766.295 1
C28  26526733.772 1 138131663.670 1                
R12  20029637.493 1 106994729.911 1  20029638.018 1  83218125.230 1
E18  29262213.548 1 153773962.854 2  29262216.191 1 117826817.873 1
E31  23602012.316 1 124029414.538 1  23602015.042 1  95035533.842 1
G03  24382100.265 1 128128787.267 3  24382101.679 1  99840647.854 2
E19  26015477.769 1 136712259.090 2  26015479.675 1 104753542.197 2
E09  24567971.343 1 129105565.434 2  24567974.029 1  98925055.719 1
E12                                  27197487.345 4 109513013.318 7
> 2022 02 25 13 29 15.0000000  0 29                     
G10  23278961.477 1 122331739.763 1  23278962.220 1  95323431.534 2
G16  22105597.716 1 116165693.711 1                                
G22  21063118.590 1 110687429.639 1                                
G26  20114681.719 1 105703365.171 1  20114680.842 1  82366258.678 1
C20  21948308.786 1 114290601.759 1                
C32  23600614.516 1 122894584.620 1                
C37  23722835.709 1 123531025.304 1                
C36  25855741.299 1 134637636.648 1                
C19  24247377.189 1 126262462.197 1                
C27  25730264.779 1 133984243.161 2                
R02  21828086.675 1 116478860.973 1  21828087.265 1  90594678.887 1
R11  21792974.457 1 116455040.157 1  21792974.308 1  90576135.002 1
R01  19242493.811 1 102862154.292 1  19242494.696 1  80003900.779 1
R08  21342726.509 1 114289316.427 1  21342723.122 1  88891670.751 1
R13  22359667.559 2 119399373.693 4  22359669.115 2  92866207.752 3
G29  24210156.214 1 127225218.123 2  24210155.149 1  99136530.783 2
G31  21633297.384 1 113683738.151 1  21633293.826 1  88584710.817 1
G32  21005571.345 1 110385018.208 1  21005570.006 1  86014297.110 1
E01  25085960.878 1 131827611.428 1  25085962.475 1 101010767.870 1
E04  23908695.279 1 125641039.725 1  23908695.803 1  96270407.146 1
E24  26661590.615 1 140107598.763 1  26661592.052 1 107355189.380 1
C28  26523459.600 1 138114611.075 2                
R12  20031079.308 1 107002428.142 1  20031079.049 1  83224112.738 1
E18  29253943.830 1 153730505.622 2  29253946.488 1 117793519.458 1
E31  23600881.372 1 124023469.082 1  23600883.524 1  95030978.232 1
G03  24374059.778 1 128086525.279 2  24374059.158 1  99807716.409 3
E19  26019589.725 1 136733868.802 3  26019591.913 1 104770100.257 2
E09  24561100.778 1 129069462.459 2  24561103.481 1  98897392.411 1
E12                                  27198722.158 2 109517984.533 5
> 2022 02 25 13 29 30.0000000  0 29                     
G10  23288803.908 1 122383462.769 1  23288804.714 1  95363735.115 2
G16  22096508.814 1 116117931.410 1                                
G22  21060041.633 1 110671259.595 1                                
G26  20112632.985 1 105692599.588 1  20112632.068 1  82357869.913 1
C20  21946856.643 1 114283041.168 1                
C32  23607492.165 1 122930398.252 1                
C37  23728110.705 1 123558493.298 1                
C36  25850550.843 1 134610605.671 1                
C19  24239277.401 1 126220284.484 1                
C27  25725305.043 1 133958414.928 1                
R02  21817144.859 1 116420471.973 1  21817145.360 1  90549265.215 1
R11  21801487.425 1 116500530.756 1  21801487.214 1  90611516.556 1
R01  19241734.793 1 102858096.031 1  19241735.587 1  80000744.366 1
R08  21350875.196 1 114332952.781 1  21350872.787 1  88925610.111 1
R13  22353418.654 2 119366002.637 4  22353420.380 2  92840252.528 3
G29  24209745.993 1 127223064.723 2  24209744.434 1  99134852.832 3
G31  21635830.707 1 113697050.264 1  21635826.789 1  88595083.881 1
G32  21005634.210 1 110385348.192 1  21005633.090 1  86014554.224 1
E01  25091725.296 1 131857902.723 1  25091726.623 1 101033978.071 1
E04  23906344.618 1 125628686.138 1  23906345.090 1  96260941.401 1
E24  26655000.281 1 140072969.010 1  26655002.144 1 107328654.899 1
C28  26520191.106 1 138097592.052 2                
R12  20032541.594 1 107010239.478 1  20032541.417 1  83230188.225 1
E18  29245658.202 1 153686962.157 2  29245660.477 1 117760154.997 1
E31  23599766.385 1 124017609.231 1  23599768.452 1  95026488.215 1
G03  24366032.381 1 128044345.700 2  24366031.990 1  99774849.210 3
E19  26023712.990 1 136755538.471 2  26023715.516 1 104786704.259 2
E09  24554229.834 1 129033355.168 2  24554232.683 1  98869725.788 1
E12                                  27199942.139 1 109522892.978 6
> 2022 02 25 13 29 45.0000000  0 29                     
G10  23298651.841 1 122435211.538 1  23298651.627 1  95404058.780 2
G16  22087437.136 1 116070259.286 1                                
G22  21056975.543 1 110655145.543 1                                
G26  20110610.257 1 105681971.247 1  20110609.559 1  82349588.088 1
C20  21945427.057 1 114275596.579 1                
C32  23614384.104 1 122966287.138 1                
C37  23733385.875 1 123585964.205 1                
C36  25845369.729 1 134583626.368 1                
C19  24231186.819 1 126178157.275 1                
C27  25720337.611 1 133932552.402 1                
R02  21806211.138 1 116362129.471 1  21806211.172 1  90503887.740 1
R11  21810001.123 1 116546025.711 1  21810000.621 1  90646901.472 1
R01  19241009.282 1 102854219.311 1  19241010.537 1  79997729.118 1
R08  21359047.290 1 114376715.998 1  21359045.474 1  88959648.144 1
R13  22347189.909 2 119332739.714 4  22347191.741 2  92814381.400 3
G29  24209356.102 1 127221017.247 2  24209354.283 1  99133257.400 3
G31  21638365.519 1 113710370.799 1  21638361.695 1  88605463.491 1
G32  21005714.044 1 110385768.559 1  21005713.235 1  86014881.767 1
E01  25097496.767 1 131888233.426 1  25097498.627 1 101057218.465 1
E04  23904004.328 1 125616389.429 1  23904005.113 1  96251519.247 1
E24  26648420.958 1 140038396.591 1  26648423.309 1 107302164.353 1
C28  26516929.456 1 138080608.625 2                
R12  20034025.032 1 107018165.248 1  20034025.371 1  83236352.699 1
E12  27201129.045 9               9  27201146.046 1 109527740.015 6
E18  29237355.892 1 153643334.475 2  29237358.337 1 117726725.982 1
E31  23598667.672 1 124011836.748 1  23598670.050 1  95022065.152 1
G03  24358021.457 1 128002250.588 2  24358022.616 1  99742047.851 3
E19  26027848.239 1 136777269.898 3  26027850.931 1 104803355.581 2
E09  24547358.284 1 128997245.587 1  24547361.204 1  98842057.414 1
> 2022 02 25 13 30 00.0000000  0 29                     
G10  23308504.112 1 122486984.431 1  23308503.510 1  95444401.265 2
G16  22078382.371 1 116022676.382 1                                
G22  21053919.624 1 110639086.369 1                                
G26  20108613.834 1 105671478.920 1  20108612.980 1  82341412.243 1
C20  21944019.329 1 114268266.908 1                
C32  23621290.933 1 123002249.794 1                
C37  23738662.062 1 123613436.671 1                
C36  25840198.188 1 134556697.497 1                
C19  24223106.121 1 126136079.648 1                
C27  25715364.911 1 133906654.647 1                
R02  21795286.196 1 116303833.404 1  21795286.842 1  90458546.348 1
R11  21818515.570 1 116591523.298 1  21818514.836 1  90682288.487 1
R01  19240317.852 1 102850523.107 1  19240319.153 1  79994854.278 1
R08  21367243.172 1 114420604.365 1  21367240.911 1  88993783.501 1
R13  22340980.923 2 119299583.930 5  22340982.508 2  92788593.570 3
G29  24208986.136 1 127219074.545 2  24208984.640 1  99131743.628 3
G31  21640901.452 1 113723698.297 1  21640898.004 1  88615848.556 1
G32  21005811.177 1 110386278.332 1  21005810.191 1  86015278.981 1
E01  25103275.700 1 131918602.168 1  25103277.446 1 101080488.007 1
E04  23901675.140 1 125604148.608 1  23901675.809 1  96242139.911 1
E24  26641853.211 1 140003880.460 1  26641855.077 1 107275716.937 1
C28  26513674.282 1 138063659.976 2                
R12  20035530.379 1 107026204.211 1  20035530.343 1  83242605.230 1
E12  27202333.725 4 142949209.12117  27202333.666 1 109532524.719 6
E18  29229037.326 1 153599621.546 2  29229040.030 1 117693231.666 1
E31  23597585.455 1 124006150.387 1  23597587.918 1  95017708.072 1
G03  24350027.485 1 127960239.150 2  24350029.121 1  99709311.668 3
E19  26031995.536 1 136799061.787 3  26031998.132 1 104820053.208 2
E09  24540486.325 1 128961132.711 1  24540489.342 1  98814386.534 1
> 2022 02 25 13 30 15.0000000  0 29                     
G10  23318360.761 1 122538780.041 1  23318360.180 1  95484761.444 2
G16  22069344.470 1 115975182.098 1                                
G22  21050873.633 1 110623081.318 1                                
G26  20106642.874 1 105661121.510 1  20106642.145 1  82333341.523 1
C20  21942633.920 1 114261051.201 1                
C32  23628211.125 1 123038285.012 1                
C37  23743938.079 1 123640909.459 1                
C36  25835035.876 1 134529817.990 1                
C19  24215034.941 1 126094050.809 1                
C27  25710385.060 1 133880720.893 1                
R02  21784370.490 1 116245582.182 1  21784370.781 1  90413239.871 1
R11  21827029.982 1 116637022.196 1  21827029.506 1  90717676.457 1
R01  19239660.112 1 102847006.559 1  19239661.219 1  79992119.171 1
R08  21375462.646 1 114464616.639 1  21375459.900 1  89028015.235 1
R13  22334791.229 2 119266533.936 4  22334792.308 2  92762888.037 3
G29  24208636.613 1 127217235.798 2  24208634.705 1  99130310.803 3
G31  21643439.084 1 113737031.586 1  21643435.248 1  88626238.110 1
G32  21005924.750 1 110386876.607 1  21005924.130 1  86015745.157 1
E01  25109062.114 1 131949007.624 1  25109063.457 1 101103785.677 1
E04  23899356.602 1 125591962.767 1  23899356.879 1  96232802.707 1
E24  26635295.216 1 139969419.638 1  26635297.291 1 107249311.917 1
C28  26510425.784 1 138046745.318 2                
R12  20037055.852 1 107034354.805 1  20037056.123 1  83248944.583 1
E12  27203495.854 9               9  27203506.395 1 109537246.239 6
E18  29220702.052 1 153555822.419 2  29220705.443 1 117659671.320 1
E31  23596519.120 1 124000549.004 1  23596521.978 1  95013416.098 1
G03  24342048.907 1 127918310.504 3  24342050.229 1  99676639.986 4
E19  26036154.097 1 136820913.027 3  26036156.412 1 104836796.345 2
E09  24533614.238 1 128925015.642 1  24533616.284 1  98786712.429 1
> 2022 02 25 13 30 30.0000000  0 29                     
G10  23328220.483 1 122590596.941 1  23328221.000 1  95525138.189 2
G16  22060323.370 1 115927775.592 1                                
G22  21047838.055 1 110607129.699 1                                
G26  20104697.136 1 105650897.941 1  20104696.707 1  82325375.113 1
C20  21941269.905 1 114253948.537 1                
C32  23635145.323 1 123074391.497 1                
C37  23749213.634 1 123668381.365 1                
C36  25829883.097 1 134502986.796 2                
C19  24206973.356 1 126052070.021 1                
C27  25705397.529 1 133854750.298 1                
R02  21773462.334 1 116187375.991 1  21773463.203 1  90367968.394 1
R11  21835544.581 1 116682520.870 1  21835543.757 1  90753064.295 1
R01  19239035.694 1 102843668.641 1  19239036.711 1  79989523.007 1
R08  21383704.198 1 114508751.687 1  21383702.441 1  89062342.468 1
R13  22328621.733 2 119233588.815 4  22328622.061 2  92737264.073 4
G29  24208306.440 1 127215500.008 2  24208304.888 1  99128958.220 2
G31  21645977.084 1 113750369.543 1  21645973.430 1  88636631.315 1
G32  21006055.392 1 110387562.506 1  21006055.085 1  86016279.612 1
E01  25114854.509 1 131979448.503 1  25114856.177 1 101127110.503 1
E04  23897047.887 1 125579831.028 1  23897048.307 1  96223506.951 1
E24  26628748.211 1 139935013.190 1  26628749.763 1 107222948.540 1
C28  26507184.735 1 138029863.809 2                
R12  20038602.263 1 107042615.566 1  20038602.414 1  83255369.619 1
E12  27204657.677 9               9  27204663.373 1 109541903.705 6
E18  29212350.370 1 153511936.183 2  29212353.828 1 117626044.223 1
E31  23595469.366 1 123995031.471 1  23595472.046 1  95009188.377 1
G03  24334085.349 1 127876463.987 2  24334086.769 1  99644032.323 3
E19  26040323.347 1 136842822.716 3  26040325.300 1 104853584.267 2
E09  24526739.550 1 128888893.444 2  24526742.122 1  98759034.419 1
> 2022 02 25 13 30 45.0000000  0 29                     
G10  23338085.505 1 122642436.487 1  23338086.128 1  95565532.594 1
G16  22051319.429 1 115880458.946 1                                
G22  21044813.291 1 110591233.497 1                                
G26  20102777.724 1 105640809.939 1  20102776.987 1  82317514.334 1
C20  21939927.813 1 114246960.686 1                
C32  23642093.323 1 123110570.790 1                
C37  23754489.492 1 123695853.934 1                
C36  25824740.251 1 134476205.615 1                
C19  24198921.011 1 126010139.274 1                
C27  25700403.179 1 133828744.869 1                
R02  21762563.420 1 116129216.738 1  21762563.892 1  90322733.448 1
R11  21844059.438 1 116728020.846 1  21844058.351 1  90788453.143 1
R01  19238445.302 1 102840511.360 1  19238446.008 1  79987067.332 1
R08  21391969.234 1 114553010.685 1  21391967.085 1  89096766.098 1
R13  22322472.416 2 119200750.803 5  22322472.947 2  92711723.411 3
G29  24207996.145 1 127213869.107 2  24207994.491 1  99127687.384 3
G31  21648516.862 1 113763713.792 1  21648512.900 1  88647029.410 1
G32  21006202.899 1 110388337.969 1  21006202.170 1  86016883.863 1
E01  25120654.289 1 132009926.370 1  25120655.957 1 101150463.654 1
E04  23894750.019 1 125567755.310 1  23894750.552 1  96214254.126 1
E24  26622211.197 1 139900662.981 1  26622212.952 1 107196628.257 1
C28  26503949.443 1 138013017.490 2                
R12  20040169.657 1 107050987.872 1  20040169.802 1  83261881.407 1
E12  27205801.373 8               9  27205803.848 1 109546498.400 6
E18  29203983.399 1 153467964.779 2  29203986.286 1 117592351.842 1
E31  23594436.244 1 123989599.443 1  23594438.315 1  95005026.167 1
G03  24326138.639 1 127834701.540 3  24326139.625 1  99611490.140 4
E19  26044502.682 1 136864792.426 3  26044505.849 1 104870418.173 2
E09  24519865.841 1 128852768.116 2  24519867.428 1  98731353.977 1
> 2022 02 25 13 31 00.0000000  0 29                     
G10  23347954.685 1 122694298.731 1  23347955.376 1  95605944.669 2
G16  22042332.500 1 115833232.746 1                                
G22  21041799.036 1 110575393.374 1                                
G26  20100883.990 1 105630857.889 1  20100883.256 1  82309759.489 1
C20  21938607.945 1 114240088.198 1                
C32  23649054.559 1 123146823.082 1                
C37  23759765.093 1 123723327.398 1                
C36  25819607.252 1 134449474.786 1                
C19  24190878.330 1 125968259.237 1                
C27  25695402.436 1 133802705.225 1                
R02  21751673.076 1 116071105.849 1  21751674.064 1  90277536.095 1
R11  21852574.259 1 116773522.067 1  21852573.718 1  90823842.976 1
R01  19237888.630 1 102837535.281 1  19237889.391 1  79984752.586 1
R08  21400257.905 1 114597393.634 1  21400255.756 1  89131286.152 1
R13  22316343.312 2 119168019.754 4  22316344.626 2  92686265.937 3
G29  24207705.839 1 127212343.706 2  24207703.884 1  99126498.764 2
G31  21651057.161 1 113777064.608 1  21651053.422 1  88657432.624 1
G32  21006368.091 1 110389203.597 1  21006367.026 1  86017558.348 1
E01  25126461.388 1 132040441.371 1  25126462.808 1 101173845.270 1
E04  23892462.806 1 125555736.203 1  23892463.451 1  96205044.678 1
E24  26615685.052 1 139866369.526 1  26615687.163 1 107170351.463 1
C28  26500720.654 1 137996207.022 2                
R12  20041758.169 1 107059471.773 1  20041758.020 1  83268479.991 1
E12  27206919.080 9               9  27206929.803 1 109551030.638 6
E18  29195599.599 1 153423908.690 2  29195602.361 1 117558594.589 1
E31  23593418.819 1 123984253.280 1  23593421.082 1  95000929.760 1
G03  24318207.393 1 127793023.885 2  24318206.983 1  99579014.083 4
E19  26048695.216 1 136886822.856 3  26048698.113 1 104887298.572 2
E09  24512990.032 1 128816640.178 2  24512992.864 1  98703671.536 1
> 2022 02 25 13 31 15.0000000  0 29                     
G10  23357828.475 1 122746184.367 1  23357829.031 1  95646374.974 1
G16  22033363.301 1 115786098.547 2                                
G22  21038795.363 1 110559610.418 1                                
G26  20099016.302 1 105621042.832 1  20099015.569 1  82302111.387 1
C20  21937310.361 1 114233332.245 1                
C32  23656030.503 1 123183149.224 1                
C37  23765041.289 1 123750802.680 1                
C36  25814483.788 1 134422795.386 1                
C19  24182845.403 1 125926431.287 1                
C27  25690395.750 1 133776632.637 1                
R02  21740792.835 1 116013044.355 1  21740793.907 1  90232377.187 1
R11  21861090.436 1 116819025.214 1  21861088.632 1  90859234.309 1
R01  19237366.023 1 102834741.654 1  19237366.675 1  79982579.759 1
R08  21408569.008 1 114641901.408 1  21408567.428 1  89165903.253 1
R13  22310233.898 2 119135397.082 3  22310235.791 2  92660892.694 3
G29  24207435.981 1 127210925.021 2  24207433.913 1  99125393.271 3
G31  21653599.063 1 113790422.948 1  21653595.422 1  88667841.706 1
G32  21006550.605 1 110390160.652 1  21006549.227 1  86018304.090 1
E01  25132275.292 1 132070994.411 1  25132276.979 1 101197256.018 1
E04  23890186.920 1 125543774.975 1  23890187.146 1  96195879.577 1
E24  26609170.242 1 139832134.034 1  26609172.536 1 107144119.076 1
C28  26497499.103 1 137979433.781 2                
R12  20043366.911 1 107068068.088 1  20043367.368 1  83275166.008 1
E18  29187199.554 1 153379769.180 2  29187203.234 1 117524773.406 1
E31  23592417.561 1 123978993.977 1  23592420.253 1  94996899.909 1
G03  24310292.181 1 127751432.339 2  24310292.313 1  99546605.152 3
E19  26052899.922 1 136908914.698 3  26052902.106 1 104904226.062 2
E09  24506114.866 1 128780510.909 1  24506118.305 1  98675988.106 1
E12                                  27208040.083 1 109555501.250 7
> 2022 02 25 13 31 30.0000000  0 29                     
G10  23367706.387 1 122798094.932 1  23367707.298 1  95686824.668 1
G16  22024411.718 1 115739058.612 1                                
G22  21035803.510 1 110543887.252 1                                
G26  20097174.767 1 105611366.657 1  20097174.187 1  82294571.510 1
C20  21936035.646 1 114226694.773 1                
C32  23663021.446 1 123219550.843 1                
C37  23770318.863 1 123778281.459 1                
C36  25809370.300 1 134396169.261 1                
C19  24174822.680 1 125884657.520 1                
C27  25685382.692 1 133750529.311 2                
R02  21729922.260 1 115955035.087 1  21729923.003 1  90187258.877 1
R11  21869606.345 1 116864532.003 1  21869604.146 1  90894628.456 1
R01  19236877.701 1 102832132.742 1  19236878.559 1  79980550.595 1
R08  21416904.069 1 114686535.786 1  21416902.093 1  89200618.826 1
R13  22304145.582 2 119102884.775 4  22304147.754 2  92635605.369 3
G29  24207186.579 1 127209615.069 2  24207185.049 1  99124372.510 2
G31  21656142.731 1 113803790.561 1  21656139.436 1  88678258.032 1
G32  21006750.378 1 110391211.218 1  21006749.086 1  86019122.697 1
E01  25138097.075 1 132101587.126 1  25138098.265 1 101220697.187 1
E04  23887921.791 1 125531873.660 1  23887922.402 1  96186760.384 1
E24  26602666.988 1 139797958.531 2  26602669.128 1 107117932.660 1
C28  26494285.919 1 137962699.832 3                
R12  20044997.695 1 107076778.383 1  20044997.580 1  83281940.674 1
E18  29178785.521 1 153335548.294 1  29178788.255 1 117490889.873 1
E31  23591433.627 1 123973823.386 1  23591436.342 1  94992938.024 1
G03  24302394.182 1 127709929.164 2  24302396.037 1  99514265.041 2
E19  26057115.582 1 136931070.015 3  26057118.228 1 104921202.190 2
E09  24499240.703 1 128744382.420 1  24499243.032 1  98648305.254 1
E12                                  27209135.710 1 109559911.598 6
> 2022 02 25 13 31 45.0000000  0 29                     
G10  23377588.690 1 122850026.928 1  23377589.069 1  95727291.130 2
G16  22015477.469 1 115692109.878 1                                
G22  21032822.102 1 110528220.970 1                                
G26  20095359.416 1 105601826.228 1  20095358.673 1  82287137.412 1
C20  21934783.415 1 114220172.810 1                
C32  23670025.792 1 123256024.706 1                
C37  23775595.833 1 123805760.511 1                
C36  25804266.111 1 134369593.332 2                
C19  24166810.751 1 125842935.214 1                
C27  25680363.066 1 133724392.363 1                
R02  21719060.162 1 115897075.537 1  21719061.114 1  90142179.251 1
R11  21878122.225 1 116910038.898 1  21878120.905 1  90930022.691 1
R01  19236423.757 1 102829705.352 1  19236424.439 1  79978662.616 1
R08  21425262.188 1 114731293.067 1  21425260.698 1  89235430.017 1
R13  22298077.021 2 119070479.590 5  22298078.722 2  92610401.346 3
G29  24206957.535 1 127208410.789 2  24206955.938 1  99123434.078 3
G31  21658687.625 1 113817164.197 1  21658684.145 1  88688679.023 1
G32  21006967.553 1 110392352.350 1  21006966.431 1  86020011.880 1
E01  25143925.548 1 132132216.206 1  25143926.805 1 101244166.218 1
E04  23885667.972 1 125520029.395 1  23885668.558 1  96177684.898 1
E24  26596174.296 1 139763839.961 1  26596176.318 1 107091789.882 1
C28  26491079.678 1 137946002.464 2                
R12  20046649.193 1 107085599.191 1  20046648.910 1  83288801.312 1
E18  29170354.485 1 153291243.079 2  29170357.345 1 117456941.708 1
E31  23590466.133 1 123968738.294 1  23590468.691 1  94989041.654 1
G03  24294513.330 1 127668511.599 2  24294515.716 1  99481991.621 2
E19  26061343.749 1 136953285.776 2  26061345.661 1 104938224.627 2
E09  24492364.885 1 128708251.748 1  24492367.294 1  98620620.737 1
E12                                  27210215.723 1 109564259.308 6
> 2022 02 25 13 32 00.0000000  0 29                     
G10  23387474.999 1 122901979.433 1  23387475.590 1  95767773.565 1
G16  22006560.735 1 115645252.435 1                                
G22  21029852.129 1 110512611.326 1                                
G26  20093569.486 1 105592420.941 1  20093568.724 1  82279808.625 1
C20  21933553.073 1 114213765.914 1                
C32  23677043.676 1 123292570.034 1                
C37  23780872.701 1 123833239.092 1                
C36  25799172.278 1 134343067.012 1                
C19  24158808.672 1 125801264.046 1                
C27  25675337.390 1 133698221.565 1                
R02  21708207.391 1 115839165.181 1  21708208.865 1  90097137.874 1
R11  21886637.655 1 116955544.928 1  21886636.812 1  90965416.240 1
R01  19236003.694 1 102827459.101 1  19236004.590 1  79976915.501 1
R08  21433643.743 1 114776172.674 1  21433641.109 1  89270336.356 1
R13  22292028.549 2 119038180.970 4  22292029.706 2  92585280.274 3
G29  24206748.172 1 127207311.957 1  24206746.425 1  99122577.894 3
G31  21661233.737 1 113830543.103 1  21661229.825 1  88699104.139 1
G32  21007201.744 1 110393583.699 1  21007200.833 1  86020971.370 1
E01  25149760.949 1 132162880.884 1  25149762.144 1 101267662.516 1
E04  23883424.694 1 125508241.760 1  23883425.396 1  96168652.813 1
E24  26589692.583 1 139729777.962 1  26589694.390 1 107065690.438 1
C28  26487879.846 1 137929341.313 2                
R12  20048320.760 1 107094529.622 1  20048320.924 1  83295747.190 1
E18  29161907.614 1 153246853.119 1  29161910.167 1 117422928.620 1
E31  23589514.926 1 123963738.102 1  23589517.253 1  94985210.332 1
G03  24286648.441 1 127627179.258 2  24286649.745 1  99449784.601 3
E19  26065582.001 1 136975561.328 2  26065584.483 1 104955292.893 2
E09  24485488.327 1 128672118.526 2  24485490.933 1  98592934.247 1
E12                                  27211279.774 1 109568543.854 6
> 2022 02 25 13 32 15.0000000  0 29                     
G10  23397365.048 1 122953952.584 1  23397366.054 1  95808272.074 1
G16  21997661.824 1 115598486.943 1                                
G22  21026892.637 1 110497058.835 1                                
G26  20091805.637 1 105583151.288 1  20091805.145 1  82272585.517 1
C20  21932344.857 1 114207474.676 1                
C32  23684075.381 1 123329187.128 1                
C37  23786149.886 1 123860717.577 1                
C36  25794087.529 1 134316590.772 2                
C19  24150815.590 1 125759644.845 1                
C27  25670305.288 1 133672017.661 1                
R02  21697364.201 1 115781304.976 1  21697365.638 1  90052135.501 1
R11  21895153.674 1 117001050.217 1  21895152.552 1  91000809.201 1
R01  19235617.544 1 102825394.767 1  19235618.383 1  79975309.908 1
R08  21442047.518 1 114821174.499 1  21442044.283 1  89305337.743 1
R13  22286000.515 2 119005989.700 4  22286001.171 1  92560242.578 2
G29  24206559.510 1 127206319.270 2  24206556.676 1  99121804.354 4
G31  21663780.432 1 113843927.653 1  21663776.934 1  88709533.649 1
G32  21007452.929 1 110394905.971 1  21007452.567 1  86022001.684 1
E01  25155602.969 1 132193581.449 1  25155604.378 1 101291186.317 1
E04  23881192.720 1 125496511.470 1  23881193.199 1  96159664.663 1
E24  26583221.886 1 139695773.087 1  26583224.023 1 107039634.757 1
C28  26484687.982 1 137912717.171 2                
R12  20050013.001 1 107103569.678 1  20050012.870 1  83302778.363 1
E18  29153444.653 1 153202379.053 2  29153447.246 1 117388851.106 1
E31  23588579.432 1 123958823.204 1  23588581.895 1  94981444.374 1
G03  24278799.786 1 127585932.960 2  24278799.571 1  99417644.594 3
E19  26069833.566 1 136997897.192 3  26069834.933 1 104972407.335 2
E09  24478612.198 1 128635983.422 2  24478614.693 1  98565246.327 1
E12                                  27212328.343 1 109572765.696 6
> 2022 02 25 13 32 30.0000000  0 30                     
G10  23407258.517 1 123005943.761 1  23407260.087 1  95848784.596 1
G16  21988779.747 1 115551811.520 1                                
G22  21023943.931 1 110481561.603 1                                
G26  20090067.220 1 105574014.960 1  20090066.565 1  82265466.302 1
C20  21931158.334 1 114201296.914 1                
C32  23691120.879 1 123365873.467 1                
C37  23791426.290 1 123888193.515 1                
C36  25789011.970 1 134290162.331 2                
C19  24142832.346 1 125718075.559 1                
C27  25665266.323 1 133645778.541 1                
R02  21686530.425 1 115723493.724 1  21686532.263 1  90007171.226 1
R11  21903669.068 1 117046551.874 1  21903667.445 1  91036199.377 1
R01  19235264.992 1 102823510.195 1  19235265.614 1  79973844.119 1
R08  21450473.302 1 114866295.648 1  21450470.081 1  89340431.980 1
R13  22279991.688 2 118973903.296 4  22279992.162 1  92535286.518 2
G29  24206390.268 1 127205430.593 2  24206387.539 1  99121111.887 3
G31  21666328.226 1 113857315.530 1  21666325.108 1  88719965.752 1
G32  21007721.654 1 110396317.006 1  21007721.072 1  86023101.185 1
E01  25161451.465 1 132224315.389 1  25161452.882 1 101314735.685 1
E04  23878970.646 1 125484836.406 1  23878971.515 1  96150718.825 1
E24  26576761.665 1 139661823.224 2  26576763.639 1 107013621.239 1
C30  26732794.539 2 139204679.32015                
C28  26481501.031 1 137896128.115 2                
R12  20051725.340 1 107112716.811 1  20051725.730 1  83309892.799 1
E18  29144965.660 1 153157818.780 1  29144967.599 1 117354707.527 1
E31  23587659.848 1 123953991.256 1  23587662.337 1  94977741.978 1
G03  24270966.627 1 127544770.695 2  24270966.903 1  99385570.159 2
E19  26074095.201 1 137020290.943 3  26074096.364 1 104989566.168 2
E09  24471735.655 1 128599844.338 1  24471737.849 1  98537555.351 1
E12                                  27213361.094 1 109576922.929 6
> 2022 02 25 13 32 45.0000000  0 30                     
G10  23417155.495 1 123057951.068 1  23417156.539 1  95889309.687 1
G16  21979914.417 1 115505224.813 1                                
G22  21021005.054 1 110466118.471 1                                
G26  20088353.727 1 105565010.397 1  20088353.178 1  82258449.761 1
C20  21929993.640 1 114195231.234 1                
C32  23698179.531 1 123402627.367 1                
C37  23796702.421 1 123915665.236 1                
C36  25783945.858 1 134263780.146 1                
C19  24134858.600 1 125676555.014 1                
C27  25660220.870 1 133619503.006 1                
R02  21675706.008 1 115665729.876 1  21675707.469 1  89962243.805 1
R11  21912182.848 1 117092048.401 1  21912181.530 1  91071585.522 1
R01  19234945.679 1 102821803.922 1  19234946.168 1  79972516.998 1
R08  21458921.199 1 114911534.877 1  21458918.859 1  89375618.010 1
R13  22274002.103 2 118941920.174 4  22274002.742 2  92510410.746 2
G29  24206240.760 1 127204644.655 2  24206238.370 1  99120499.463 3
G31  21668875.968 1 113870705.069 1  21668872.539 1  88730399.127 1
G32  21008006.699 1 110397815.560 1  21008006.244 1  86024268.877 1
E01  25167305.565 1 132255080.989 1  25167307.391 1 101338309.313 1
E04  23876759.252 1 125473215.220 1  23876760.048 1  96141814.281 1
E24  26570311.351 1 139627926.953 1  26570313.272 1 106987648.786 1
C30  26728487.707 2 139182255.412 6                
C28  26478321.750 1 137879572.823 2                
R12  20053457.594 1 107121969.229 1  20053458.072 1  83317089.101 1
E18  29136468.866 1 153113170.938 2  29136471.396 1 117320496.849 1
E31  23586755.558 1 123949240.709 1  23586758.401 1  94974101.943 1
G03  24263149.045 1 127503691.250 2  24263150.249 1  99353560.230 2
E19  26078366.357 1 137042741.289 3  26078368.519 1 105006768.374 2
E09  24464857.042 1 128563699.962 2  24464860.226 1  98509860.329 1
E12                                  27214377.212 1 109581014.440 6
> 2022 02 25 13 33 00.0000000  0 31                     
G10  23427055.436 1 123109974.405 1  23427056.360 1  95929847.297 1
G16  21971066.005 1 115458727.554 1                                
G22  21018076.460 1 110450730.007 1                                
G26  20086665.277 1 105556137.896 1  20086664.556 1  82251536.118 1
C20  21928850.340 1 114189278.053 1                
C32  23705250.649 1 123439448.939 1                
C37  23801977.038 1 123943132.923 1                
C36  25778887.728 1 134237444.527 2                
C19  24126895.104 1 125635083.843 1                
C27  25655168.085 1 133593191.729 1                
R02  21664889.798 1 115608014.554 1  21664891.027 1  89917354.130 1
R11  21920696.272 1 117137539.547 1  21920694.408 1  91106967.491 1
R01  19234659.906 1 102820276.182 1  19234660.339 1  79971328.735 1
R08  21467391.682 1 114956891.737 1  21467389.636 1  89410895.506 1
R13  22268031.794 2 118910040.746 3  22268032.450 2  92485615.663 3
G29  24206110.322 1 127203961.823 2  24206108.482 1  99119967.409 3
G31  21671424.337 1 113884096.477 1  21671420.885 1  88740833.976 1
G32  21008308.621 1 110399402.112 1  21008308.136 1  86025505.124 1
E01  25173166.157 1 132285878.336 1  25173168.098 1 101361907.263 1
E04  23874558.474 1 125461648.454 1  23874558.914 1  96132951.426 1
E24  26563870.988 1 139594084.691 2  26563873.266 1 106961717.727 1
C30  26724166.888 2 139159748.950 5                
C28  26475149.458 1 137863051.971 2                
R12  20055209.752 1 107131326.800 1  20055209.330 1  83324367.214 1
E18  29127955.608 1 153068435.997 1  29127958.434 1 117286219.428 1
E31  23585867.626 1 123944571.777 1  23585869.884 1  94970524.438 1
G03  24255347.660 1 127462695.280 2  24255348.458 1  99321615.360 2
E19  26082649.568 1 137065248.235 3  26082651.583 1 105024013.922 2
E09  24457978.269 1 128527550.784 1  24457981.379 1  98482161.633 1
E12                                  27215376.977 1 109585040.467 5
G27                                  25401421.293 8               9
> 2022 02 25 13 33 15.0000000  0 30                     
G10  23436957.931 1 123162011.497 1  23436958.477 1  95970395.620 1
G16  21962234.742 1 115412317.937 2                                
G22  21015158.332 1 110435394.529 1                                
G26  20085001.629 1 105547395.485 1  20085001.023 1  82244723.836 1
C20  21927728.519 1 114183435.530 1                
C32  23712334.249 1 123476336.017 1                
C37  23807250.883 1 123970594.441 1                
C36  25773838.884 1 134211153.522 2                
C19  24118940.090 1 125593660.327 1                
C27  25650107.731 1 133566842.927 1                
R02  21654082.065 1 115550345.914 1  21654083.728 1  89872500.751 1
R11  21929208.015 1 117183023.047 1  21929206.167 1  91142343.561 1
R01  19234407.086 1 102818925.706 1  19234407.903 1  79970278.365 1
R08  21475883.085 1 115002364.376 1  21475880.634 1  89446263.096 1
R13  22262080.205 2 118878263.217 3  22262081.734 2  92460899.810 3
G29  24205999.940 1 127203380.232 2  24205997.784 1  99119514.200 3
G31  21673973.039 1 113897487.735 1  21673969.039 1  88751268.728 1
G32  21008627.004 1 110401074.853 1  21008626.609 1  86026808.561 1
E01  25179033.037 1 132316705.255 1  25179034.428 1 101385527.872 1
E04  23872367.670 1 125450134.300 1  23872367.814 1  96124128.884 1
E24  26557441.435 1 139560294.630 2  26557442.842 1 106935826.644 1
C28  26471983.721 1 137846563.775 2                
R12  20056980.128 1 107140787.117 1  20056980.322 1  83331725.233 1
E18  29119426.361 1 153023612.144 1  29119428.779 1 117251873.887 1
E31  23584994.465 1 123939982.412 1  23584996.649 1  94967007.909 1
G03  24247562.334 1 127421781.075 1  24247561.881 1  99289734.166 2
E19  26086942.333 1 137087810.119 3  26086945.015 1 105041301.566 2
E09  24451098.306 1 128491395.041 1  24451101.241 1  98454457.888 1
E12                                  27216360.179 1 109588999.505 6
G27                                  25392757.845 8 103979154.76416
> 2022 02 25 13 33 30.0000000  0 30                     
G10  23446863.397 1 123214065.564 1  23446863.653 1  96010957.213 1
G16  21953420.742 1 115366000.041 2                                
G22  21012250.765 1 110420115.929 1                                
G26  20083363.466 1 105538786.682 1  20083362.873 1  82238015.677 1
C20  21926628.676 1 114177707.289 1                
C32  23719431.396 1 123513291.952 1                
C37  23812523.441 1 123998053.233 1                
C36  25768799.654 1 134184910.680 2                
C19  24110995.072 1 125552288.349 1                
C27  25645040.769 1 133540460.375 1                
R02  21643284.870 1 115492728.626 1  21643286.037 1  89827687.340 1
R11  21937718.673 1 117228502.119 1  21937717.407 1  91177716.150 1
R01  19234188.354 1 102817756.009 1  19234189.357 1  79969368.591 1
R08  21484396.806 1 115047955.758 1  21484394.755 1  89481723.024 1
R13  22256148.825 2 118846590.986 3  22256150.389 2  92436265.873 3
G29  24205909.665 1 127202903.645 1  24205907.493 1  99119142.839 3
G31  21676521.908 1 113910882.281 1  21676518.197 1  88761706.018 1
G32  21008962.574 1 110402837.604 1  21008961.725 1  86028182.111 1
E01  25184905.894 1 132347565.139 1  25184906.796 1 101409173.740 1
E04  23870187.257 1 125438676.524 1  23870187.515 1  96115349.541 1
E24  26551022.097 1 139526560.449 2  26551023.667 1 106909978.379 1
C28  26468824.807 1 137830112.199 2                
R12  20058770.994 1 107150353.590 1  20058771.385 1  83339165.829 1
E18  29110881.190 1 152978703.127 1  29110883.024 1 117217463.083 1
E31  23584136.755 1 123935476.157 1  23584139.095 1  94963555.065 1
G03  24239793.183 1 127380952.489 2  24239792.390 1  99257919.668 2
E19  26091247.454 1 137110430.327 2  26091249.794 1 105058633.901 2
E09  24444217.394 1 128455236.463 1  24444220.306 1  98426751.994 1
E12                                  27217327.036 1 109592894.242 8
G27                                  25384099.136 4 103943703.440 8
> 2022 02 25 13 33 45.0000000  0 30                     
G10  23456770.860 1 123266131.843 2  23456772.030 1  96051528.271 1
G16  21944623.799 1 115319769.611 1                                
G22  21009353.772 1 110404890.009 1                                
G26  20081750.087 1 105530307.068 1  20081749.347 1  82231408.185 1
C20  21925549.400 1 114172089.062 1                
C32  23726540.410 1 123550312.159 1                
C37  23817795.226 1 124025504.735 1                
C36  25763768.238 1 134158711.645 1                
C19  24103058.886 1 125510963.770 1                
C27  25639966.840 1 133514039.982 2                
R02  21632496.319 1 115435158.601 1  21632497.614 1  89782910.650 1
R11  21946227.869 1 117273972.066 1  21946226.254 1  91213081.644 1
R01  19234002.526 1 102816762.608 1  19234003.674 1  79968595.936 1
R08  21492931.744 1 115093660.913 1  21492930.284 1  89517271.441 1
R13  22250236.458 2 118815019.820 4  22250238.047 2  92411710.501 3
G29  24205838.473 1 127202527.826 1  24205836.542 1  99118849.993 3
G31  21679070.210 1 113924275.520 1  21679066.791 1  88772142.306 1
G32  21009314.552 1 110404686.099 1  21009313.620 1  86029622.462 1
E01  25190783.619 1 132378453.339 1  25190784.512 1 101432841.320 1
E04  23868016.727 1 125427270.918 1  23868017.055 1  96106610.174 1
E24  26544612.300 1 139492877.852 1  26544614.207 1 106884169.650 1
C28  26465671.627 1 137813693.049 2                
R12  20060580.821 1 107160021.239 1  20060581.383 1  83346685.106 1
E18  29102318.053 1 152933704.681 1  29102320.210 1 117182983.765 1
E31  23583293.822 1 123931048.514 1  23583296.445 1  94960162.454 1
G03  24232039.075 1 127340205.426 1  24232039.480 1  99226168.713 2
E19  26095561.656 1 137133104.539 3  26095564.557 1 105076007.635 2
E09  24437335.790 1 128419070.889 1  24437337.840 1  98399040.701 1
E12                                  27218277.920 1 109596721.176 8
G27                                  25375426.682 4 103908194.890 7
> 2022 02 25 13 34 00.0000000  0 30                     
G10  23466680.902 1 123318208.723 2  23466682.086 1  96092107.603 1
G16  21935843.096 1 115273625.825 1                                
G22  21006466.115 1 110389715.837 1                                
G26  20080160.419 1 105521955.387 1  20080159.895 1  82224900.384 1
C20  21924491.686 1 114166579.744 1                
C32  23733661.980 1 123587395.215 1                
C37  23823065.592 1 124052947.587 1                
C36  25758745.341 1 134132555.076 2                
C19  24095132.780 1 125469685.722 1                
C27  25634886.428 1 133487580.888 1                
R02  21621716.940 1 115377634.752 1  21621718.182 1  89738169.905 1
R11  21954734.170 1 117319431.202 1  21954733.379 1  91248438.711 1
R01  19233849.538 1 102815944.566 1  19233850.407 1  79967959.670 1
R08  21501488.425 1 115139478.308 1  21501486.648 1  89552907.137 1
R13  22244343.344 2 118783548.251 4  22244344.371 2  92387232.638 3
G29  24205785.485 1 127202251.781 2  24205783.800 1  99118634.850 3
G31  21681618.560 1 113937666.223 1  21681614.874 1  88782576.608 1
G32  21009682.441 1 110406619.342 1  21009681.766 1  86031128.878 1
E01  25196666.315 1 132409368.463 1  25196667.549 1 101456529.520 1
E04  23865856.267 1 125415916.438 1  23865856.503 1  96097909.978 1
E24  26538212.437 1 139459245.769 2  26538214.062 1 106858399.622 1
C28  26462524.089 1 137797305.400 2                
R12  20062409.443 1 107169788.670 1  20062409.729 1  83354282.001 1
E12  27219208.134 8               9  27219211.494 1               9
E18  29093737.452 1 152888615.766 1  29093739.858 1 117148435.118 1
E31  23582466.225 1 123926698.228 1  23582468.681 1  94956829.103 1
G03  24224300.584 1 127299538.978 1  24224301.953 1  99194480.626 1
E19  26099887.368 1 137155831.537 2  26099889.182 1 105093421.767 2
E09  24430452.177 1 128382897.234 1  24430454.337 1  98371323.244 1
G27                                  25366744.583 2 103872628.375 5
> 2022 02 25 13 34 15.0000000  0 30                     
G10  23476591.937 1 123370290.873 2  23476593.342 1  96132691.001 1
G16  21927077.259 1 115227563.854 1                                
G22  21003587.519 1 110374588.650 1                                
G26  20078594.633 1 105513726.595 1  20078593.852 1  82218488.331 1
C20  21923453.616 1 114161174.451 1                
C32  23740794.565 1 123624535.932 1                
C37  23828332.848 1 124080376.676 1                
C36  25753729.344 1 134106436.014 2                
C19  24087213.639 1 125428449.505 1                
C27  25629796.708 1 133461078.295 1                
R02  21610944.457 1 115320152.992 1  21610945.798 1  89693461.874 1
R11  21963238.479 1 117364874.017 1  21963237.502 1  91283783.079 1
R01  19233728.457 1 102815296.966 1  19233729.354 1  79967455.953 1
R08  21510065.015 1 115185403.132 1  21510062.584 1  89588626.391 1
R13  22238467.542 2 118752171.587 3  22238468.579 2  92362828.596 2
G29  24205750.631 1 127202070.704 1  24205749.105 1  99118493.697 4
G31  21684165.289 1 113951049.202 1  21684161.405 1  88793004.885 1
G32  21010065.466 1 110408632.461 1  21010064.595 1  86032697.523 1
E01  25202553.303 1 132440305.264 1  25202554.484 1 101480234.320 1
E04  23863704.387 1 125404608.233 1  23863704.802 1  96089245.234 1
E24  26531820.962 1 139425659.237 1  26531822.479 1 106832664.499 1
C28  26459381.604 1 137780944.642 2                
R12  20064255.511 1 107179650.344 1  20064255.697 1  83361952.182 1
E12  27220118.913 9               9  27220126.797 1 109604165.350 8
E18  29085139.175 1 152843431.497 1  29085141.559 1 117113813.413 1
E31  23581652.441 1 123922420.161 1  23581654.579 1  94953551.101 1
G03  24216576.404 1 127258948.384 1  24216576.841 1  99162851.603 2
E19  26104221.390 1 137178606.285 3  26104222.528 1 105110872.530 2
E09  24423565.591 1 128346710.703 2  24423568.150 1  98343595.908 1
G27                                  25358045.825 2 103837000.223 5
> 2022 02 25 13 34 30.0000000  0 30                     
G10  23486504.348 1 123422379.199 2  23486505.401 1  96173279.249 1
G16  21918327.892 1 115181585.440 1                                
G22  21000718.046 1 110359510.134 1                                
G26  20077052.185 1 105505621.946 1  20077051.768 1  82212173.026 1
C20  21922435.799 1 114155874.577 1                
C32  23747938.056 1 123661735.464 1                
C37  23833598.043 1 124107793.132 1                
C36  25748720.906 1 134080355.777 1                
C19  24079302.957 1 125387256.727 1                
C27  25624699.375 1 133434533.806 1                
R02  21600180.587 1 115262714.450 1  21600181.823 1  89648787.478 1
R11  21971740.063 1 117410301.689 1  21971738.825 1  91319115.691 1
R01  19233639.575 1 102814821.324 1  19233640.753 1  79967085.983 1
R08  21518661.175 1 115231435.822 1  21518657.953 1  89624429.580 1
R13  22232609.720 2 118720890.954 3  22232610.757 2  92338499.224 2
G29  24205734.444 1 127201985.974 1  24205732.667 1  99118427.708 3
G31  21686710.820 1 113964425.736 1  21686707.072 1  88803428.161 1
G32  21010464.171 1 110410726.989 1  21010463.140 1  86034329.613 1
E01  25208444.359 1 132471264.838 1  25208445.904 1 101503956.589 1
E04  23861561.532 1 125393347.851 1  23861561.983 1  96080617.146 1
E24  26525438.107 1 139392119.779 1  26525440.082 1 106806965.428 1
C28  26456244.491 1 137764612.287 3                
R12  20066119.585 1 107189607.265 1  20066119.371 1  83369696.447 1
E18  29076523.094 1 152798153.392 1  29076525.278 1 117079119.811 1
E31  23580852.011 1 123918215.596 1  23580854.534 1  94950329.421 1
G03  24208866.936 1 127218435.271 1  24208866.975 1  99131282.917 2
E19  26108563.170 1 137201430.033 3  26108566.281 1 105128360.837 2
E09  24416677.244 1 128310512.798 2  24416679.739 1  98315859.866 1
E12                                  27221023.159 8               9
G27                                  25349329.524 2 103801311.703 5
> 2022 02 25 13 34 45.0000000  0 30                     
G10  23496416.959 1 123474470.886 1  23496417.994 1  96213870.100 1
G16  21909593.886 1 115135688.424 1                                
G22  20997857.480 1 110344478.023 1                                
G26  20075533.204 1 105497638.959 1  20075532.522 1  82205952.504 1
C20  21921437.734 1 114150677.771 1                
C32  23755092.429 1 123698991.068 1                
C37  23838860.250 1 124135194.371 1                
C36  25743719.883 1 134054311.919 2                
C19  24071400.474 1 125346105.189 1                
C27  25619592.926 1 133407945.206 1                
R02  21589423.830 1 115205317.918 1  21589425.853 1  89604145.753 1
R11  21980237.608 1 117455711.140 1  21980237.285 1  91354434.147 1
R01  19233582.064 1 102814515.099 1  19233583.279 1  79966847.801 1
R08  21527276.417 1 115277573.567 1  21527274.101 1  89660314.479 1
R13  22226770.338 2 118689703.743 3  22226770.465 2  92314242.488 3
G29  24205735.826 1 127201995.355 2  24205734.877 1  99118435.022 3
G31  21689254.355 1 113977793.260 1  21689250.917 1  88813844.392 1
G32  21010877.647 1 110412900.614 1  21010876.723 1  86036023.343 1
E01  25214339.527 1 132502244.522 1  25214341.092 1 101527694.241 1
E04  23859427.499 1 125382132.969 1  23859427.909 1  96072023.914 1
E24  26519064.559 1 139358624.974 2  26519066.219 1 106781300.586 1
C28  26453113.931 1 137748306.142 2                
R12  20068000.690 1 107199656.472 1  20068000.818 1  83377512.495 1
E18  29067887.945 1 152752779.112 1  29067890.886 1 117044352.522 1
E31  23580065.524 1 123914081.945 1  23580067.848 1  94947162.072 1
G03  24201171.974 1 127177997.446 1  24201172.900 1  99099772.927 2
E19  26112916.775 1 137224300.377 2  26112918.635 1 105145884.814 2
E09  24409786.537 1 128274301.234 1  24409788.668 1  98288113.334 1
E12                                  27221903.581 4               9
G27                                  25340600.118 2 103765560.974 4
> 2022 02 25 13 35 00.0000000  0 30                     
G10  23506329.947 1 123526564.636 2  23506331.036 1  96254462.572 1
G16  21900875.713 1 115089872.316 1                                
G22  20995005.571 1 110329491.585 1                                
G26  20074037.147 1 105489776.625 1  20074036.562 1  82199826.007 1
C20  21920459.398 1 114145583.163 1                
C32  23762257.627 1 123736301.602 1                
C37  23844119.282 1 124162579.289 1                
C36  25738724.206 1 134028303.401 1                
C19  24063504.804 1 125304994.257 1                
C27  25614478.044 1 133381311.909 1                
R02  21578676.165 1 115147963.066 1  21578676.958 1  89559536.443 1
R11  21988731.791 1 117501101.239 1  21988731.171 1  91389737.536 1
R01  19233556.816 1 102814377.637 1  19233557.623 1  79966740.875 1
R08  21535911.757 1 115323815.183 1  21535909.657 1  89696280.144 1
R13  22220947.053 2 118658609.202 4  22220947.262 2  92290057.865 3
G29  24205755.810 1 127202097.977 2  24205754.747 1  99118514.977 3
G31  21691796.385 1 113991150.584 1  21691792.774 1  88824252.673 1
G32  21011306.057 1 110415152.576 1  21011305.621 1  86037778.094 1
E01  25220238.563 1 132533243.135 1  25220240.164 1 101551446.414 1
E04  23857301.853 1 125370962.818 1  23857302.304 1  96063464.953 1
E24  26512698.701 1 139325173.985 1  26512700.768 1 106755669.328 1
C28  26449987.858 1 137732025.516 2                
R12  20069899.188 1 107209796.744 1  20069899.396 1  83385399.379 1
E18  29059234.881 1 152707307.903 1  29059237.830 1 117009510.939 1
E31  23579291.977 1 123910018.213 1  23579294.511 1  94944048.295 1
G03  24193490.857 1 127137634.255 1  24193491.896 1  99068321.092 2
E19  26117277.135 1 137247216.153 2  26117279.096 1 105163443.661 2
E09  24402892.980 1 128238075.253 1  24402895.334 1  98260355.762 1
E12                                  27222765.792 8               9
G27                                  25331853.809 2 103729747.498 4
> 2022 02 25 13 35 15.0000000  0 31                     
G10  23516243.004 1 123578656.796 2  23516244.192 1  96295053.790 1
G16  21892171.838 1 115044133.942 1                                
G22  20992162.364 1 110314548.091 1                                
G27  25323095.236 8 133073749.12337  25323092.668 1 103693868.959 3
G26  20072563.223 1 105482031.632 1  20072562.867 1  82193790.947 1
C20  21919500.120 1 114140587.621 1                
C32  23769433.454 1 123773663.631 1                
C37  23849373.889 1 124189944.503 1                
C36  25733736.446 1 134002326.992 2                
C19  24055616.272 1 125263920.949 1                
C27  25609354.234 1 133354630.862 1                
R02  21567934.869 1 115090646.517 1  21567936.077 1  89514956.936 1
R11  21997221.216 1 117546468.246 1  21997220.600 1  91425022.951 1
R01  19233562.160 1 102814405.641 1  19233563.156 1  79966762.637 1
R08  21544565.786 1 115370157.055 1  21544563.979 1  89732323.804 1
R13  22215140.889 2 118627603.882 3  22215141.297 2  92265942.648 2
G29  24205792.793 1 127202290.811 1  24205790.961 1  99118665.259 3
G31  21694335.764 1 114004494.182 1  21694332.250 1  88834650.285 1
G32  21011749.198 1 110417479.818 1  21011748.321 1  86039591.506 1
E01  25226140.939 1 132564257.198 1  25226141.962 1 101575210.426 1
E04  23855183.882 1 125359834.335 1  23855184.666 1  96054937.935 1
E24  26506341.261 1 139291763.708 1  26506342.853 1 106730069.234 1
C30  26684520.372 4 138953312.12337                
C28  26446865.599 1 137715767.491 3                
R12  20071813.439 1 107220024.331 1  20071814.000 1  83393354.154 1
E18  29050562.558 1 152661736.606 1  29050565.916 1 116974592.672 1
E31  23578531.615 1 123906021.052 1  23578533.867 1  94940985.529 1
G03  24185823.421 1 127097342.688 1  24185823.859 1  99036925.073 2
E19  26121645.924 1 137270174.336 2  26121647.808 1 105181034.963 2
E09  24395996.339 1 128201831.753 1  24395998.761 1  98232584.795 1
E12                                  27223606.941 8               9
> 2022 02 25 13 35 30.0000000  0 31                     
G10  23526155.507 1 123630748.407 1  23526156.905 1  96335644.595 1
G16  21883482.961 1 114998475.010 1                                
G22  20989326.990 1 110299649.052 1                                
G27  25314314.747 2               9  25314314.727 2 103657926.589 5
G26  20071112.083 1 105474405.370 1  20071111.647 1  82187848.399 1
C20  21918559.926 1 114135692.596 1                
C32  23776618.144 1 123811078.323 1                
C37  23854625.716 1 124217291.221 1                
C36  25728754.434 1 133976384.020 2                
C19  24047736.798 1 125222886.947 1                
C27  25604221.616 1 133327903.646 2                
R02  21557201.368 1 115033370.640 1  21557202.358 1  89470409.057 1
R11  22005706.664 1 117591813.232 1  22005706.428 1  91460291.239 1
R01  19233598.743 1 102814600.647 1  19233599.390 1  79966914.292 1
R08  21553239.094 1 115416600.030 1  21553237.108 1  89768446.080 1
R13  22209351.315 2 118596689.503 4  22209351.910 2  92241898.144 3
G29  24205846.990 1 127202575.374 2  24205844.847 1  99118886.972 3
G31  21696872.421 1 114017825.538 1  21696869.041 1  88845038.363 1
G32  21012206.729 1 110419883.876 1  21012205.749 1  86041464.780 1
E01  25232045.398 1 132595287.892 1  25232046.956 1 101598987.186 1
E04  23853074.321 1 125348749.071 1  23853075.245 1  96046444.019 1
E24  26499991.881 1 139258395.600 1  26499993.108 1 106704501.482 1
C30  26680028.929 2 138929913.80516                
C28  26443747.920 1 137699533.785 3                
R12  20073744.844 1 107230340.483 1  20073744.827 1  83401377.820 1
E18  29041871.987 1 152616066.782 2  29041875.377 1 116939598.924 1
E31  23577783.782 1 123902091.771 1  23577786.174 1  94937974.779 1
G03  24178170.362 1 127057124.483 1  24178169.992 1  99005586.180 2
E19  26126023.412 1 137293176.186 3  26126024.674 1 105198659.718 2
E09  24389096.875 1 128165572.370 2  24389098.846 1  98204801.623 1
E12                                  27224429.349 9               9
> 2022 02 25 13 35 45.0000000  0 31                     
G10  23536067.296 1 123682836.043 2  23536068.270 1  96376232.304 2
G16  21874808.910 1 114952892.793 1                                
G22  20986499.519 1 110284791.738 1                                
G27  25305518.791 4 132981396.96117  25305520.509 1 103621918.198 4
G26  20069682.785 1 105466894.673 1  20069682.134 1  82181995.903 1
C20  21917638.616 1 114130895.145 1                
C32  23783812.429 1 123848542.429 1                
C37  23859873.560 1 124244616.255 1                
C36  25723777.922 1 133950471.458 2                
C19  24039863.791 1 125181889.501 1                
C27  25599079.738 1 133301127.629 2                
R02  21546475.058 1 114976132.414 1  21546475.991 1  89425890.447 1
R11  22014187.917 1 117637132.765 1  22014187.574 1  91495539.748 1
R01  19233665.743 1 102814959.684 1  19233666.528 1  79967193.519 1
R08  21561930.306 1 115463140.990 1  21561927.890 1  89804644.568 1
R13  22203578.615 2 118565862.648 3  22203579.030 1  92217921.719 2
G29  24205918.131 1 127202948.669 2  24205916.341 1  99119177.830 3
G31  21699406.320 1 114031141.437 1  21699402.954 1  88855414.372 1
G32  21012677.920 1 110422361.878 1  21012677.442 1  86043395.668 1
E01  25237952.692 1 132626331.958 1  25237954.538 1 101622774.193 1
E04  23850972.229 1 125337704.155 1  23850973.483 1  96037981.028 1
E24  26493649.222 1 139225066.778 1  26493651.094 1 106678963.792 1
C30  26675516.052 2 138906418.720 7                
C28  26440633.611 1 137683321.528 2                
R12  20075692.594 1 107240741.508 1  20075692.026 1  83409467.522 1
E18  29033162.394 1 152570295.549 2  29033165.502 1 116904527.469 1
E31  23577048.331 1 123898227.229 1  23577050.825 1  94935013.640 1
G03  24170530.900 1 127016976.794 1  24170530.937 1  98974302.294 2
E19  26130407.362 1 137316218.629 3  26130409.555 1 105216315.595 2
E09  24382192.748 1 128129294.168 2  24382195.034 1  98177004.057 1
E12                                  27225233.419 4 109624734.78817
> 2022 02 25 13 36 00.0000000  0 31                     
G10  23545978.066 1 123734918.523 1  23545979.409 1  96416816.010 1
G16  21866149.536 1 114907386.715 1                                
G22  20983680.139 1 110269975.509 1                                
G27  25296708.928 2 132935100.880 7  25296710.725 1 103585843.339 3
G26  20068275.410 1 105459498.667 1  20068274.524 1  82176232.771 1
C20  21916735.754 1 114126194.504 1                
C32  23791016.739 1 123886054.875 1                
C37  23865116.542 1 124271918.629 1                
C36  25718807.366 1 133924588.435 2                
C19  24031997.191 1 125140928.107 1                
C27  25593927.936 1 133274302.114 1                
R02  21535756.437 1 114918931.981 1  21535756.856 1  89381401.248 1
R11  22022664.218 1 117682425.715 1  22022664.230 1  91530767.587 1
R01  19233763.107 1 102815482.013 1  19233764.234 1  79967599.786 1
R08  21570639.309 1 115509778.430 1  21570637.341 1  89840918.112 1
R13  22197822.189 2 118535122.636 3  22197822.339 2  92194012.843 3
G29  24206005.719 1 127203409.948 2  24206003.688 1  99119537.249 3
G31  21701937.498 1 114044440.876 1  21701933.922 1  88865777.567 1
G32  21013163.601 1 110424913.168 1  21013162.859 1  86045383.675 1
E01  25243862.449 1 132657388.310 1  25243864.410 1 101646570.620 1
E04  23848878.416 1 125326698.906 1  23848879.210 1  96029548.432 1
E24  26487315.328 1 139191776.418 1  26487316.242 1 106653455.623 1
C30  26670984.835 2 138882825.588 7                
C28  26437524.925 1 137667130.229 2                
R12  20077654.528 1 107251226.334 1  20077655.049 1  83417622.360 1
E18  29024432.898 1 152524422.215 2  29024436.297 1 116869377.784 1
E31  23576325.186 1 123894426.517 1  23576327.467 1  94932101.401 1
G03  24162904.207 1 126976899.066 1  24162904.215 1  98943072.905 2
E19  26134801.091 1 137339300.999 2  26134802.065 1 105234002.066 2
E09  24375285.440 1 128092996.531 1  24375287.752 1  98149191.578 1
E12                                  27226017.785 4 109627892.132 6
> 2022 02 25 13 36 15.0000000  0 31                     
G10  23555888.023 1 123786992.335 1  23555889.345 1  96457392.939 1
G16  21857504.241 1 114861954.065 1                                
G22  20980868.076 1 110255197.577 1                                
G27  25287882.580 2 132888716.606 6  25287884.362 1 103549699.730 3
G26  20066889.290 1 105452214.211 1  20066888.658 1  82170556.572 1
C20  21915851.157 1 114121587.684 1                
C32  23798228.957 1 123923612.394 1                
C37  23870354.601 1 124299195.120 1                
C36  25713841.781 1 133898731.864 2                
C19  24024137.337 1 125099999.858 1                
C27  25588766.890 1 133247424.303 2                
R02  21525043.368 1 114861766.455 1  21525043.890 1  89336939.187 1
R11  22031134.390 1 117727688.513 1  22031133.961 1  91565971.945 1
R01  19233891.000 1 102816164.641 1  19233891.728 1  79968130.688 1
R08  21579365.948 1 115556509.113 1  21579364.332 1  89877264.147 1
R13  22192081.248 2 118504466.292 3  22192081.575 2  92170169.006 2
G29  24206109.570 1 127203956.327 2  24206107.610 1  99119963.018 3
G31  21704464.108 1 114057720.779 1  21704460.745 1  88876125.537 1
G32  21013662.300 1 110427534.801 1  21013662.035 1  86047426.488 1
E01  25249774.050 1 132688453.676 1  25249775.883 1 101670373.926 1
E04  23846791.042 1 125315730.418 1  23846791.849 1  96021143.999 1
E24  26480986.435 1 139158521.569 1  26480987.865 1 106627974.644 1
C30  26666435.062 2 138859131.515 8                
C28  26434419.499 1 137650956.926 3                
R12  20079632.379 1 107261791.323 1  20079633.092 1  83425839.566 1
E18  29015683.696 1 152478443.833 2  29015686.755 1 116834147.608 1
E31  23575613.473 1 123890686.444 1  23575615.893 1  94929235.617 1
G03  24155290.024 1 126936888.495 2  24155290.918 1  98911895.884 2
E19  26139198.610 1 137362419.810 3  26139201.554 1 105251716.452 2
E09  24368374.104 1 128056676.550 1  24368376.500 1  98121361.965 1
E12                                  27226782.316 2 109630968.361 7
> 2022 02 25 13 36 30.0000000  0 31                     
G10  23565796.049 1 123839058.431 1  23565797.204 1  96497963.835 2
G16  21848872.997 1 114816596.410 1                                
G22  20978063.729 1 110240459.463 1                                
G27  25279037.648 2 132842245.692 7  25279041.276 1 103513488.631 4
G26  20065524.529 1 105445042.526 1  20065524.006 1  82164968.233 1
C20  21914984.773 1 114117076.034 1                
C32  23805450.693 1 123961216.011 1                
C37  23875587.923 1 124326446.817 1                
C36  25708881.102 1 133872902.987 2                
C19  24016284.652 1 125059106.384 1                
C27  25583595.730 1 133220495.784 2                
R02  21514336.715 1 114804637.596 1  21514337.697 1  89292505.672 1
R11  22039598.877 1 117772922.074 1  22039598.707 1  91601153.552 1
R01  19234048.886 1 102817009.043 1  19234049.643 1  79968787.433 1
R08  21588109.934 1 115603333.883 1  21588108.333 1  89913683.372 1
R13  22186355.978 2 118473894.852 4  22186356.504 2  92146391.249 2
G29  24206230.049 1 127204589.289 1  24206228.328 1  99120456.243 3
G31  21706987.690 1 114070982.409 1  21706983.884 1  88886459.259 1
G32  21014174.888 1 110430228.245 1  21014174.303 1  86049525.273 1
E01  25255687.678 1 132719529.084 1  25255689.287 1 101694184.936 1
E04  23844711.152 1 125304800.142 1  23844712.040 1  96012768.843 1
E24  26474665.248 1 139125303.641 1  26474666.919 1 106602521.954 1
C30  26661864.195 8 138835322.41937                
C28  26431317.684 1 137634803.280 2                
R12  20081625.666 1 107272437.548 1  20081625.784 1  83434119.960 1
E18  29006914.451 1 152432361.857 1  29006917.520 1 116798838.045 1
E31  23574913.484 1 123887008.200 1  23574915.929 1  94926417.222 1
G03  24147689.508 1 126896946.650 2  24147689.927 1  98880772.351 2
E19  26143606.531 1 137385576.590 3  26143608.013 1 105269459.933 2
E09  24361458.304 1 128020335.644 1  24361461.298 1  98093516.351 1
E12                                  27227525.861 1 109633964.387 6
> 2022 02 25 13 36 45.0000000  0 31                     
G10  23575702.440 1 123891116.955 1  23575703.500 1  96538528.854 2
G16  21840255.993 1 114771314.454 1                                
G22  20975266.618 1 110225761.968 1                                
G27  25270178.558 2 132795688.883 5  25270181.815 1 103477210.548 3
G26  20064181.337 1 105437984.072 1  20064180.852 1  82159468.138 1
C20  21914137.037 1 114112660.128 1                
C32  23812680.725 1 123998866.021 1                
C37  23880816.926 1 124353674.072 1                
C36  25703927.000 1 133847102.261 1                
C19  24008438.547 1 125018248.463 1                
C27  25578413.728 1 133193517.354 2                
R02  21503638.251 1 114747546.621 1  21503639.198 1  89248101.584 1
R11  22048058.258 1 117818126.543 1  22048058.394 1  91636312.553 1
R01  19234237.184 1 102818015.724 1  19234237.734 1  79969570.384 1
R08  21596871.948 1 115650252.883 1  21596869.587 1  89950175.867 1
R13  22180647.114 2 118443408.895 3  22180647.367 2  92122679.987 2
G29  24206366.649 1 127205309.356 2  24206366.096 1  99121017.355 2
G31  21709508.141 1 114084225.960 1  21709504.379 1  88896778.903 1
G32  21014701.213 1 110432994.169 1  21014700.493 1  86051680.515 1
E01  25261602.562 1 132750614.855 1  25261604.695 1 101718003.887 1
E04  23842638.711 1 125293908.772 1  23842639.545 1  96004423.496 1
E24  26468350.126 1 139092123.202 2  26468352.652 1 106577098.010 1
C30  26657275.687 2 138811429.27917                
C28  26428218.811 1 137618670.063 2                
R12  20083634.073 1 107283165.148 1  20083633.588 1  83442463.645 1
E18  28998125.351 1 152386176.935 2  28998128.959 1 116763449.617 1
E31  23574225.472 1 123883392.221 1  23574227.868 1  94923646.531 1
G03  24140102.271 1 126857074.304 2  24140102.271 1  98849702.991 2
E19  26148021.015 1 137408771.703 3  26148022.132 1 105287232.802 2
E09  24354539.368 1 127983974.544 2  24354541.620 1  98065655.253 1
E12                                  27228250.141 1 109636880.665 6
> 2022 02 25 13 37 00.0000000  0 31                     
G10  23585606.972 1 123943164.093 1  23585607.447 1  96579085.038 2
G16  21831652.899 1 114726105.100 1                                
G22  20972477.125 1 110211101.908 1                                
G27  25261303.557 2 132749042.934 5  25261305.555 1 103440863.085 3
G26  20062859.040 1 105431035.332 1  20062858.557 1  82154053.531 1
C20  21913306.501 1 114108336.636 1                
C32  23819919.692 1 124036558.780 1                
C37  23886040.217 1 124380873.352 1                
C36  25698977.063 1 133821326.187 1                
C19  24000598.621 1 124977422.962 1                
C27  25573222.361 1 133166485.797 1                
R02  21492945.904 1 114690490.657 1  21492946.936 1  89203724.765 1
R11  22056511.706 1 117863298.161 1  22056511.646 1  91671445.989 1
R01  19234454.949 1 102819181.426 1  19234455.765 1  79970477.023 1
R08  21605651.369 1 115697262.448 1  21605648.243 1  89986738.840 1
R13  22174953.915 2 118413005.070 4  22174953.314 2  92099032.552 2
G29  24206519.310 1 127206113.457 1  24206518.956 1  99121643.924 2
G31  21712024.103 1 114097447.882 1  21712020.225 1  88907081.679 1
G32  21015240.898 1 110435829.322 1  21015240.272 1  86053889.710 1
E01  25267519.372 1 132781707.298 1  25267521.435 1 101741827.961 1
E04  23840572.952 1 125283053.023 1  23840573.602 1  95996105.453 1
E24  26462044.068 1 139058976.984 1  26462045.351 1 106551700.238 1
C30  26652669.800 2 138787434.275 6                
C28  26425123.581 1 137602554.118 3                
R12  20085656.562 1 107293970.182 1  20085656.356 1  83450867.566 1
E18  28989316.833 1 152339885.785 1  28989320.006 1 116727979.786 1
E31  23573548.737 1 123879834.946 1  23573550.830 1  94920920.825 1
G03  24132527.554 1 126817268.274 2  24132527.009 1  98818685.298 2
E19  26152440.643 1 137432001.730 3  26152442.659 1 105305032.405 2
E09  24347615.591 1 127947589.978 1  24347617.869 1  98037776.177 1
E12                                  27228954.211 1 109639714.483 6
> 2022 02 25 13 37 15.0000000  0 31                     
G10  23595508.737 1 123995200.187 1  23595510.139 1  96619632.568 2
G16  21823063.918 1 114680969.362 1                                
G22  20969694.601 1 110196480.238 1                                
G27  25252408.377 2 132702307.91117  25252412.408 1 103404446.942 3
G26  20061557.823 1 105424196.964 1  20061557.153 1  82148724.938 1
C20  21912494.277 1 114104106.317 1                
C32  23827166.095 1 124074294.794 1                
C37  23891258.597 1 124408045.158 1                
C36  25694032.053 1 133795575.510 2                
C19  23992764.687 1 124936630.846 1                
C27  25568021.995 1 133139402.059 2                
R02  21482260.287 1 114633470.682 1  21482261.305 1  89159375.907 1
R11  22064959.076 1 117908437.330 1  22064958.990 1  91706554.224 1
R01  19234703.266 1 102820506.840 1  19234703.923 1  79971507.894 1
R08  21614446.532 1 115744362.555 1  21614444.418 1  90023372.220 1
R13  22169275.413 2 118382683.828 3  22169275.426 1  92075449.375 2
G29  24206689.244 1 127207002.253 1  24206688.197 1  99122336.435 2
G31  21714535.992 1 114110648.737 1  21714532.171 1  88917368.055 1
G32  21015793.883 1 110438734.544 1  21015793.080 1  86056153.503 1
E01  25273437.490 1 132812806.912 1  25273439.344 1 101765657.513 1
E04  23838514.205 1 125272233.763 1  23838514.751 1  95987815.358 1
E24  26455742.410 1 139025865.702 2  26455744.635 1 106526329.283 1
C30  26648042.024 2 138763337.827 5                
C28  26422031.690 1 137586456.424 3                
R12  20087694.048 1 107304852.918 1  20087693.982 1  83459331.894 1
E18  28980487.614 1 152293489.276 1  28980490.967 1 116692429.226 1
E31  23572883.262 1 123876337.031 1  23572885.299 1  94918240.597 1
G03  24124965.692 1 126777529.530 2  24124965.775 1  98787720.091 2
E19  26156868.384 1 137455267.448 3  26156870.265 1 105322859.353 2
E09  24340686.995 1 127911182.882 1  24340690.029 1  98009879.819 1
E12                                  27229637.972 1 109642466.324 6
> 2022 02 25 13 37 30.0000000  0 31                     
G10  23605409.027 1 124047227.484 1  23605410.746 1  96660173.259 2
G16  21814489.292 1 114635910.012 1                                
G22  20966919.907 1 110181899.861 1                                
G27  25243497.668 2 132655488.563 7  25243502.739 1 103367964.245 3
G26  20060277.427 1 105417471.484 1  20060277.284 1  82143484.309 1
C20  21911699.978 1 114099971.812 1                
C32  23834421.946 1 124112076.347 1                
C37  23896471.818 1 124435191.928 1                
C36  25689092.780 1 133769852.734 1                
C19  23984937.714 1 124895874.924 1                
C27  25562811.035 1 133112268.953 2                
R02  21471582.010 1 114576489.964 1  21471582.607 1  89115057.584 1
R11  22073400.973 1 117953546.357 1  22073400.387 1  91741638.981 1
R01  19234981.625 1 102821994.919 1  19234982.606 1  79972665.267 1
R08  21623259.247 1 115791555.799 1  21623257.098 1  90060078.058 1
R13  22163613.235 2 118352447.811 4  22163613.453 1  92051932.521 2
G29  24206875.470 1 127207978.289 1  24206874.184 1  99123096.995 2
G31  21717044.739 1 114123831.064 1  21717040.910 1  88927639.984 1
G32  21016360.625 1 110441712.627 1  21016359.728 1  86058474.064 1
E01  25279357.778 1 132843916.091 1  25279359.309 1 101789494.396 1
E04  23836462.509 1 125261453.780 1  23836463.360 1  95979555.369 1
E24  26449448.737 1 138992792.142 1  26449450.973 1 106500987.206 1
C30  26643394.636 2 138739142.592 4                
C28  26418943.993 1 137570379.789 3                
R12  20089746.453 1 107315815.776 1  20089746.662 1  83467858.563 1
E18  28971639.235 1 152246990.171 1  28971642.645 1 116656800.046 1
E31  23572229.365 1 123872900.953 1  23572231.542 1  94915607.763 1
G03  24117416.514 1 126737860.912 3  24117416.685 1  98756809.553 2
E19  26161303.268 1 137478571.307 2  26161304.600 1 105340715.511 2
E09  24333755.845 1 127874755.991 1  24333758.345 1  97981968.322 1
E12                                  27230301.417 1 109645138.215 6
> 2022 02 25 13 37 45.0000000  0 31                     
G10  23615308.769 1 124099248.198 1  23615309.898 1  96700708.797 2
G16  21805930.080 1 114590930.066 1                                
G22  20964153.935 1 110167363.650 1                                
G27  25234573.366 2 132608586.657 5  25234577.663 1 103331417.285 3
G26  20059019.831 1 105410861.455 1  20059019.452 1  82138333.624 1
C20  21910925.027 1 114095935.775 1                
C32  23841686.520 1 124149905.848 1                
C37  23901680.837 1 124462316.077 1                
C36  25684158.683 1 133744160.392 1                
C19  23977118.065 1 124855158.095 1                
C27  25557590.740 1 133085089.335 2                
R02  21460912.487 1 114519551.493 1  21460912.610 1  89070772.137 1
R11  22081836.945 1 117998627.488 1  22081836.357 1  91776702.052 1
R01  19235290.918 1 102823648.206 1  19235291.577 1  79973951.131 1
R08  21632090.279 1 115838844.380 1  21632088.687 1  90096858.031 1
R13  22157966.925 2 118322299.879 4  22157967.392 2  92028484.126 2
G29  24207077.896 1 127209044.487 2  24207076.667 1  99123927.807 3
G31  21719549.856 1 114136997.313 1  21719546.368 1  88937899.394 1
G32  21016941.429 1 110444766.302 1  21016940.773 1  86060853.540 1
E01  25285280.675 1 132875037.196 1  25285281.364 1 101813340.437 1
E04  23834419.408 1 125250715.846 1  23834420.124 1  95971327.589 1
E24  26443162.359 1 138959758.935 2  26443164.710 1 106475676.075 1
C30  26638730.465 1 138714851.227 4                
C28  26415861.322 1 137554327.047 3                
R12  20091813.847 1 107326861.037 1  20091813.894 1  83476449.304 1
E18  28962773.021 1 152200391.211 1  28962775.168 1 116621094.355 1
E31  23571587.345 1 123869529.234 1  23571589.943 1  94913024.225 1
G03  24109881.609 1 126698265.423 2  24109881.838 1  98725955.932 2
E19  26165745.094 1 137501915.862 3  26165747.048 1 105358602.871 2
E09  24326821.014 1 127838312.109 1  24326823.056 1  97954043.803 1
E12                                  27230945.362 1 109647732.148 7
> 2022 02 25 13 38 00.0000000  0 31                     
G10  23625207.538 1 124151265.631 1  23625207.531 1  96741241.857 2
G16  21797386.153 1 114546033.531 1                                
G22  20961397.029 1 110152875.599 1                                
G27  25225636.096 1 132561606.216 4  25225638.026 1 103294809.132 3
G26  20057784.956 1 105404370.461 1  20057784.314 1  82133275.711 1
C20  21910169.846 1 114092001.903 1                
C32  23848961.321 1 124187786.679 1                
C37  23906885.995 1 124489421.118 1                
C36  25679230.718 1 133718502.080 1                
C19  23969307.074 1 124814484.285 1                
C27  25552363.701 1 133057867.121 2                
R02  21450250.486 1 114462659.927 1  21450250.289 1  89026523.149 1
R11  22090268.559 1 118043684.115 1  22090267.827 1  91811746.079 1
R01  19235631.681 1 102825470.643 1  19235632.418 1  79975368.572 1
R08  21640939.574 1 115886231.631 1  21640937.861 1  90133714.725 1
R13  22152337.500 2 118292243.685 4  22152338.775 2  92005107.087 3
G29  24207298.617 1 127210204.823 2  24207297.650 1  99124831.953 3
G31  21722053.401 1 114150151.214 1  21722049.307 1  88948149.190 1
G32  21017537.845 1 110447899.454 1  21017536.945 1  86063294.944 1
E01  25291205.244 1 132906173.696 1  25291206.664 1 101837198.275 1
E04  23832384.876 1 125240023.804 1  23832385.453 1  95963134.971 1
E24  26436885.705 1 138926769.901 1  26436887.095 1 106450398.767 1
C30  26634048.150 1 138690467.538 4                
C28  26412784.821 1 137538302.174 3                
R12  20093897.361 1 107337992.014 1  20093897.800 1  83485106.733 1
E18  28953886.564 1 152153696.223 1  28953889.470 1 116585315.084 1
E31  23570958.655 1 123866225.454 1  23570961.320 1  94910492.756 1
G03  24102361.467 1 126658746.914 2  24102362.073 1  98695162.296 2
E19  26170195.931 1 137525304.854 3  26170197.545 1 105376524.290 2
E09  24319883.553 1 127801855.095 1  24319885.481 1  97926109.199 1
E12                                  27231570.040 1 109650250.802 7
> 2022 02 25 13 38 15.0000000  0 31                     
G10  23635104.745 1 124203277.089 1  23635105.530 1  96781770.208 2
G16  21788858.499 1 114501218.335 1                                
G22  20958648.832 1 110138433.593 1                                
G27  25216679.830 1 132514545.054 4  25216682.633 1 103258138.093 3
G26  20056571.775 1 105397996.111 1  20056571.579 1  82128308.684 1
C20  21909433.632 1 114088167.951 1                
C32  23856245.739 1 124225716.319 1                
C37  23912087.339 1 124516504.527 1                
C36  25674309.156 1 133692875.479 1                
C19  23961504.243 1 124773851.438 1                
C27  25547127.374 1 133030600.326 2                
R02  21439597.709 1 114405813.300 1  21439597.910 1  88982309.125 1
R11  22098695.649 1 118088713.588 1  22098694.303 1  91846768.962 1
R01  19236003.980 1 102827460.038 1  19236004.789 1  79976915.864 1
R08  21649807.360 1 115933715.181 1  21649804.622 1  90170646.361 1
R13  22146725.527 2 118262276.830 4  22146726.870 2  91981799.551 3
G29  24207536.724 1 127211457.024 2  24207535.979 1  99125807.670 2
G31  21724553.628 1 114163290.182 1  21724549.650 1  88958387.321 1
G32  21018148.689 1 110451109.869 1  21018148.091 1  86065796.548 1
E01  25297132.235 1 132937323.059 1  25297134.113 1 101861065.957 1
E04  23830358.609 1 125229375.489 1  23830359.196 1  95954975.878 1
E24  26430614.969 1 138893822.819 1  26430617.470 1 106425153.591 1
C30  26629346.612 2 138665989.271 5                
C28  26409712.546 1 137522303.007 3                
R12  20095996.976 1 107349206.042 1  20095997.285 1  83493828.740 1
E18  28944981.578 1 152106903.033 2  28944984.710 1 116549460.579 1
E31  23570342.832 1 123862987.185 1  23570344.969 1  94908011.490 1
G03  24094855.245 1 126619303.324 2  24094856.698 1  98664427.072 2
E19  26174654.126 1 137548735.912 3  26174656.739 1 105394477.937 2
E09  24312942.729 1 127765382.806 1  24312945.159 1  97898162.908 1
E12                                  27232176.482 4               9
> 2022 02 25 13 38 30.0000000  0 31                     
G10  23645001.670 1 124255285.491 1  23645003.164 1  96822296.151 2
G16  21780346.460 1 114456488.035 1                                
G22  20955909.736 1 110124041.307 1                                
G27  25207709.047 1 132467406.746 4  25207711.800 1 103221406.944 3
G26  20055381.542 1 105391741.609 1  20055381.289 1  82123435.055 1
C20  21908716.848 1 114084437.229 1                
C32  23863539.478 1 124263697.784 1                
C37  23917284.305 1 124543569.440 1                
C36  25669394.539 1 133667283.787 2                
C19  23953709.763 1 124733263.095 1                
C27  25541883.243 1 133003292.381 1                
R02  21428953.942 1 114349015.297 1  21428954.427 1  88938132.909 1
R11  22107117.916 1 118133718.849 1  22107117.037 1  91881773.020 1
R01  19236408.012 1 102829619.636 1  19236409.159 1  79978595.554 1
R08  21658692.922 1 115981297.848 1  21658690.253 1  90207655.037 1
R13  22141131.154 2 118232402.606 4  22141131.925 2  91958564.059 2
G29  24207793.723 1 127212804.482 1  24207792.032 1  99126857.623 3
G31  21727051.787 1 114176417.419 1  21727047.864 1  88968616.342 1
G32  21018775.063 1 110454401.050 1  21018774.635 1  86068361.086 1
E01  25303062.387 1 132968488.307 1  25303064.838 1 101884945.801 1
E04  23828341.405 1 125218774.352 1  23828341.924 1  95946852.914 1
E24  26424354.133 1 138860920.974 1  26424356.490 1 106399943.129 1
C30  26624628.920 1 138641419.804 3                
C28  26406645.838 1 137506333.142 3                
R12  20098112.179 1 107360505.902 1  20098112.188 1  83502617.509 1
E18  28936059.982 1 152060015.065 1  28936062.126 1 116513533.442 1
E31  23569739.604 1 123859817.611 1  23569741.817 1  94905582.842 1
G03  24087364.303 1 126579938.189 2  24087365.325 1  98633752.959 2
E19  26179121.216 1 137572212.354 3  26179124.296 1 105412466.358 2
E09  24305999.932 1 127728898.684 2  24306002.519 1  97870207.568 1
E12                                  27232764.194 4 109655059.63317
> 2022 02 25 13 38 45.0000000  0 31                     
G10  23654897.598 1 124307289.396 1  23654898.566 1  96862818.626 2
G16  21771850.518 1 114411841.777 1                                
G22  20953180.531 1 110109697.861 1                                
G27  25198724.103 2 132420190.435 5  25198726.394 1 103184615.048 3
G26  20054214.002 1 105385605.843 1  20054213.492 1  82118653.930 1
C20  21908020.379 1 114080808.749 1                
C32  23870843.491 1 124301729.769 1                
C37  23922478.264 1 124570614.627 1                
C36  25664486.769 1 133641725.875 1                
C19  23945924.299 1 124692718.439 1                
C27  25536631.017 1 132975942.477 2                
R02  21418318.840 1 114292264.918 1  21418318.830 1  88893993.737 1
R11  22115535.349 1 118178698.510 1  22115534.640 1  91916757.156 1
R01  19236843.884 1 102831948.563 1  19236844.924 1  79980406.899 1
R08  21667596.639 1 116028978.006 1  21667594.458 1  90244739.548 1
R13  22135554.461 2 118202619.934 4  22135554.464 2  91935399.778 3
G29  24208068.079 1 127214246.121 1  24208066.414 1  99127980.968 3
G31  21729547.279 1 114189531.690 1  21729543.332 1  88978835.238 1
G32  21019416.532 1 110457772.046 1  21019416.094 1  86070987.829 1
E01  25308996.182 1 132999668.195 1  25308998.363 1 101908836.859 1
E04  23826332.993 1 125208219.506 1  23826333.435 1  95938765.432 1
E24  26418102.087 1 138828063.540 1  26418103.809 1 106374766.660 1
C30  26619892.977 1 138616758.232 4                
C28  26403584.435 1 137490391.762 3                
R12  20100243.221 1 107371890.338 1  20100243.880 1  83511472.064 1
E18  28927119.323 1 152013031.465 1  28927121.438 1 116477533.025 1
E31  23569149.303 1 123856715.586 1  23569151.483 1  94903205.981 1
G03  24079888.049 1 126540650.783 2  24079888.769 1  98603139.368 2
E19  26183598.527 1 137595732.836 3  26183599.834 1 105430488.513 2
E09  24299055.278 1 127692401.897 1  24299057.218 1  97842242.509 1
E12                                  27233333.945 4 109657351.460 8
> 2022 02 25 13 39 00.0000000  0 31                     
G10  23664793.107 1 124359289.740 1  23664793.790 1  96903338.318 3
G16  21763370.990 1 114367281.179 1                                
G22  20950460.728 1 110095404.734 1                                
G27  25189722.743 4               9  25189727.525 1 103147763.584 3
G26  20053069.340 1 105379589.951 1  20053068.692 1  82113966.225 1
C20  21907343.268 1 114077283.821 1                
C32  23878156.572 1 124339813.307 1                
C37  23927667.889 1 124597641.214 1                
C36  25659585.779 1 133616202.981 1                
C19  23938145.644 1 124652219.011 1                
C27  25531370.874 1 132948552.137 2                
R02  21407693.647 1 114235564.695 1  21407693.645 1  88849893.561 1
R11  22123947.692 1 118223653.443 1  22123947.007 1  91951722.066 1
R01  19237311.565 1 102834448.062 1  19237312.463 1  79982350.962 1
R08  21676519.284 1 116076756.655 1  21676516.792 1  90281900.682 1
R13  22129994.730 2 118172930.226 4  22129994.365 2  91912307.781 3
G29  24208360.534 1 127215783.455 1  24208358.602 1  99129178.862 3
G31  21732040.595 1 114202634.189 1  21732036.942 1  88989044.974 1
G32  21020073.499 1 110461224.265 1  21020072.977 1  86073677.845 1
E01  25314932.692 1 133030863.706 1  25314934.710 1 101932739.892 1
E04  23824333.304 1 125197712.356 1  23824333.923 1  95930714.486 1
E24  26411858.177 1 138795251.781 1  26411859.951 1 106349625.173 1
C30  26615139.292 1 138592005.876 3                
C28  26400528.286 1 137474480.364 2                
R12  20102390.649 1 107383360.133 1  20102390.723 1  83520393.021 1
E18  28918160.741 1 151965953.573 1  28918162.930 1 116441460.357 1
E31  23568571.697 1 123853682.246 1  23568574.259 1  94900881.727 1
G03  24072426.887 1 126501442.501 3  24072428.288 1  98572587.488 2
E19  26188082.136 1 137619298.793 3  26188084.170 1 105448545.516 2
E09  24292107.639 1 127655893.849 1  24292110.123 1  97814268.814 1
E12                                  27233884.221 4 109659568.803 8
> 2022 02 25 13 39 15.0000000  0 31                     
G10  23674687.919 1 124411287.661 1  23674689.019 1  96943856.114 2
G16  21754907.550 1 114322808.053 1                                
G22  20947750.593 1 110081163.456 1                                
G27  25180709.758 2 132325516.32416  25180714.136 1 103110853.874 3
G26  20051947.676 1 105373695.403 1  20051947.056 1  82109373.066 1
C20  21906686.680 1 114073864.005 1                
C32  23885479.966 1 124377949.672 1                
C37  23932855.051 1 124624650.508 1                
C36  25654691.046 1 133590716.550 1                
C19  23930377.009 1 124611766.556 1                
C27  25526103.965 1 132921123.102 2                
R02  21397076.921 1 114178916.246 1  21397077.902 1  88805833.658 1
R11  22132355.931 1 118268584.922 1  22132355.257 1  91986668.754 1
R01  19237811.145 1 102837119.749 1  19237811.937 1  79984428.924 1
R08  21685459.681 1 116124634.814 1  21685458.019 1  90319139.243 1
R13  22124452.054 2 118143334.677 4  22124452.656 1  91889289.074 2
G29  24208671.227 1 127217418.068 1  24208669.608 1  99130452.613 3
G31  21734531.890 1 114215726.271 1  21734528.098 1  88999246.589 1
G32  21020746.103 1 110464759.407 1  21020745.641 1  86076432.490 1
E01  25320871.979 1 133062076.157 1  25320874.162 1 101956655.913 1
E04  23822342.999 1 125187254.563 1  23822343.871 1  95922701.373 1
E24  26405623.024 1 138762487.309 2  26405625.134 1 106324519.918 1
C30  26610368.307 1 138567164.281 3                
C28  26397478.242 1 137458600.729 2                
R12  20104553.925 1 107394916.522 1  20104553.994 1  83529381.309 1
E18  28909184.257 1 151918783.085 1  28909186.572 1 116405316.754 1
E31  23568008.375 1 123850719.029 1  23568010.542 1  94898611.217 1
G03  24064980.900 1 126462315.212 2  24064982.256 1  98542098.701 2
E19  26192575.561 1 137642911.589 3  26192577.632 1 105466638.398 2
E09  24285158.574 1 127619376.261 1  24285160.718 1  97786287.817 1
E12                                  27234418.329 8               9
> 2022 02 25 13 39 30.0000000  0 31                     
G10  23684582.807 1 124463283.943 1  23684583.527 1  96984372.611 2
G16  21746461.734 1 114278423.758 1                                
G22  20945050.561 1 110066975.767 1                                
G27  25171681.351 2 132278075.663 6  25171686.968 1 103073887.117 3
G26  20050849.245 1 105367923.287 1  20050848.715 1  82104875.299 1
C20  21906050.301 1 114070550.487 1                
C32  23892814.063 1 124416139.761 1                
C37  23938038.779 1 124651643.521 1                
C36  25649803.969 1 133565267.690 1                
C19  23922618.581 1 124571362.557 1                
C27  25520829.196 1 132893656.831 1                
R02  21386471.129 1 114122321.529 1  21386472.240 1  88761815.569 1
R11  22140760.233 1 118313493.935 1  22140759.204 1  92021597.965 1
R01  19238343.556 1 102839965.135 1  19238344.016 1  79986641.994 1
R08  21694419.169 1 116172613.534 1  21694417.550 1  90356455.942 1
R13  22118927.823 2 118113834.711 4  22118928.405 1  91866344.658 2
G29  24209001.118 1 127219151.364 1  24208999.803 1  99131803.265 2
G31  21737021.282 1 114228809.118 1  21737017.621 1  89009441.011 1
G32  21021435.085 1 110468378.796 1  21021434.490 1  86079252.784 1
E01  25326814.747 1 133093306.527 1  25326816.855 1 101980585.664 1
E04  23820362.744 1 125176847.526 1  23820363.515 1  95914727.136 1
E24  26399397.557 1 138729771.414 1  26399399.327 1 106299451.911 1
C30  26605581.209 1 138542234.810 3                
C28  26394434.494 1 137442754.285 3                
R12  20106733.774 1 107406560.253 1  20106733.784 1  83538437.536 1
E18  28900190.444 1 151871521.348 1  28900192.994 1 116369103.218 1
E31  23567457.872 1 123847827.016 1  23567460.176 1  94896395.248 1
G03  24057551.081 1 126423270.333 2  24057552.448 1  98511674.145 1
E19  26197078.319 1 137666572.552 3  26197080.056 1 105484768.200 2
E09  24278207.558 1 127582850.458 1  24278210.390 1  97758300.524 1
E12                                  27234932.544 4               9
> 2022 02 25 13 39 45.0000000  0 31                     
G10  23694477.505 1 124515279.923 1  23694478.232 1  97024888.922 2
G16  21738033.263 1 114234130.336 1                                
G22  20942361.390 1 110052843.692 1                                
G27  25162641.585 2 132230563.609 6  25162645.419 1 103036864.774 3
G26  20049774.229 1 105362275.241 1  20049773.950 1  82100474.234 1
C20  21905434.756 1 114067345.067 1                
C32  23900158.617 1 124454385.069 1                
C37  23943219.631 1 124678621.809 1                
C36  25644924.307 1 133539858.106 1                
C19  23914868.786 1 124531008.967 1                
C27  25515548.062 1 132866155.286 1                
R02  21375875.878 1 114065782.911 1  21375876.629 1  88717841.123 1
R11  22149160.447 1 118358381.754 1  22149159.508 1  92056510.682 1
R01  19238908.518 1 102842985.801 1  19238908.980 1  79988991.385 1
R08  21703397.953 1 116220694.070 1  21703396.546 1  90393851.903 1
R13  22113421.632 2 118084431.943 4  22113422.100 1  91843475.856 2
G29  24209350.182 1 127220984.971 1  24209348.634 1  99133232.021 3
G31  21739509.285 1 114241884.302 1  21739506.006 1  89019629.481 1
G32  21022140.136 1 110472084.297 1  21022139.486 1  86082140.165 1
E01  25332761.473 1 133124556.306 1  25332763.408 1 102004530.287 1
E04  23818392.522 1 125166493.083 1  23818393.187 1  95906793.207 1
E24  26393181.469 1 138697105.892 1  26393183.383 1 106274422.500 1
C30  26600777.487 1 138517219.229 3                
C28  26391399.126 1 137426942.894 2                
R12  20108930.044 1 107418292.915 1  20108930.361 1  83547562.939 1
E18  28891180.417 1 151824170.213 1  28891182.437 1 116332821.197 1
E31  23566921.281 1 123845007.827 1  23566923.800 1  94894235.087 1
G03  24050137.823 1 126384309.910 1  24050139.173 1  98481315.392 1
E19  26201589.572 1 137690283.196 3  26201592.534 1 105502936.054 2
E09  24271255.524 1 127546318.397 1  24271258.760 1  97730308.439 1
E12                                  27235430.255 9               9
> 2022 02 25 13 40 00.0000000  0 31                     
G10  23704371.763 1 124567274.538 1  23704373.549 1  97065404.130 2
G16  21729621.187 1 114189927.342 1                                
G22  20939682.584 1 110038766.705 1                                
G27  25153586.221 2 132182989.72517  25153590.169 1 102999786.415 3
G26  20048723.025 1 105356750.442 1  20048722.407 1  82096169.192 1
C20  21904839.522 1 114064247.047 1                
C32  23907513.649 1 124492684.609 1                
C37  23948397.512 1 124705584.490 1                
C36  25640052.370 1 133514486.959 1                
C19  23907128.887 1 124490705.337 1                
C27  25510259.391 1 132838617.941 1                
R02  21365291.136 1 114009300.008 1  21365291.907 1  88673909.970 1
R11  22157556.391 1 118403247.367 1  22157555.663 1  92091406.150 1
R01  19239506.494 1 102846181.266 1  19239507.094 1  79991476.736 1
R08  21712395.710 1 116268875.556 1  21712393.791 1  90431326.360 1
R13  22107932.997 2 118055125.665 3  22107934.097 1  91820682.073 2
G29  24209717.957 1 127222918.437 1  24209716.480 1  99134738.615 3
G31  21741995.930 1 114254950.914 1  21741992.556 1  89029811.247 1
G32  21022861.861 1 110475875.334 1  21022861.083 1  86085094.214 1
E01  25338711.596 1 133155824.522 1  25338713.354 1 102028489.035 1
E04  23816431.974 1 125156190.674 1  23816432.690 1  95898899.159 1
E24  26386974.685 1 138664490.087 1  26386976.614 1 106249431.181 1
C30  26595957.083 1 138492116.910 3                
C28  26388369.198 1 137411166.192 3                
R12  20111142.963 1 107430113.188 1  20111142.885 1  83556756.483 1
E18  28882152.503 1 151776729.116 1  28882154.522 1 116296470.241 1
E31  23566398.461 1 123842260.579 1  23566400.912 1  94892130.049 1
G03  24042739.599 1 126345433.406 2  24042741.487 1  98451022.027 1
E19  26206111.016 1 137714042.803 3  26206113.892 1 105521141.441 2
E09  24264302.759 1 127509779.480 1  24264305.293 1  97702311.105 1
E12                                  27235906.760 9               9
> 2022 02 25 13 40 15.0000000  0 31                     
G10  23714266.347 1 124619271.871 2  23714267.719 1  97105921.480 1
G16  21721228.023 1 114145819.615 1                                
G22  20937015.224 1 110024749.611 1                                
G27  25144516.817 2 132135338.763 5  25144522.432 1 102962655.789 3
G26  20047695.834 1 105351353.287 1  20047695.397 1  82091963.613 1
C20  21904266.194 1 114061260.914 1                
C32  23914879.977 1 124531042.623 1                
C37  23953573.612 1 124732535.837 1                
C36  25635188.184 1 133489158.677 1                
C19  23899399.815 1 124450456.375 1                
C27  25504965.214 1 132811049.562 1                
R02  21354717.634 1 113952877.806 1  21354718.618 1  88630026.063 1
R11  22165949.222 1 118448094.889 1  22165948.542 1  92126287.561 1
R01  19240137.786 1 102849555.972 1  19240138.524 1  79994101.492 1
R08  21721413.394 1 116317162.007 1  21721411.476 1  90468882.459 1
R13  22102463.706 2 118025920.414 4  22102464.566 1  91797966.902 2
G29  24210105.912 1 127224956.150 1  24210104.680 1  99136326.411 3
G31  21744481.492 1 114268013.330 1  21744477.908 1  89039989.728 1
G32  21023600.233 1 110479756.540 1  21023599.893 1  86088118.521 1
E01  25344665.922 1 133187115.424 1  25344668.057 1 102052465.178 1
E04  23814482.416 1 125145944.944 1  23814482.861 1  95891048.507 1
E24  26380777.897 1 138631928.609 2  26380780.394 1 106224481.472 1
C30  26591120.384 1 138466932.408 4                
C28  26385346.933 1 137395428.754 2                
R12  20113373.052 1 107442025.146 1  20113372.954 1  83566021.322 1
E18  28873108.484 1 151729202.686 1  28873110.648 1 116260053.884 1
E31  23565890.007 1 123839589.687 1  23565892.554 1  94890083.525 1
G03  24035359.103 1 126306645.540 2  24035359.758 1  98420797.714 2
E19  26210643.318 1 137737855.825 3  26210645.183 1 105539387.753 2
E09  24257349.273 1 127473238.381 1  24257351.609 1  97674312.098 1
E12                                  27236370.407 9               9
> 2022 02 25 13 40 30.0000000  0 32                     
G10  23724161.703 1 124671271.133 1  23724163.362 1  97146440.318 1
G16  21712852.604 1 114101806.807 1                                
G22  20934359.260 1 110010792.172 1                                
G27  25135436.538 2 132087620.524 5  25135441.839 1 102925472.723 2
G25  24781887.967 9               9                                
G26  20046692.912 1 105346083.246 1  20046692.613 1  82087857.086 1
C20  21903714.378 1 114058386.278 1                
C32  23922257.595 1 124569458.384 1                
C37  23958746.738 1 124759475.249 1                
C36  25630331.906 1 133463872.755 1                
C19  23891680.131 1 124410261.858 1                
C27  25499665.353 1 132783449.959 1                
R02  21344155.622 1 113896516.367 1  21344156.531 1  88586189.420 1
R11  22174338.114 1 118492923.523 1  22174337.533 1  92161154.236 1
R01  19240802.336 1 102853109.686 1  19240803.137 1  79996865.483 1
R08  21730449.856 1 116365552.688 1  21730448.176 1  90506519.614 1
R13  22097013.200 2 117996815.634 4  22097014.292 1  91775329.902 2
G29  24210513.461 1 127227097.900 1  24210512.219 1  99137995.304 3
G31  21746966.218 1 114281071.018 1  21746962.679 1  89050164.546 1
G32  21024355.620 1 110483727.606 1  21024354.796 1  86091212.839 1
E01  25350624.384 1 133218428.376 1  25350626.593 1 102076458.208 1
E04  23812543.386 1 125135755.595 1  23812544.018 1  95883241.079 1
E24  26374592.987 1 138599421.059 2  26374594.560 1 106199573.112 1
C30  26586268.150 1 138441665.415 3                
C28  26382332.784 1 137379730.504 2                
R12  20115620.041 1 107454028.095 1  20115620.210 1  83575356.941 1
E18  28864047.763 1 151681590.633 1  28864050.446 1 116223571.934 1
E31  23565396.635 1 123836994.594 1  23565398.718 1  94888095.075 1
G03  24027995.100 1 126267946.142 1  24027994.963 1  98390642.318 2
E19  26215184.708 1 137761721.887 3  26215186.949 1 105557674.692 2
E09  24250395.544 1 127436694.839 1  24250397.424 1  97646311.213 1
E12                                  27236817.439 9               9
> 2022 02 25 13 40 45.0000000  0 31                     
G10  23734057.344 1 124723274.119 2  23734059.209 1  97186962.062 1
G16  21704495.754 1 114057891.491 1                                
G22  20931714.903 1 109996896.868 1                                
G27  25126346.007 2 132039837.360 4  25126349.311 1 102888239.111 3
G26  20045714.591 1 105340942.411 1  20045714.051 1  82083851.238 1
C20  21903184.249 1 114055625.346 1                
C32  23929646.328 1 124607933.839 1                
C37  23963918.452 1 124786404.758 1                
C36  25625484.562 1 133438631.316 1                
C19  23883971.713 1 124370124.271 1                
C27  25494358.873 1 132755821.502 1                
R02  21333605.294 1 113840219.151 1  21333605.825 1  88542402.691 1
R11  22182724.069 1 118537735.226 1  22182723.430 1  92196007.729 1
R01  19241500.899 1 102856844.737 1  19241501.789 1  79999770.515 1
R08  21739506.085 1 116414049.246 1  21739504.495 1  90544239.117 1
R13  22091582.696 2 117967813.705 4  22091583.422 2  91752772.872 3
G29  24210941.338 1 127229345.919 1  24210939.771 1  99139746.985 2
G31  21749450.806 1 114294126.064 1  21749447.393 1  89060337.309 1
G32  21025128.916 1 110487790.887 1  21025127.748 1  86094379.005 1
E01  25356588.342 1 133249765.334 1  25356590.073 1 102100469.623 1
E04  23810615.558 1 125125624.986 1  23810616.170 1  95875478.656 1
E24  26368417.626 1 138566969.759 1  26368419.436 1 106174707.834 1
C30  26581399.910 1 138416318.172 3                
C28  26379325.795 1 137364073.823 2                
R12  20117884.453 1 107466123.828 1  20117884.653 1  83584764.740 1
E18  28854971.871 1 151633895.301 1  28854974.325 1 116187026.174 1
E31  23564917.427 1 123834477.369 1  23564919.805 1  94886166.296 1
G03  24020648.010 1 126229337.625 2  24020648.144 1  98360557.800 2
E19  26219737.007 1 137785643.056 3  26219739.080 1 105576003.860 2
E09  24243441.102 1 127400151.239 1  24243443.556 1  97618310.284 1
E12                                  27237240.537 9               9
> 2022 02 25 13 41 00.0000000  0 32                     
G10  23743953.824 1 124775282.834 2  23743956.218 1  97227488.244 2
G16  21696158.275 1 114014076.210 1                                
G22  20929083.379 1 109983066.163 1                                
G27  25117241.724 2 131991991.791 4  25117244.388 1 102850956.935 3
G25  24801945.242 9               9                                
G26  20044761.587 1 105335932.987 1  20044760.949 1  82079947.787 1
C20  21902676.008 1 114052980.473 1                
C32  23937047.465 1 124646471.042 1                
C37  23969088.575 1 124813326.452 1                
C36  25620646.870 1 133413436.566 1                
C19  23876275.328 1 124330046.141 1                
C27  25489048.181 1 132728166.828 1                
R02  21323067.411 1 113783988.179 1  21323068.589 1  88498667.521 1
R11  22191107.527 1 118582532.098 1  22191106.351 1  92230849.724 1
R01  19242234.188 1 102860763.292 1  19242234.648 1  80002818.259 1
R08  21748583.027 1 116462653.832 1  21748581.265 1  90582042.631 1
R13  22086171.152 2 117938916.704 4  22086171.676 2  91730297.430 3
G29  24211389.711 1 127231702.857 1  24211388.195 1  99141583.579 3
G31  21751934.759 1 114307180.672 1  21751931.482 1  89070509.702 1
G32  21025920.406 1 110491948.823 1  21025919.449 1  86097618.943 1
E01  25362556.852 1 133281128.342 1  25362558.371 1 102124501.004 1
E04  23808699.445 1 125115555.584 1  23808700.035 1  95867763.123 1
E24  26362252.775 1 138534577.056 1  26362255.150 1 106149887.468 1
C30  26576517.088 1 138390893.185 3                
C28  26376326.243 1 137348461.292 2                
R12  20120166.183 1 107478314.399 1  20120166.750 1  83594246.271 1
E18  28845880.239 1 151586119.147 1  28845882.935 1 116150418.471 1
E31  23564453.754 1 123832040.221 1  23564455.969 1  94884298.859 1
G03  24013318.706 1 126190822.590 2  24013318.656 1  98330546.084 2
E19  26224300.027 1 137809621.374 3  26224301.853 1 105594376.849 2
E09  24236487.551 1 127363610.027 1  24236490.262 1  97590311.190 1
E12                                  27237653.128 9               9
> 2022 02 25 13 41 15.0000000  0 31                     
G10  23753851.041 1 124827292.762 2  23753853.420 1  97268015.355 1
G16  21687838.754 1 113970357.084 1                                
G22  20926462.932 1 109969296.179 1                                
G27  25108125.267 1 131944080.196 3  25108127.342 1 102813623.179 3
G26  20043832.459 1 105331050.828 1  20043831.999 1  82076143.501 1
C20  21902189.779 1 114050447.616 1                
C32  23944458.510 1 124685065.691 1                
C37  23974256.498 1 124840236.191 1                
C36  25615816.453 1 133388284.444 1                
C19  23868589.755 1 124290023.695 1                
C27  25483731.610 1 132700481.970 1                
R02  21312541.636 1 113727820.175 1  21312542.510 1  88454981.306 1
R11  22199486.622 1 118627309.593 1  22199485.782 1  92265676.623 1
R01  19243000.747 1 102864861.435 1  19243001.712 1  80006005.688 1
R08  21757678.975 1 116511361.954 1  21757677.127 1  90619926.689 1
R13  22080777.912 2 117910120.519 3  22080778.898 2  91707900.381 2
G29  24211858.328 1 127234164.566 1  24211856.883 1  99143501.777 3
G31  21754418.202 1 114320230.561 1  21754414.764 1  89080678.448 1
G32  21026728.864 1 110496197.487 1  21026728.344 1  86100929.577 1
E01  25368528.901 1 133312513.132 1  25368530.886 1 102148549.069 1
E04  23806794.296 1 125105543.453 1  23806794.913 1  95860091.483 1
E24  26356099.158 1 138502238.960 1  26356101.516 1 106125108.948 1
C30  26571619.253 1 138365386.365 3                
C28  26373336.283 1 137332888.996 2                
R12  20122465.190 1 107490595.163 1  20122465.150 1  83603797.973 1
E18  28836772.479 1 151538258.243 1  28836775.228 1 116113745.834 1
E31  23564004.340 1 123829678.957 1  23564006.707 1  94882489.577  
G03  24006006.612 1 126152397.194 2  24006006.496 1  98300604.254 2
E19  26228872.081 1 137833652.953 3  26228875.045 1 105612790.610 2
E09  24229533.312 1 127327067.343 1  24229536.655 1  97562310.973 1
E12                                  27238052.914 9               9
> 2022 02 25 13 41 30.0000000  0 32                     
G10  23763749.435 1 124879307.461 2  23763751.900 1  97308546.200 2
G16  21679538.491 1 113926738.434 1                                
G22  20923855.067 1 109955591.295 1                                
G27  25098995.465 2 131896106.551 4  25098997.842 1 102776241.166 3
G25  24821976.082 9               9                                
G26  20042928.195 1 105326299.750 1  20042927.895 1  82072441.360 1
C20  21901725.891 1 114048030.732 1                
C32  23951882.051 1 124723721.449 1                
C37  23979422.715 1 124867137.678 1                
C36  25610995.256 1 133363178.796 1                
C19  23860916.138 1 124250061.123 1                
C27  25478410.340 1 132672771.280 1                
R02  21302028.995 1 113671719.398 1  21302029.653 1  88411347.386 1
R11  22207863.215 1 118672071.312 1  22207862.494 1  92300491.267 1
R01  19243801.731 1 102869143.169 1  19243802.448 1  80009335.921 1
R08  21766794.842 1 116560177.290 1  21766792.463 1  90657894.140 1
R13  22075405.686 2 117881429.183 4  22075406.041 1  91685584.880 2
G29  24212347.024 1 127236735.007 1  24212345.944 1  99145504.715 2
G31  21756901.951 1 114333279.682 1  21756897.967 1  89090846.602 1
G32  21027555.142 1 110500540.940 1  21027555.196 1  86104314.089 1
E01  25374506.201 1 133343923.416 1  25374507.867 1 102172616.668 1
E04  23804900.405 1 125095592.710 1  23804901.331 1  95852466.885 1
E24  26349956.934 1 138469959.536 1  26349958.970 1 106100375.358 1
C30  26566705.711 1 138339801.850 3                
C28  26370354.550 1 137317361.200 2                
R12  20124781.893 1 107502969.784 1  20124781.966 1  83613422.691 1
E18  28827649.403 1 151490316.668 1  28827652.080 1 116077011.390 1
E31  23563569.811 1 123827397.410 1  23563572.393 1  94880741.370 1
G03  23998712.148 1 126114065.651 2  23998712.043 1  98270735.522 2
E19  26233455.996 1 137857741.602 3  26233459.266 1 105631248.130 2
E09  24222580.669 1 127290527.307 1  24222583.110 1  97534312.781 1
E12                                  27238430.709 9               9
> 2022 02 25 13 41 45.0000000  0 30                     
G10  23773648.111 1 124931325.631 2  23773650.239 1  97349079.767 1
G16  21671257.041 1 113883219.605 1                                
G22  20921259.222 1 109941950.824 1                                
G27  25089855.628 2 131848070.218 5  25089857.163 1 102738810.268 3
G26  20042049.231 1 105321678.723 1  20042048.416 1  82068840.554 1
C20  21901283.645 1 114045728.965 1                
C32  23959317.012 1 124762437.163 1                
C37  23984587.114 1 124894029.837 1                
C36  25606182.633 1 133338118.648 1                
C19  23853253.509 1 124210157.732 1                
C27  25473084.120 1 132645033.978 1                
R02  21291528.091 1 113615685.947 1  21291529.184 1  88367765.845 1
R11  22216236.502 1 118716815.990 1  22216235.600 1  92335292.650 1
R01  19244636.760 1 102873607.591 1  19244637.628 1  80012808.239 1
R08  21775930.810 1 116609098.206 1  21775927.989 1  90695943.675 1
R13  22070052.312 2 117852841.590 4  22070051.959 2  91663350.150 3
G29  24212856.862 1 127239413.472 1  24212855.815 1  99147591.839 2
G31  21759384.490 1 114346326.917 1  21759380.292 1  89101013.289 1
G32  21028399.456 1 110504978.416 1  21028399.275 1  86107771.850 1
E01  25380487.915 1 133375358.017 1  25380489.831 1 102196702.909 1
E04  23803018.558 1 125085702.564 1  23803019.308 1  95844888.711 1
E24  26343825.308 1 138437737.882 1  26343827.172 1 106075686.068 1
C30  26561777.865 1 138314138.732 3                
C28  26367381.507 1 137301877.142 2                
R12  20127115.725 1 107515436.899 1  20127116.045 1  83623119.320 1
E18  28818511.304 1 151442293.649 1  28818513.668 1 116040214.535 1
E31  23563150.865 1 123825194.525 1  23563153.437 1  94879053.451 1
G03  23991435.305 1 126075827.222 2  23991436.569 1  98240939.385 2
E19  26238051.169 1 137881886.427 3  26238053.725 1 105649748.663 2
E09  24215627.608 1 127253989.149 1  24215630.039 1  97506316.038 1
> 2022 02 25 13 42 00.0000000  0 30                     
G10  23783547.878 1 124983347.758 2  23783549.132 1  97389616.415 1
G16  21662994.803 1 113839801.637 1                                
G22  20918675.769 1 109928375.822 1                                
G27  25080699.218 2 131799972.294 5  25080704.506 1 102701331.414 2
G26  20041194.463 1 105317188.494 1  20041194.147 1  82065341.665 1
C20  21900863.693 1 114043543.139 1                
C32  23966763.964 1 124801213.390 1                
C37  23989749.769 1 124920913.348 1                
C36  25601378.336 1 133313104.746 1                
C19  23845602.311 1 124170314.629 1                
C27  25467751.958 1 132617271.249 1                
R02  21281039.583 1 113559720.483 1  21281041.190 1  88324237.176 1
R11  22224606.705 1 118761544.183 1  22224605.839 1  92370081.210 1
R01  19245506.375 1 102878255.786 1  19245507.170 1  80016423.486 1
R08  21785086.339 1 116658125.533 1  21785083.964 1  90734076.025 1
R13  22064718.544 2 117824358.760 4  22064718.418 2  91641196.849 3
G29  24213387.367 1 127242200.882 1  24213385.606 1  99149763.805 2
G31  21761867.096 1 114359373.027 1  21761862.845 1  89111179.057 1
G32  21029262.545 1 110509510.867 1  21029261.902 1  86111303.610 1
E01  25386474.458 1 133406817.536 1  25386476.348 1 102220808.234 1
E04  23801148.116 1 125075874.022 1  23801149.035 1  95837357.739 1
E24  26337704.497 1 138405574.929 1  26337706.617 1 106051041.726 1
C30  26556834.168 1 138288397.961 4                
C28  26364416.670 1 137286437.942 2                
R12  20129466.941 1 107527997.017 1  20129467.021 1  83632888.297 1
E18  28809357.259 1 151394190.188 1  28809359.961 1 116003356.041 1
E31  23562746.862 1 123823071.061 1  23562749.266 1  94877426.363 1
G03  23984176.264 1 126037683.035 1  23984176.823 1  98211216.669 3
E19  26242657.170 1 137906088.183 3  26242658.776 1 105668292.814 2
E09  24208675.235 1 127217453.928 1  24208677.502 1  97478321.508 1
> 2022 02 25 13 42 15.0000000  0 30                     
G10  23793447.760 1 125035372.758 2  23793449.944 1  97430155.290 2
G16  21654751.797 1 113796484.013 1                                
G22  20916105.125 1 109914865.764 1                                
G27  25071534.155 2 131751812.261 5  25071539.719 1 102663804.103 2
G26  20040364.923 1 105312828.192 1  20040364.434 1  82061944.028 1
C20  21900466.080 1 114041472.546 1                
C32  23974222.110 1 124840049.124 1                
C37  23994910.255 1 124947787.290 1                
C36  25596583.485 1 133288136.287 1                
C19  23837961.049 1 124130531.343 1                
C27  25462415.204 1 132589482.523 1                
R02  21270564.975 1 113503822.906 1  21270565.788 1  88280761.297 1
R11  22232974.216 1 118806254.752 1  22232972.907 1  92404856.066 1
R01  19246410.312 1 102883086.853 1  19246410.915 1  80020180.958 1
R08  21794260.796 1 116707257.802 1  21794258.697 1  90772289.953 1
R13  22059404.223 2 117795979.809 4  22059404.251 1  91619124.331 2
G29  24213938.161 1 127245096.565 1  24213937.204 1  99152020.149 3
G31  21764349.141 1 114372417.071 1  21764345.148 1  89121343.251 1
G32  21030143.052 1 110514137.672 1  21030142.348 1  86114908.901 1
E01  25392465.517 1 133438301.010 1  25392467.620 1 102244931.907 1
E04  23799289.238 1 125066106.411 1  23799290.383 1  95829873.455 1
E24  26331595.600 1 138373469.987 1  26331597.337 1 106026441.844 1
C30  26551875.773 2 138262578.897 5                
C28  26361460.030 1 137271043.133 2                
R12  20131835.546 1 107540649.000 1  20131835.524 1  83642728.720 1
E18  28800187.714 1 151346005.633 1  28800190.822 1 115966435.419 1
E31  23562357.774 1 123821026.072 1  23562360.102 1  94875859.427 1
G03  23976936.112 1 125999632.557 1  23976934.818 1  98181566.896 2
E19  26247273.820 1 137930346.089 2  26247275.183 1 105686879.998 2
E09  24201722.492 1 127180920.986 1  24201725.224 1  97450328.771 1
> 2022 02 25 13 42 30.0000000  0 30                     
G10  23803349.171 1 125087401.037 2  23803350.581 1  97470696.748 1
G16  21646527.953 1 113753268.026 1                                
G22  20913546.713 1 109901421.731 1                                
G27  25062358.672 2 131703591.195 4  25062362.817 1 102626229.309 3
G26  20039559.924 1 105308598.587 1  20039559.619 1  82058648.240 1
C20  21900090.895 1 114039518.115 1                
C32  23981691.738 1 124878945.026 1                
C37  24000069.068 1 124974652.379 1                
C36  25591797.561 1 133263214.088 1                
C19  23830333.233 1 124090808.961 1                
C27  25457074.103 1 132561668.861 1                
R02  21260102.563 1 113447995.128 1  21260104.093 1  88237339.696 1
R11  22241337.625 1 118850948.300 1  22241336.971 1  92439617.681 1
R01  19247348.213 1 102888101.712 1  19247349.228 1  80024081.387 1
R08  21803455.570 1 116756495.658 1  21803453.479 1  90810586.034 1
R13  22054108.871 2 117767705.428 3  22054109.277 2  91597133.148 3
G29  24214510.622 1 127248101.519 1  24214508.941 1  99154361.656 2
G31  21766830.814 1 114385459.965 1  21766827.264 1  89131506.530 1
G32  21031041.272 1 110518859.902 1  21031040.858 1  86118588.542 1
E01  25398461.789 1 133469809.090 1  25398463.210 1 102269074.448 1
E04  23797442.268 1 125056400.853 1  23797443.527 1  95822436.716 1
E24  26325497.476 1 138341424.057 1  26325499.015 1 106001887.180 1
C30  26546902.943 1 138236682.561 4                
C28  26358511.703 1 137255693.733 2                
R12  20134221.041 1 107553393.237 1  20134220.901 1  83652640.898 1
E18  28791003.433 1 151297741.060 1  28791006.210 1 115929453.485 1
E31  23561983.770 1 123819060.379 1  23561986.228 1  94874353.247 1
G03  23969713.554 1 125961676.913 1  23969713.362 1  98151991.107 2
E19  26251899.258 1 137954660.964 3  26251901.978 1 105705510.878 2
E09  24194771.544 1 127144391.446 1  24194773.774 1  97422338.612 1
> 2022 02 25 13 42 45.0000000  0 30                     
G10  23813250.371 1 125139432.266 2  23813252.274 1  97511240.446 1
G16  21638323.676 1 113710153.728 1                                
G22  20911000.944 1 109888044.012 1                                
G27  25053171.371 2 131655309.332 5  25053175.405 1 102588607.121 3
G26  20038779.825 1 105304499.534 1  20038779.503 1  82055454.168 1
C20  21899738.018 1 114037679.784 1                
C32  23989172.711 1 124917900.760 1                
C37  24005226.334 1 125001508.396 1                
C36  25587020.348 1 133238337.969 1                
C19  23822716.829 1 124051147.687 1                
C27  25451728.246 1 132533830.550 1                
R02  21249653.604 1 113392237.081 1  21249655.107 1  88193972.345 1
R11  22249697.906 1 118895624.397 1  22249697.755 1  92474365.762 1
R01  19248320.684 1 102893300.304 1  19248321.807 1  80028124.735 1
R08  21812670.147 1 116805838.561 1  21812668.372 1  90848963.794 1
R13  22048833.748 2 117739535.614 4  22048834.029 2  91575223.312 2
G29  24215103.799 1 127251215.690 1  24215102.153 1  99156788.278 2
G31  21769312.914 1 114398501.322 1  21769308.930 1  89141668.614 1
G32  21031958.178 1 110523677.556 1  21031957.592 1  86122342.545 1
E01  25404461.854 1 133501341.475 1  25404463.577 1 102293235.605 1
E04  23795607.439 1 125046757.388 1  23795608.505 1  95815047.561 1
E24  26319410.256 1 138309437.111 2  26319412.504 1 105977377.707 1
C30  26541915.590 1 138210708.931 5                
C28  26355572.775 1 137240389.991 2                
R12  20136623.676 1 107566229.333 1  20136624.144 1  83662624.522 1
E18  28781803.930 1 151249396.546 1  28781806.569 1 115892410.277 1
E31  23561624.824 1 123817173.773 1  23561627.103 1  94872907.666 1
G03  23962508.968 1 125923816.265 1  23962509.059 1  98122489.304 2
E19  26256536.965 1 137979032.687 3  26256540.118 1 105724185.272 2
E09  24187820.600 1 127107865.394 2  24187823.374 1  97394351.142 1
> 2022 02 25 13 43 00.0000000  0 30                     
G10  23823152.862 1 125191467.007 2  23823153.897 1  97551786.924 2
G16  21630139.020 1 113667142.325 1                                
G22  20908468.200 1 109874733.871 1                                
G27  25043973.285 2 131606967.901 5  25043976.743 1 102550938.491 2
G26  20038024.797 1 105300531.914 1  20038024.703 1  82052362.505 1
C20  21899407.444 1 114035958.576 1                
C32  23996664.836 1 124956917.090 1                
C37  24010382.330 1 125028356.166 1                
C36  25582252.831 1 133213508.973 1                
C19  23815111.752 1 124011548.819 1                
C27  25446377.859 1 132505968.855 1                
R02  21239217.800 1 113336550.754 1  21239218.979 1  88150660.788 1
R11  22258055.612 1 118940283.906 1  22258054.957 1  92509100.868 1
R01  19249328.165 1 102898683.798 1  19249328.705 1  80032311.878 1
R08  21821904.419 1 116855287.263 1  21821902.339 1  90887423.864 1
R13  22043578.173 2 117711471.320 4  22043578.617 2  91553395.580 2
G29  24215716.716 1 127254440.271 1  24215715.676 1  99159300.903 2
G31  21771794.686 1 114411542.127 1  21771790.789 1  89151830.272 1
G32  21032893.359 1 110528591.805 1  21032892.765 1  86126171.811 1
E01  25410466.783 1 133532898.937 1  25410468.721 1 102317415.986 1
E04  23793784.703 1 125037177.173 1  23793785.438 1  95807706.860 1
E24  26313334.974 1 138277510.208 2  26313336.660 1 105952914.247 1
C30  26536913.165 1 138184659.155 5                
C28  26352642.984 1 137225133.142 2                
R12  20139044.471 1 107579157.975 1  20139044.576 1  83672680.128 1
E18  28772589.221 1 151200973.219 1  28772592.045 1 115855306.689 1
E31  23561280.599 1 123815367.167 1  23561283.240 1  94871523.379 1
G03  23955322.952 1 125886051.904 1  23955322.361 1  98093062.529 3
E19  26261186.249 1 138003462.238 3  26261189.392 1 105742903.989 2
E09  24180871.429 1 127071344.035 1  24180873.774 1  97366367.250 1
> 2022 02 25 13 43 15.0000000  0 30                     
G10  23833055.032 1 125243504.083 1  23833055.969 1  97592335.244 2
G16  21621973.577 1 113624233.386 1                                
G22  20905948.093 1 109861490.585 1                                
G27  25034763.365 2 131558566.370 4  25034766.005 1 102513223.014 2
G26  20037294.711 1 105296694.833 1  20037294.440 1  82049372.572 1
C20  21899099.054 1 114034353.790 1                
C32  24004168.391 1 124995993.001 1                
C37  24015536.544 1 125055194.788 1                
C36  25577493.444 1 133188726.212 1                
C19  23807519.084 1 123972011.806 1                
C27  25441022.688 1 132478083.181 1                
R02  21228795.751 1 113280935.573 1  21228796.280 1  88107404.521 1
R11  22266409.813 1 118984925.532 1  22266409.009 1  92543822.102 1
R01  19250369.718 1 102904251.350 1  19250370.409 1  80036642.178 1
R08  21831158.054 1 116904840.728 1  21831156.057 1  90925965.389 1
R13  22038342.289 2 117683511.748 3  22038342.419 2  91531649.203 2
G29  24216351.106 1 127257774.527 1  24216349.735 1  99161899.048 3
G31  21774275.839 1 114424581.450 1  21774272.231 1  89161990.784 1
G32  21033846.849 1 110533602.004 1  21033846.243 1  86130075.837 1
E01  25416476.352 1 133564480.501 1  25416478.424 1 102341614.822 1
E04  23791973.261 1 125027659.586 1  23791974.283 1  95800414.152 1
E24  26307270.989 1 138245642.719 1  26307272.549 1 105928496.312 1
C30  26531895.358 1 138158532.493 5                
C28  26349722.565 1 137209922.678 1                
R12  20141481.764 1 107592177.928 1  20141481.945 1  83682806.752 1
E18  28763359.738 1 151152470.483 1  28763362.362 1 115818142.249 1
E31  23560951.930 1 123813639.645 1  23560954.617 1  94870199.686 1
G03  23948154.258 1 125848383.209 1  23948155.307 1  98063710.356 2
E19  26265846.262 1 138027948.694 3  26265848.970 1 105761666.293 2
E09  24173922.357 1 127034826.747 1  24173924.498 1  97338386.488 1
> 2022 02 25 13 43 30.0000000  0 30                     
G10  23842957.154 1 125295542.628 1  23842958.666 1  97632884.667 2
G16  21613827.753 1 113581426.500 1                                
G22  20903441.067 1 109848313.906 1                                
G27  25025541.804 2 131510104.347 4  25025543.987 1 102475460.425 3
G26  20036589.369 1 105292987.563 1  20036588.908 1  82046483.786 1
C20  21898813.195 1 114032864.796 1                
C32  24011684.397 1 125035127.573 1                
C37  24020688.739 1 125082023.493 1                
C36  25572742.826 1 133163989.015 1                
C19  23799938.818 1 123932536.313 1                
C27  25435662.319 1 132450173.226 1                
R02  21218386.549 1 113225391.598 1  21218387.807 1  88064203.688 1
R11  22274760.108 1 119029548.322 1  22274759.379 1  92578528.725 1
R01  19251445.610 1 102910002.457 1  19251446.709 1  80041115.243 1
R08  21840431.188 1 116954497.684 1  21840429.086 1  90964587.437 1
R13  22033125.852 2 117655656.072 4  22033126.080 2  91509983.719 3
G29  24217006.673 1 127261217.858 1  24217005.010 1  99164582.180 3
G31  21776756.726 1 114437618.661 1  21776753.044 1  89172149.644 1
G32  21034818.696 1 110538707.685 1  21034817.855 1  86134054.280 1
E01  25422490.719 1 133596085.295 1  25422492.572 1 102365831.453 1
E04  23790173.951 1 125018204.160 1  23790174.981 1  95793169.077 1
E24  26301217.411 1 138213834.060 1  26301219.349 1 105904123.444 1
C30  26526862.831 1 138132328.611 3                
C28  26346811.191 1 137194758.131 1                
R12  20143935.918 1 107605288.089 1  20143936.017 1  83693003.542 1
E18  28754114.917 1 151103887.861 1  28754117.450 1 115780916.631 1
E31  23560638.337 1 123811990.489 1  23560640.723 1  94868936.035 1
G03  23941003.894 1 125810809.891 2  23941004.077 1  98034432.445 3
E19  26270515.826 1 138052491.498 3  26270518.666 1 105780471.769 2
E09  24166973.995 1 126998313.097 1  24166976.262 1  97310408.527 1
> 2022 02 25 13 43 45.0000000  0 30                     
G10  23852860.231 1 125347586.105 1  23852862.420 1  97673437.952 2
G16  21605702.486 1 113538725.916 1                                
G22  20900946.983 1 109835208.208 1                                
G27  25016308.940 2 131461586.027 5  25016311.012 1 102437653.993 2
G26  20035909.076 1 105289413.907 1  20035908.707 1  82043699.126 1
C20  21898550.321 1 114031495.505 1                
C32  24019211.969 1 125074324.487 1                
C37  24025839.994 1 125108845.971 1                
C36  25568001.561 1 133139301.152 1                
C19  23792370.022 1 123893126.457 1                
C27  25430299.511 1 132422243.111 1                
R02  21207992.352 1 113169923.217 1  21207993.365 1  88021061.625 1
R11  22283107.878 1 119074155.879 1  22283107.192 1  92613223.462 1
R01  19252556.455 1 102915940.985 1  19252557.671 1  80045734.100 1
R08  21849724.605 1 117004261.715 1  21849722.790 1  91003292.768 1
R13  22027928.850 2 117627908.435 4  22027929.528 2  91488402.202 2
G29  24217683.417 1 127264774.500 1  24217682.326 1  99167353.596 2
G31  21779237.873 1 114450657.576 1  21779234.108 1  89182309.837 1
G32  21035809.118 1 110543912.877 1  21035808.396 1  86138110.250 1
E01  25428510.523 1 133627716.997 1  25428511.820 1 102390068.711 1
E04  23788387.288 1 125008814.958 1  23788388.223 1  95785974.745 1
E24  26295176.708 1 138182088.222 1  26295178.390 1 105879798.722 1
C30  26521817.020 1 138106051.342 3                
C28  26343907.993 1 137179643.698 2                
R12  20146408.181 1 107618492.173 1  20146407.412 1  83703273.376 1
E18  28744855.570 1 151055229.420 1  28744857.923 1 115743632.889 1
E31  23560340.069 1 123810423.460 1  23560342.524 1  94867735.328 1
G03  23933872.961 1 125773336.052 1  23933872.379 1  98005232.043 2
E19  26275198.195 1 138077094.391 3  26275200.581 1 105799323.307 2
E09  24160027.977 1 126961807.206 1  24160029.367 1  97282436.478 1
> 2022 02 25 13 44 00.0000000  0 31                     
G10  23862764.750 1 125399632.185 1  23862766.502 1  97713993.262 1
G16  21597596.320 1 113496129.799 1                                
G22  20898465.874 1 109822171.571 1                                
G26  20035253.976 1 105285971.756 1  20035253.687 1  82041016.927 1
C20  21898310.203 1 114030243.969 1                
C32  24026751.176 1 125113581.489 1                
C37  24030989.676 1 125135660.099 1                
C36  25563269.783 1 133114660.650 1                
C19  23784814.024 1 123853780.537 1                
C27  25424931.552 1 132394291.099 1                
R02  21197611.264 1 113114528.954 1  21197612.449 1  87977977.226 1
R11  22291452.425 1 119118745.990 1  22291451.870 1  92647904.623 1
R01  19253701.729 1 102922065.009 1  19253703.273 1  80050497.209 1
R08  21859037.288 1 117054130.561 1  21859035.301 1  91042079.599 1
R13  22022752.276 2 117600266.706 3  22022753.062 1  91466903.076 2
G29  24218381.573 1 127268442.274 1  24218380.561 1  99170211.588 2
G31  21781719.476 1 114463696.036 1  21781715.013 1  89192469.655 1
G32  21036817.923 1 110549215.702 1  21036817.819 1  86142242.313 1
E01  25434534.602 1 133659373.402 1  25434535.815 1 102414324.902 1
E04  23786613.020 1 124999490.139 1  23786613.820 1  95778829.736 1
E24  26289147.717 1 138150403.265 1  26289149.099 1 105855520.648 1
C30  26516756.907 1 138079698.810 3                
C28  26341014.544 1 137164577.689 2                
R12  20148897.055 1 107631787.643 1  20148896.952 1  83713614.302 1
E18  28735581.162 1 151006493.321 1  28735583.705 1 115706289.647 1
E31  23560057.024 1 123808936.476 1  23560059.681 1  94866595.946 1
G03  23926760.822 1 125735959.976 1  23926761.235 1  97976107.813 2
E19  26279891.209 1 138101755.392 3  26279893.614 1 105818219.382 2
E09  24153081.872 1 126925307.255 1  24153083.762 1  97254468.978 1
E12                                  27241321.762 4               9
G27                                  25007067.607 1 102399802.298 3
> 2022 02 25 13 44 15.0000000  0 31                     
G10  23872669.713 1 125451679.925 1  23872670.998 1  97754549.867 1
G16  21589510.242 1 113453638.024 1                                
G22  20895998.340 1 109809203.718 1                                
G27  24997808.141 2 131364365.04215  24997813.365 1 102361905.185 2
G26  20034624.052 1 105282660.506 1  20034623.733 1  82038436.731 1
C20  21898092.186 1 114029109.730 1                
C32  24034301.577 1 125152897.828 1                
C37  24036137.638 1 125162465.215 1                
C36  25558545.933 1 133090066.934 1                
C19  23777270.760 1 123814498.320 1                
C27  25419558.944 1 132366316.964 1                
R02  21187243.823 1 113059209.034 1  21187244.908 1  87934950.646 1
R11  22299793.581 1 119163317.808 1  22299792.490 1  92682571.598 1
R01  19254882.476 1 102928374.193 1  19254883.218 1  80055404.322 1
R08  21868369.640 1 117104103.151 1  21868367.723 1  91080947.140 1
R13  22017595.981 2 117572730.183 4  22017596.623 2  91445485.809 3
G29  24219100.333 1 127272220.870 2  24219099.603 1  99173155.951 2
G31  21784200.131 1 114476733.451 1  21784196.084 1  89202628.672 1
G32  21037845.881 1 110554615.806 1  21037845.261 1  86146450.166 1
E01  25440563.119 1 133691053.758 1  25440564.418 1 102438599.457 1
E04  23784850.359 1 124990229.332 1  23784851.519 1  95771733.791 1
E24  26283129.674 1 138118778.816 1  26283131.310 1 105831288.927 1
C30  26511681.215 1 138053270.693 4                
C28  26338130.606 1 137149559.784 1                
R12  20151403.074 1 107645173.722 1  20151402.890 1  83724025.698 1
E18  28726291.981 1 150957679.191 1  28726294.724 1 115668886.618 1
E31  23559789.009 1 123807528.886 1  23559791.809 1  94865517.402 1
G03  23919667.171 1 125698681.356 1  23919668.151 1  97947059.598 2
E19  26284594.903 1 138126473.921 3  26284597.200 1 105837159.504 2
E09  24146137.017 1 126888812.893 1  24146139.165 1  97226505.785 1
E12                                  27241525.097 4 109690323.93416
> 2022 02 25 13 44 30.0000000  0 31                     
G10  23882574.265 1 125503729.504 1  23882575.840 1  97795107.928 2
G16  21581444.472 1 113411251.279 1                                
G22  20893543.616 1 109796305.454 1                                
G26  20034019.126 1 105279480.498 1  20034018.761 1  82035958.797 1
C20  21897897.043 1 114028093.264 1                
C32  24041863.078 1 125192273.760 1                
C37  24041283.109 1 125189261.706 1                
C36  25553832.094 1 133065520.366 1                
C19  23769739.174 1 123775280.531 1                
C27  25414182.179 1 132338321.443 1                
R02  21176890.714 1 113003963.889 1  21176892.171 1  87891982.187 1
R11  22308130.966 1 119207871.457 1  22308130.445 1  92717224.434 1
R01  19256097.302 1 102934868.819 1  19256098.521 1  80060455.694 1
R08  21877720.765 1 117154179.675 1  21877719.213 1  91119895.492 1
R13  22012458.620 2 117545299.453 4  22012459.525 1  91424150.800 2
G29  24219840.692 1 127276110.900 1  24219839.492 1  99176187.124 2
G31  21786680.969 1 114489770.211 1  21786677.144 1  89212787.179 1
G32  21038891.983 1 110560113.787 1  21038891.025 1  86150734.292 1
E01  25446596.490 1 133722758.343 1  25446598.013 1 102462892.557 1
E04  23783100.529 1 124981033.193 1  23783101.577 1  95764687.385 1
E24  26277122.888 1 138087215.371 1  26277125.067 1 105807103.965 1
C30  26506590.962 1 138026767.592 3                
C28  26335255.869 1 137134590.701 1                
R12  20153925.107 1 107658650.495 1  20153925.665 1  83734507.625 1
E18  28716988.527 1 150908787.721 1  28716990.669 1 115631424.317 1
E31  23559536.569 1 123806201.067 1  23559539.131 1  94864499.977 1
G03  23912592.127 1 125661500.919 1  23912591.413 1  97918087.826 2
E19  26289309.700 1 138151250.513 3  26289312.038 1 105856144.143 2
E09  24139193.089 1 126852324.772 1  24139196.030 1  97198547.381 1
E12                                  27241709.783 4 109691067.471 6
G27                                  24988547.428 1 102323963.184 2
> 2022 02 25 13 44 45.0000000  0 31                     
G10  23892478.900 1 125555781.512 1  23892481.051 1  97835667.862 2
G16  21573398.499 1 113368970.636 1                                
G22  20891102.945 1 109783477.993 1                                
G27  24979267.106 2 131266937.16117  24979270.664 1 102285977.299 2
G26  20033439.030 1 105276432.589 1  20033438.706 1  82033583.800 1
C20  21897724.476 1 114027195.562 1                
C32  24049436.003 1 125231709.976 1                
C37  24046427.315 1 125216050.305 1                
C36  25549127.675 1 133041021.920 2                
C19  23762220.553 1 123736128.390 1                
C27  25408802.081 1 132310305.745 1                
R02  21166552.035 1 112948795.259 1  21166553.766 1  87849073.283 1
R11  22316465.162 1 119252407.669 1  22316464.780 1  92751863.666 1
R01  19257346.966 1 102941550.022 1  19257347.940 1  80065652.168 1
R08  21887091.805 1 117204360.629 1  21887090.485 1  91158925.079 1
R13  22007341.936 2 117517975.377 4  22007342.651 2  91402898.722 2
G29  24220602.001 1 127280113.385 1  24220601.146 1  99179305.935 2
G31  21789161.640 1 114502807.126 1  21789158.360 1  89222945.802 1
G32  21039957.228 1 110565710.761 1  21039956.292 1  86155095.554 1
E01  25452634.792 1 133754487.877 1  25452635.994 1 102487204.783 1
E04  23781363.192 1 124971902.814 1  23781363.963 1  95757691.379 1
E24  26271128.501 1 138055713.975 1  26271130.445 1 105782966.544 1
C30  26501486.863 1 138000190.662 3                
C28  26332390.562 1 137119671.651 1                
R12  20156465.456 1 107672218.437 1  20156465.501 1  83745060.453 1
E18  28707670.197 1 150859819.966 1  28707672.308 1 115593903.577 1
E31  23559299.239 1 123804953.845 1  23559301.901 1  94863544.316 1
G03  23905535.310 1 125624419.889 1  23905535.268 1  97889193.507 2
E19  26294036.295 1 138176085.986 3  26294038.580 1 105875173.864 2
E09  24132250.809 1 126815844.103 1  24132253.945 1  97170594.664 1
E12                                  27241878.474 4 109691747.197 7
> 2022 02 25 13 45 00.0000000  0 31                     
G10  23902383.927 1 125607834.520 1  23902386.233 1  97876228.579 2
G16  21565373.217 1 113326795.449 1                                
G22  20888675.460 1 109770720.439 1                                
G27  24969978.530 2 131218131.426 5  24969982.808 1 102247946.855 2
G26  20032883.898 1 105273515.584 1  20032883.530 1  82031310.818 1
C20  21897574.628 1 114026415.589 1                
C32  24057021.109 1 125271205.151 1                
C37  24051569.959 1 125242829.818 1                
C36  25544431.747 1 133016570.384 1                
C19  23754714.343 1 123697041.115 1                
C27  25403418.073 1 132282269.076 1                
R02  21156228.063 1 112893702.938 1  21156229.393 1  87806223.688 1
R11  22324796.865 1 119296924.930 1  22324795.570 1  92786488.180 1
R01  19258631.567 1 102948416.514 1  19258632.142 1  80070992.765 1
R08  21896482.255 1 117254644.774 1  21896480.635 1  91198034.917 1
R13  22002244.319 2 117490756.820 4  22002245.464 2  91381728.738 2
G29  24221385.206 1 127284227.420 2  24221383.739 1  99182511.663 3
G31  21791642.268 1 114515843.078 1  21791638.645 1  89233103.681 1
G32  21041041.098 1 110571405.756 1  21041040.219 1  86159533.189 1
E01  25458676.705 1 133786241.063 1  25458678.541 1 102511535.139 1
E04  23779638.226 1 124962837.285 1  23779638.915 1  95750745.052 1
E24  26265145.437 1 138024273.667 1  26265147.241 1 105758875.911 1
C30  26496369.149 1 137973538.845 3                
C28  26329534.790 1 137104801.792 2                
R12  20159022.319 1 107685876.078 1  20159021.812 1  83755683.064 1
E18  28698337.303 1 150810775.043 1  28698339.682 1 115556323.708 1
E31  23559076.961 1 123803786.049 1  23559079.540 1  94862649.507 1
G03  23898498.045 1 125587437.424 2  23898498.745 1  97860376.029 2
E19  26298772.823 1 138200979.090 3  26298775.404 1 105894247.779 2
E09  24125310.328 1 126779369.938 1  24125312.651 1  97142646.947 1
E12                                  27242030.330 4               9
> 2022 02 25 13 45 15.0000000  0 31                     
G10  23912290.203 1 125659889.788 1  23912291.702 1  97916791.090 2
G16  21557367.885 1 113284727.666 1                                
G22  20886261.577 1 109758034.782 1                                
G27  24960681.383 1 131169270.357 4  24960684.490 1 102209873.339 2
G26  20032354.071 1 105270731.029 1  20032353.518 1  82029141.029 1
C20  21897448.076 1 114025754.961 1                
C32  24064617.739 1 125310760.661 1                
C37  24056711.838 1 125269601.751 1                
C36  25539746.049 1 132992167.386 1                
C19  23747220.781 1 123658020.568 1                
C27  25398030.173 1 132254213.349 1                
R02  21145918.486 1 112838689.457 1  21145919.541 1  87763435.445 1
R11  22333124.399 1 119341424.629 1  22333123.122 1  92821099.029 1
R01  19259950.814 1 102955470.206 1  19259951.998 1  80076478.962 1
R08  21905891.567 1 117305033.365 1  21905890.524 1  91237225.964 1
R13  21997167.115 2 117463645.278 4  21997168.568 2  91360641.983 3
G29  24222189.072 1 127288454.568 1  24222187.018 1  99185805.494 3
G31  21794122.815 1 114528879.475 1  21794119.333 1  89243261.904 1
G32  21042143.758 1 110577200.588 1  21042142.774 1  86164048.630 1
E01  25464723.523 1 133818019.388 1  25464725.831 1 102535884.720 1
E04  23777925.705 1 124953838.426 1  23777926.600 1  95743849.815 1
E24  26259174.611 1 137992896.129 1  26259176.500 1 105734833.406 1
C30  26491237.617 1 137946813.937 3                
C28  26326689.141 1 137089982.979 2                
R12  20161595.828 1 107699624.768 1  20161595.941 1  83766376.480 1
E18  28688989.923 1 150761654.777 1  28688992.278 1 115518686.105 1
E31  23558870.056 1 123802699.193 1  23558872.719 1  94861816.723 1
G03  23891479.499 1 125550555.368 1  23891479.865 1  97831636.760 2
E19  26303520.608 1 138225931.596 3  26303523.443 1 105913367.178 2
E09  24118369.869 1 126742904.126 2  24118373.028 1  97114705.631 1
E12                                  27242168.234 4               9
> 2022 02 25 13 45 30.0000000  0 31                     
G10  23922196.962 1 125711946.414 1  23922198.086 1  97957354.647 2
G16  21549383.018 1 113242767.190 1                                
G22  20883860.803 1 109745421.031 1                                
G27  24951373.781 1 131120354.011 3  24951375.427 1 102171756.748 3
G26  20031849.218 1 105268078.529 1  20031848.750 1  82027074.149 1
C20  21897344.291 1 114025213.483 1                
C32  24072225.017 1 125350376.021 1                
C37  24061851.510 1 125296365.686 1                
C36  25535068.708 1 132967812.617 1                
C19  23739739.806 1 123619066.753 1                
C27  25392638.867 1 132226138.525 1                
R02  21135623.780 1 112783753.585 1  21135624.405 1  87720707.571 1
R11  22341448.211 1 119385906.178 1  22341447.141 1  92855695.763 1
R01  19261305.341 1 102962710.925 1  19261306.258 1  80082110.619 1
R08  21915320.285 1 117355525.399 1  21915319.425 1  91276497.533 1
R13  21992109.585 2 117436640.623 3  21992111.376 1  91339638.370 2
G29  24223014.904 1 127292794.695 1  24223013.376 1  99189187.470 2
G31  21796603.967 1 114541916.047 1  21796599.769 1  89253420.265 1
G32  21043265.354 1 110583095.093 1  21043264.682 1  86168641.747 1
E01  25470775.615 1 133849822.312 1  25470777.560 1 102560253.174 1
E04  23776225.742 1 124944906.080 1  23776226.735 1  95737005.544 1
E24  26253215.652 1 137961581.195 1  26253217.378 1 105710838.857 1
C30  26486091.133 1 137920015.672 3                
C28  26323852.641 1 137075215.291 2                
R12  20164186.932 1 107713463.824 1  20164186.525 1  83777140.184 1
E18  28679627.468 1 150712459.039 1  28679630.492 1 115480990.665 1
E31  23558678.708 1 123801692.901 1  23558681.233 1  94861045.661 1
G03  23884479.628 1 125513773.720 2  23884480.025 1  97802975.737 2
E19  26308279.971 1 138250943.267 3  26308282.969 1 105932531.923 2
E09  24111432.967 1 126706446.600 2  24111435.408 1  97086770.647 1
E12                                  27242288.459 8               9
> 2022 02 25 13 45 45.0000000  0 31                     
G10  23932103.142 1 125764003.760 2  23932104.993 1  97997918.686 2
G16  21541418.613 1 113200913.365 1                                
G22  20881474.137 1 109732878.565 1                                
G27  24942053.504 1 131071381.777 4  24942056.335 1 102133596.581 3
G26  20031369.345 1 105265557.104 1  20031368.819 1  82025109.397 1
C20  21897263.038 1 114024790.296 1                
C32  24079844.116 1 125390050.101 1                
C37  24066989.519 1 125323120.597 1                
C36  25530400.881 1 132943505.098 1                
C19  23732271.750 1 123580179.078 1                
C27  25387243.776 1 132198044.034 1                
R02  21125343.641 1 112728895.880 1  21125344.130 1  87678040.469 1
R11  22349768.740 1 119430368.425 1  22349767.803 1  92890277.487 1
R01  19262694.888 1 102970137.431 1  19262695.682 1  80087886.769 1
R08  21924769.017 1 117406119.941 1  21924767.547 1  91315848.796 1
R13  21987073.294 2 117409741.877 3  21987074.029 2  91318717.104 3
G29  24223862.700 1 127297247.069 1  24223861.333 1  99192656.830 2
G31  21799084.484 1 114554951.754 1  21799080.490 1  89263577.944 1
G32  21044405.924 1 110589088.528 1  21044405.090 1  86173311.938 1
E01  25476832.460 1 133881648.746 1  25476833.725 1 102584639.638 1
E04  23774538.528 1 124936039.569 1  23774539.407 1  95730211.720 1
E24  26247268.197 1 137930328.072 1  26247269.897 1 105686891.664 1
C30  26480929.991 1 137893143.532 4                
C28  26321026.434 1 137060498.023 2                
R12  20166794.191 1 107727391.932 1  20166794.020 1  83787973.152 1
E18  28670251.139 1 150663187.116 1  28670254.201 1 115443236.860 1
E31  23558502.332 1 123800766.170 1  23558504.869 1  94860335.571 1
G03  23877499.589 1 125477091.843 2  23877499.905 1  97774392.482 2
E19  26313050.490 1 138276013.034 3  26313053.926 1 105951741.204 2
E09  24104496.749 1 126669996.697 1  24104499.700 1  97058841.506 1
E12                                  27242393.074 9               9
> 2022 02 25 13 46 00.0000000  0 31                     
G10  23942008.936 1 125816060.569 1  23942011.483 1  98038482.345 2
G16  21533474.030 1 113159165.892 1                                
G22  20879100.792 1 109720407.002 1                                
G27  24932723.355 1 131022353.269 4  24932726.818 1 102095392.591 3
G26  20030914.582 1 105263166.031 1  20030914.032 1  82023246.207 1
C20  21897204.378 1 114024484.859 1                
C32  24087474.307 1 125429782.082 1                
C37  24072125.597 1 125349865.778 1                
C36  25525741.664 1 132919244.217 1                
C19  23724816.636 1 123541357.230 1                
C27  25381845.297 1 132169929.588 1                
R02  21115077.623 1 112674116.747 1  21115078.650 1  87635434.463 1
R11  22358085.550 1 119474810.354 1  22358084.903 1  92924843.398 1
R01  19264118.942 1 102977749.472 1  19264119.981 1  80093807.236 1
R08  21934235.919 1 117456815.754 1  21934234.727 1  91355278.827 1
R13  21982056.675 2 117382948.338 4  21982056.581 1  91297877.759 2
G29  24224731.817 1 127301811.178 1  24224729.958 1  99196213.245 2
G31  21801565.101 1 114567986.068 1  21801561.217 1  89273734.540 1
G32  21045565.094 1 110595180.435 1  21045564.367 1  86178058.867 1
E01  25482893.047 1 133913497.866 1  25482894.414 1 102609043.497 1
E04  23772864.019 1 124927238.434 1  23772864.663 1  95723467.983 1
E24  26241333.037 1 137899136.241 1  26241334.424 1 105662991.421 1
C30  26475754.828 1 137866196.868 3                
C28  26318210.320 1 137045830.879 2                
R12  20169418.375 1 107741408.194 1  20169417.832 1  83798874.683 1
E18  28660861.046 1 150613838.601 1  28660863.724 1 115405424.349 1
E31  23558341.289 1 123799918.312 1  23558343.569 1  94859685.906 1
G03  23870538.330 1 125440509.433 1  23870539.193 1  97745886.751 2
E19  26317833.285 1 138301140.309 2  26317835.689 1 105970994.521 2
E09  24097562.206 1 126633554.016 2  24097565.048 1  97030917.888 1
E12                                  27242482.846 9               9
> 2022 02 25 13 46 15.0000000  0 31                     
G10  23951915.304 1 125868119.487 1  23951917.322 1  98079047.675 2
G16  21525550.564 1 113117528.017 1                                
G22  20876741.523 1 109708009.441 1                                
G27  24923384.469 1 130973271.840 4  24923387.172 1 102057147.349 3
G26  20030484.923 1 105260908.185 1  20030484.325 1  82021486.861 1
C20  21897168.785 1 114024300.120 1                
C32  24095115.842 1 125469574.669 1                
C37  24077260.195 1 125376604.033 1                
C36  25521092.082 1 132895032.867 2                
C19  23717374.440 1 123502604.427 1                
C27  25376442.837 1 132141798.365 1                
R02  21104826.923 1 112619418.880 1  21104828.632 1  87592891.702 1
R11  22366398.807 1 119519234.897 1  22366398.614 1  92959395.790 1
R01  19265578.326 1 102985550.029 1  19265578.966 1  80099874.308 1
R08  21943722.558 1 117507615.811 1  21943720.555 1  91394789.932 1
R13  21977058.441 2 117356263.004 4  21977059.266 1  91277122.457 2
G29  24225621.821 1 127306490.042 1  24225619.460 1  99199859.141 3
G31  21804045.792 1 114581021.857 1  21804042.014 1  89283892.293 1
G32  21046743.841 1 110601373.968 1  21046743.217 1  86182884.988 1
E01  25488958.249 1 133945372.460 1  25488960.053 1 102633466.879 1
E04  23771202.339 1 124918505.803 1  23771202.901 1  95716776.745 1
E24  26235409.915 1 137868008.764 1  26235411.445 1 105639140.513 1
C30  26470567.150 1 137839178.859 3                
C28  26315404.066 1 137031217.018 1                
R12  20172059.192 1 107755515.133 1  20172058.480 1  83809846.749 1
E18  28651455.505 1 150564416.621 1  28651458.934 1 115367555.558 1
E31  23558195.508 1 123799152.174 1  23558197.641 1  94859098.869 1
G03  23863596.762 1 125404029.698 2  23863596.865 1  97717460.977 2
E19  26322626.124 1 138326327.963 3  26322628.745 1 105990294.111 2
E09  24090629.326 1 126597121.701 2  24090631.965 1  97003002.223 1
E12                                  27242557.141 9               9
> 2022 02 25 13 46 30.0000000  0 31                     
G10  23961821.804 1 125920177.513 2  23961823.343 1  98119612.298 2
G16  21517647.693 1 113075997.404 1                                
G22  20874395.962 1 109695683.727 1                                
G27  24914034.311 1 130924134.986 3  24914037.232 1 102018858.951 3
G26  20030079.861 1 105258780.828 1  20030079.713 1  82019829.177 1
C20  21897155.312 1 114024233.515 1                
C32  24102768.983 1 125509425.012 1                
C37  24082393.353 1 125403332.622 1                
C36  25516451.102 1 132870868.380 1                
C19  23709945.189 1 123463918.336 1                
C27  25371036.035 1 132113648.024 1                
R02  21094591.731 1 112564800.902 1  21094592.899 1  87550411.066 1
R11  22374708.487 1 119563638.898 1  22374708.057 1  92993932.209 1
R01  19267072.103 1 102993536.264 1  19267073.064 1  80106085.813 1
R08  21953228.607 1 117558516.832 1  21953226.233 1  91434379.592 1
R13  21972081.133 2 117329683.116 3  21972082.083 2  91256449.234 2
G29  24226533.488 1 127311281.203 1  24226531.823 1  99203592.496 2
G31  21806525.921 1 114594056.466 1  21806522.497 1  89294049.112 1
G32  21047941.304 1 110607666.596 1  21047940.901 1  86187788.312 1
E01  25495028.074 1 133977269.708 1  25495029.946 1 102657907.606 1
E04  23769553.059 1 124909839.243 1  23769553.798 1  95710136.130 1
E24  26229498.647 1 137836943.088 1  26229499.871 1 105615336.960 1
C30  26465364.822 1 137812087.008 3                
C28  26312606.515 1 137016654.132 1                
R12  20174716.311 1 107769709.752 1  20174716.072 1  83820887.004 1
E18  28642037.004 1 150514918.713 1  28642039.988 1 115329628.597 1
E31  23558064.450 1 123798465.022 1  23558067.027 1  94858572.349 1
G03  23856673.869 1 125367650.205 2  23856674.455 1  97689113.345 2
E19  26327429.235 1 138351573.404 3  26327432.936 1 106009637.998 2
E09  24083698.299 1 126560697.334 1  24083700.428 1  96975092.662 1
E12                                  27242615.287 9               9
> 2022 02 25 13 46 45.0000000  0 31                     
G10  23971728.334 1 125972235.276 2  23971729.448 1  98160176.702 2
G16  21509765.199 1 113034575.204 1                                
G22  20872064.505 1 109683430.933 1                                
G27  24904673.267 1 130874944.095 3  24904676.782 1 101980528.388 3
G26  20029700.430 1 105256784.817 1  20029699.945 1  82018273.835 1
C20  21897166.080 1 114024286.016 1                
C32  24110432.855 1 125549333.848 1                
C37  24087524.871 1 125430052.374 1                
C36  25511820.409 1 132846751.676 1                
C19  23702528.864 1 123425300.169 1                
C27  25365626.715 1 132085479.829 1                
R02  21084371.996 1 112510264.009 1  21084372.633 1  87507993.495 1
R11  22383014.466 1 119608023.209 1  22383013.419 1  93028453.319 1
R01  19268600.942 1 103001709.362 1  19268602.209 1  80112442.661 1
R08  21962752.633 1 117609519.298 1  21962750.815 1  91474048.125 1
R13  21967123.558 2 117303209.619 3  21967123.969 2  91235858.742 2
G29  24227466.434 1 127316185.751 1  24227465.414 1  99207414.201 3
G31  21809006.460 1 114607090.643 1  21809002.456 1  89304205.600 1
G32  21049157.586 1 110614059.433 1  21049156.963 1  86192769.737 1
E01  25501102.038 1 134009190.338 1  25501104.304 1 102682366.259 1
E04  23767916.637 1 124901239.840 1  23767917.389 1  95703546.980 1
E24  26223598.049 1 137805940.280 1  26223600.149 1 105591581.576 1
C30  26460148.112 1 137784922.376 3                
C28  26309820.558 1 137002143.436 1                
R12  20177390.297 1 107783992.706 1  20177390.009 1  83831995.975 1
E18  28632603.329 1 150465346.065 1  28632606.939 1 115291644.365 1
E31  23557948.613 1 123797857.724 1  23557951.455 1  94858107.021 1
G03  23849770.052 1 125331372.212 2  23849770.885 1  97660844.846 2
E19  26332244.833 1 138376877.578 3  26332248.246 1 106029026.876 2
E09  24076768.606 1 126524282.111 1  24076770.342 1  96947190.076 1
E12                                  27242655.807 9               9
> 2022 02 25 13 47 00.0000000  0 31                     
G10  23981634.797 1 126024294.187 2  23981635.881 1  98200742.014 2
G16  21501903.719 1 112993263.544 1                                
G22  20869747.314 1 109671253.278 1                                
G27  24895302.325 1 130825701.072 2  24895305.975 1 101942157.225 3
G26  20029345.788 1 105254921.761 1  20029345.561 1  82016822.109 1
C20  21897199.091 1 114024459.392 1                
C32  24118108.724 1 125589302.662 1                
C37  24092654.168 1 125456764.919 1                
C36  25507198.560 1 132822684.439 1                
C19  23695126.335 1 123386751.975 1                
C27  25360214.348 1 132057295.787 1                
R02  21074167.675 1 112455810.436 1  21074168.021 1  87465640.735 1
R11  22391317.383 1 119652389.212 1  22391315.896 1  93062960.177 1
R01  19270165.292 1 103010071.050 1  19270166.321 1  80118946.179 1
R08  21972296.285 1 117660624.763 1  21972294.911 1  91513796.759 1
R13  21962186.010 2 117276844.198 4  21962186.831 2  91215352.335 3
G29  24228421.219 1 127321205.359 1  24228420.349 1  99211325.543 2
G31  21811487.218 1 114620126.011 1  21811482.755 1  89314363.031 1
G32  21050393.627 1 110620554.359 1  21050392.704 1  86197830.707 1
E01  25507181.073 1 134041135.899 1  25507183.289 1 102706844.005 1
E04  23766293.384 1 124892709.540 1  23766294.303 1  95697010.764 1
E24  26217710.814 1 137775002.167 1  26217712.802 1 105567875.741 1
C30  26454916.845 1 137757686.857 3                
C28  26307044.649 1 136987686.885 1                
R12  20180080.654 1 107798365.418 1  20180080.758 1  83843174.746 1
E18  28623156.851 1 150415700.547 2  28623159.560 1 115253604.297 1
E31  23557848.484 1 123797331.897 1  23557851.535 1  94857704.111 1
G03  23842886.182 1 125295197.696 2  23842885.542 1  97632656.875 2
E19  26337072.595 1 138402242.122 3  26337074.893 1 106048461.994 2
E09  24069840.509 1 126487877.923 2  24069842.971 1  96919295.963 1
E12                                  27242681.540 8               9
> 2022 02 25 13 47 15.0000000  0 31                     
G10  23991541.490 1 126076351.916 2  23991542.282 1  98241306.381 2
G16  21494062.884 1 112952060.490 1                                
G22  20867443.860 1 109659148.999 1                                
G27  24885921.701 1 130776404.344 2  24885925.103 1 101903744.177 3
G26  20029016.140 1 105253189.588 1  20029015.812 1  82015472.362 1
C20  21897255.337 1 114024751.708 1                
C32  24125795.854 1 125629329.232 1                
C37  24097782.341 1 125483468.106 1                
C36  25502585.702 1 132798664.620 1                
C19  23687736.011 1 123348272.008 1                
C27  25354798.202 1 132029094.244 1                
R02  21063978.466 1 112401438.501 1  21063978.516 1  87423351.435 1
R11  22399615.501 1 119696734.616 1  22399615.036 1  93097451.018 1
R01  19271764.511 1 103018619.319 1  19271765.485 1  80125594.825 1
R08  21981858.376 1 117711830.838 1  21981857.177 1  91553623.666 1
R13  21957268.748 2 117250584.766 4  21957268.976 2  91194928.305 2
G29  24229398.753 1 127326338.193 1  24229397.393 1  99215325.154 2
G31  21813967.281 1 114633160.608 1  21813963.153 1  89324519.858 1
G32  21051648.664 1 110627149.527 1  21051647.730 1  86202969.773 1
E01  25513264.523 1 134073104.223 1  25513266.816 1 102731339.176 1
E04  23764682.723 1 124884246.519 1  23764683.726 1  95690526.107 1
E24  26211835.534 1 137744126.849 1  26211837.479 1 105544218.048 1
C30  26449673.243 1 137730378.533 4                
C28  26304278.234 1 136973282.778 1                
R12  20182787.313 1 107812825.375 1  20182787.468 1  83854421.362 1
E18  28613695.427 1 150365980.377 1  28613698.269 1 115215507.029 1
E31  23557763.508 1 123796885.464 1  23557766.285 1  94857362.033 1
G03  23836021.458 1 125259124.908 2  23836020.648 1  97604548.222 2
E19  26341909.913 1 138427664.966 3  26341912.652 1 106067941.803 2
E09  24062914.948 1 126451483.073 2  24062917.310 1  96891408.988 1
E12                                  27242693.244 9               9
> 2022 02 25 13 47 30.0000000  0 31                     
G10  24001447.672 1 126128409.537 2  24001448.959 1  98281870.677 2
G16  21486243.331 1 112910967.873 1                                
G22  20865154.632 1 109647119.669 1                                
G27  24876530.813 1 130727055.455 3  24876533.915 1 101865290.501 2
G26  20028711.841 1 105251589.615 1  20028711.154 1  82014225.623 1
C20  21897334.705 1 114025164.411 1                
C32  24133493.416 1 125669414.764 1                
C37  24102908.776 1 125510163.242 1                
C36  25497981.825 1 132774693.629 1                
C19  23680360.338 1 123309861.978 1                
C27  25349379.642 1 132000876.792 1                
R02  21053804.301 1 112347150.830 1  21053805.380 1  87381127.710 1
R11  22407910.521 1 119741060.564 1  22407910.031 1  93131926.720 1
R01  19273398.795 1 103027355.666 1  19273399.908 1  80132389.741 1
R08  21991439.979 1 117763138.675 1  21991439.051 1  91593529.700 1
R13  21952371.665 2 117224432.948 3  21952371.423 2  91174588.004 3
G29  24230397.438 1 127331585.781 1  24230395.958 1  99219414.157 2
G31  21816448.070 1 114646195.694 1  21816443.870 1  89334677.048 1
G32  21052923.091 1 110633846.520 1  21052922.194 1  86208188.203 1
E01  25519352.723 1 134105096.485 1  25519354.764 1 102755852.709 1
E04  23763085.195 1 124875852.325 1  23763086.381 1  95684094.188 1
E24  26205972.299 1 137713315.832 1  26205973.979 1 105520609.597 1
C30  26444415.313 1 137702999.183 3                
C28  26301522.143 1 136958932.757 1                
R12  20185511.165 1 107827373.688 1  20185510.981 1  83865736.723 1
E18  28604219.524 1 150316187.148 1  28604222.893 1 115177353.787 1
E31  23557694.293 1 123796519.727 1  23557696.665 1  94857081.795 1
G03  23829177.305 1 125223155.609 2  23829177.143 1  97576520.190 2
E19  26346759.320 1 138453147.589 3  26346761.522 1 106087467.423 2
E09  24055991.716 1 126415099.116 2  24055993.644 1  96863530.381 1
E12                                  27242687.800 9               9
> 2022 02 25 13 47 45.0000000  0 31                     
G10  24011353.861 1 126180466.890 2  24011355.378 1  98322434.751 2
G16  21478444.767 1 112869986.164 1                                
G22  20862880.131 1 109635165.770 1                                
G27  24867129.360 1 130677654.930 2  24867132.921 1 101826796.588 2
G26  20028432.272 1 105250121.871 1  20028431.793 1  82013081.937 1
C20  21897437.037 1 114025697.707 1                
C32  24141202.590 1 125709559.172 1                
C37  24108033.583 1 125536850.414 1                
C36  25493388.514 1 132750771.560 1                
C19  23672998.131 1 123271522.332 1                
C27  25343958.262 1 131972643.996 1                
R02  21043646.871 1 112292947.378 1  21043647.316 1  87338969.476 1
R11  22416201.974 1 119785366.948 1  22416201.477 1  93166387.233 1
R01  19275068.370 1 103036280.127 1  19275069.727 1  80139330.979 1
R08  22001040.437 1 117814547.706 1  22001039.375 1  91633514.468 1
R13  21947493.858 2 117198388.481 4  21947494.361 2  91154331.225 3
G29  24231417.738 1 127336948.207 1  24231417.010 1  99223592.660 2
G31  21818928.551 1 114659231.305 1  21818924.172 1  89344834.650 1
G32  21054216.789 1 110640645.626 1  21054216.277 1  86213486.192 1
E01  25525445.688 1 134137112.698 1  25525447.327 1 102780384.599 1
E04  23761500.934 1 124867527.345 1  23761502.232 1  95677715.307 1
E24  26200121.559 1 137682569.344 1  26200123.072 1 105497050.625 1
C30  26439143.825 1 137675548.780 5                
C28  26298776.474 1 136944637.253 1                
R12  20188250.897 1 107842010.148 1  20188251.193 1  83877120.637 1
E18  28594730.877 1 150266321.239 1  28594733.640 1 115139144.845 1
E31  23557639.906 1 123796234.766 1  23557642.611 1  94856863.442 1
G03  23822352.502 1 125187290.073 2  23822352.119 1  97548573.042 2
E19  26351620.487 1 138478690.154 3  26351622.280 1 106107038.976 2
E09  24049069.740 1 126378726.457 2  24049072.047 1  96835660.436 1
E12                                  27242665.431 9               9
> 2022 02 25 13 48 00.0000000  0 31                     
G10  24021259.121 1 126232519.988 2  24021260.906 1  98362995.530 2
G16  21470666.735 1 112829112.072 1                                
G22  20860619.281 1 109623284.066 1                                
G27  24857718.050 1 130628199.413 3  24857721.822 1 101788259.839 3
G26  20028177.244 1 105248782.654 1  20028177.013 1  82012038.381 1
C20  21897561.958 1 114026347.994 1                
C32  24148922.631 1 125749758.631 1                
C37  24113156.642 1 125563525.829 1                
C36  25488802.962 1 132726894.781 1                
C19  23665648.598 1 123233249.789 1                
C27  25338532.969 1 131944392.483 1                
R02  21033504.777 1 112238825.912 1  21033505.318 1  87296875.003 1
R11  22424488.785 1 119829649.859 1  22424488.173 1  93200829.424 1
R01  19276772.445 1 103045389.184 1  19276773.696 1  80146415.773 1
R08  22010659.160 1 117866054.264 1  22010657.528 1  91673575.045 1
R13  21942635.901 2 117172448.027 3  21942636.082 2  91134155.341 2
G29  24232459.219 1 127342422.159 2  24232458.714 1  99227858.047 2
G31  21821408.382 1 114672263.912 1  21821404.344 1  89354989.916 1
G32  21055529.536 1 110647543.399 1  21055528.907 1  86218861.058 1
E01  25531541.983 1 134169149.005 1  25531543.624 1 102804931.866 1
E04  23759929.366 1 124859268.097 1  23759930.425 1  95671386.777 1
E24  26194282.567 1 137651883.928 1  26194283.913 1 105473538.412 1
C30  26433857.624 1 137648024.138 4                
C28  26296041.341 1 136930393.025 1                
R12  20191006.771 1 107856730.710 1  20191006.569 1  83888569.940 1
E18  28585227.875 1 150216379.186 1  28585230.015 1 115100877.555 1
E31  23557600.557 1 123796026.829 1  23557603.092 1  94856704.114 1
G03  23815546.357 1 125151525.047 2  23815546.588 1  97520704.208 2
E19  26356491.470 1 138504288.838 3  26356494.128 1 106126653.493 2
E09  24042149.474 1 126342361.718 2  24042152.050 1  96807796.520 1
E12                                  27242629.873 9               9
> 2022 02 25 13 48 15.0000000  0 30                     
G10  24031163.511 1 126284568.249 3  24031164.985 1  98403552.570 2
G16  21462909.065 1 112788345.356 1                                
G22  20858371.543 1 109611474.558 1                                
G27  24848297.146 1 130578688.988 3  24848300.534 1 101749680.321 2
G26  20027946.959 1 105247571.544 1  20027946.533 1  82011094.657 1
C20  21897709.122 1 114027115.047 1                
C32  24156653.153 1 125790012.610 1                
C37  24118277.157 1 125590189.135 1                
C36  25484225.936 1 132703062.935 2                
C19  23658311.286 1 123195044.289 1                
C27  25333103.811 1 131916122.334 2                
R02  21023378.044 1 112184785.791 1  21023378.520 1  87254843.823 1
R11  22432771.418 1 119873908.587 1  22432770.461 1  93235252.869 1
R01  19278510.802 1 103054682.415 1  19278511.976 1  80153643.849 1
R08  22020295.721 1 117917657.382 2  22020294.083 1  91713710.745 1
R13  21937797.752 2 117146611.105 3  21937797.871 1  91114059.934 2
G29  24233522.119 1 127348007.493 2  24233521.144 1  99232210.265 2
G31  21823887.763 1 114685293.229 1  21823883.823 1  89365142.624 1
G32  21056860.858 1 110654539.638 1  21056860.201 1  86224312.677 1
E01  25537641.410 1 134201204.951 1  25537643.829 1 102829494.192 1
E04  23758370.635 1 124851074.476 1  23758371.267 1  95665108.539 1
E24  26188454.996 1 137621259.343 1  26188456.159 1 105450072.816 1
C30  26428557.038 2 137620425.134 7                
C28  26293315.973 1 136916199.933 1                
R12  20193778.330 1 107871534.695 1  20193777.256 1  83900084.158 1
E18  28575709.248 1 150166360.875 1  28575711.911 1 115062551.846 1
E31  23557575.192 1 123795895.544 1  23557578.058 1  94856603.521 1
G03  23808759.685 1 125115860.432 2  23808760.652 1  97492913.618 1
E19  26361372.511 1 138529943.503 3  26361375.954 1 106146310.927 2
E09  24035230.575 1 126306004.764 2  24035234.095 1  96779938.626 1
> 2022 02 25 13 48 30.0000000  0 30                     
G10  24041067.481 1 126336613.820 2  24041069.045 1  98444107.492 2
G16  21455172.446 1 112747688.880 1                                
G22  20856138.886 1 109599739.874 1                                
G27  24838865.797 1 130529126.328 3  24838869.077 1 101711060.062 2
G26  20027741.579 1 105246490.895 1  20027741.208 1  82010252.578 1
C20  21897879.697 1 114028001.356 1                
C32  24164393.987 1 125830323.381 1                
C37  24123395.534 1 125616842.690 1                
C36  25479657.948 1 132679278.479 1                
C19  23650987.633 1 123156908.623 1                
C27  25327670.682 1 131887836.219 2                
R02  21013266.401 1 112130830.731 1  21013267.160 1  87212878.796 1
R11  22441049.426 1 119918145.350 1  22441048.916 1  93269659.218 1
R01  19280284.323 1 103064162.446 1  19280285.164 1  80161017.181 1
R08  22029950.696 1 117969359.390 1  22029948.008 1  91753923.360 1
R13  21932979.428 2 117120879.989 4  21932979.239 2  91094046.863 2
G29  24234606.556 1 127353706.639 1  24234605.385 1  99236651.162 2
G31  21826366.923 1 114698321.567 1  21826363.128 1  89375294.574 1
G32  21058211.468 1 110661637.003 1  21058210.845 1  86229843.086 1
E01  25543745.934 1 134233282.807 1  25543747.933 1 102854073.303 1
E04  23756824.457 1 124842949.121 1  23756824.888 1  95658882.607 1
E24  26182639.305 1 137590698.147 1  26182640.637 1 105426655.802 1
C30  26423244.667 2 137592754.247 6                
C28  26290600.308 1 136902060.724 1                
R12  20196565.432 1 107886424.186 1  20196564.839 1  83911664.870 1
E18  28566176.853 1 150116269.005 1  28566179.696 1 115024169.765 1
E31  23557565.486 1 123795843.282 1  23557568.213 1  94856563.474 1
G03  23801992.280 1 125080298.966 2  23801993.172 1  97465203.407 1
E19  26366266.152 1 138555656.584 3  26366268.968 1 106166013.117 2
E09  24028315.058 1 126269658.346 2  24028317.787 1  96752088.777 1
> 2022 02 25 13 48 45.0000000  0 30                     
G10  24050970.733 1 126388655.697 3  24050972.468 1  98484659.517 2
G16  21447456.668 1 112707142.196 1                                
G22  20853919.780 1 109588079.566 1                                
G27  24829424.787 1 130479511.051 3  24829427.437 1 101672398.818 3
G26  20027560.587 1 105245539.946 1  20027560.014 1  82009511.582 1
C20  21898072.662 1 114029006.257 1                
C32  24172145.948 1 125870690.008 1                
C37  24128511.777 1 125643485.672 1                
C36  25475099.549 1 132655540.656 1                
C19  23643677.404 1 123118842.382 1                
C27  25322236.073 1 131859533.838 1                
R02  21003171.675 1 112076960.185 1  21003171.146 1  87170979.485 1
R11  22449323.391 1 119962359.419 1  22449323.078 1  93304047.910 1
R01  19282092.630 1 103073828.521 1  19282093.529 1  80168535.232 1
R08  22039623.728 1 118021159.295 1  22039622.581 1  91794212.149 1
R13  21928180.484 2 117095254.157 3  21928180.526 1  91074115.676 2
G29  24235712.867 1 127359519.168 1  24235711.250 1  99241180.356 2
G31  21828845.969 1 114711348.114 1  21828841.977 1  89385445.114 1
G32  21059581.334 1 110668834.937 1  21059580.576 1  86235451.849 1
E01  25549854.495 1 134265381.700 1  25549856.203 1 102878668.539 1
E04  23755290.888 1 124834891.502 1  23755291.642 1  95652708.585 1
E24  26176835.325 1 137560199.798 1  26176837.085 1 105403286.942 1
C30  26417917.543 2 137565011.004 5                
C28  26287895.519 1 136887974.999 1                
R12  20199368.491 1 107901398.210 1  20199368.590 1  83923311.325 1
E18  28556630.653 1 150066103.056 1  28556633.323 1 114985730.934 1
E31  23557570.196 1 123795869.260 1  23557573.077 1  94856583.377 1
G03  23795245.280 1 125044840.279 2  23795245.720 1  97437573.274 1
E19  26371170.694 1 138581427.238 2  26371172.985 1 106185759.427 2
E09  24021400.690 1 126233321.987 1  24021403.261 1  96724246.637 1
> 2022 02 25 13 49 00.0000000  0 30                     
G10  24060873.344 1 126440694.324 2  24060875.506 1  98525209.007 1
G16  21439762.156 1 112666706.537 1                                
G22  20851715.308 1 109576495.063 1                                
G27  24819973.431 1 130429844.331 2  24819975.892 1 101633697.516 3
G26  20027404.148 1 105244719.430 1  20027403.792 1  82008872.216 1
C20  21898288.225 1 114030130.640 1                
C32  24179909.383 1 125911113.120 1                
C37  24133626.608 1 125670118.833 1                
C36  25470549.959 1 132631850.307 1                
C19  23636381.059 1 123080846.699 1                
C27  25316797.850 1 131831216.280 1                
R02  20993092.074 1 112023175.438 1  20993091.936 1  87129146.917 1
R11  22457593.577 1 120006551.312 1  22457593.036 1  93338419.349 1
R01  19283935.832 1 103083681.596 1  19283936.472 1  80176198.712 1
R08  22049314.338 1 118073057.344 2  22049313.747 1  91834577.231 1
R13  21923400.872 2 117069734.438 4  21923401.517 1  91054267.007 2
G29  24236840.623 1 127365445.975 1  24236838.884 1  99245798.650 2
G31  21831324.766 1 114724373.675 1  21831320.744 1  89395594.881 1
G32  21060970.400 1 110676134.456 1  21060969.640 1  86241139.771 1
E01  25555967.054 1 134297502.306 1  25555968.481 1 102903280.415 1
E04  23753770.991 1 124826902.702 1  23753771.568 1  95646587.282 1
E24  26171043.819 1 137529765.216 1  26171045.541 1 105379966.947 1
C30  26412576.006 2 137537196.405 7                
C28  26285201.462 1 136873943.889 1                
R12  20202187.654 1 107916457.221 1  20202187.078 1  83935023.877 1
E18  28547070.459 1 150015864.113 1  28547073.386 1 114947236.145 1
E31  23557590.416 1 123795974.243 1  23557593.125 1  94856663.811 1
G03  23788517.158 1 125009485.345 2  23788517.731 1  97410024.018 2
E19  26376085.020 1 138607256.310 3  26376087.791 1 106205550.484 2
E09  24014488.110 1 126196996.745 2  24014490.511 1  96696413.027 1
> 2022 02 25 13 49 15.0000000  0 30                     
G10  24070775.291 1 126492729.811 3  24070777.743 1  98565756.025 2
G16  21432088.473 1 112626382.304 1                                
G22  20849525.550 1 109564986.769 1                                
G27  24810513.035 1 130380126.722 3  24810515.290 1 101594956.593 3
G26  20027272.991 1 105244029.527 1  20027272.571 1  82008334.617 1
C20  21898527.296 1 114031374.815 1                
C32  24187682.680 1 125951592.754 1                
C37  24138739.845 1 125696742.333 1                
C36  25466009.770 1 132608207.653 2                
C19  23629097.456 1 123042922.137 1                
C27  25311357.126 1 131802884.164 1                
R02  20983028.997 1 111969477.838 1  20983029.515 1  87087382.119 1
R11  22465859.268 1 120050721.093 1  22465858.782 1  93372773.600 1
R01  19285813.877 1 103093722.008 1  19285814.864 1  80184007.906 1
R08  22059024.354 1 118125053.583 2  22059023.624 1  91875018.667 1
R13  21918641.559 2 117044321.074 3  21918642.839 2  91034501.036 3
G29  24237990.249 1 127371487.464 2  24237988.248 1  99250506.299 2
G31  21833803.164 1 114737398.512 1  21833799.296 1  89405744.091 1
G32  21062378.803 1 110683535.991 1  21062378.138 1  86246907.191 1
E01  25562083.613 1 134329644.702 1  25562084.853 1 102927908.980 1
E04  23752263.711 1 124818983.149 1  23752264.479 1  95640519.047 1
E24  26165264.526 1 137499394.789 1  26165266.486 1 105356696.096 1
C30  26407218.453 2 137509310.998 7                
C28  26282517.014 1 136859967.929 2                
R12  20205022.376 1 107931601.198 1  20205022.062 1  83946802.525 1
E18  28537496.957 1 149965552.625 1  28537499.216 1 114908685.795 1
E31  23557625.465 1 123796158.392 1  23557628.271 1  94856804.904 1
G03  23781809.124 1 124974234.851 2  23781809.175 1  97382556.115 2
E19  26381012.195 1 138633144.017 3  26381013.906 1 106225386.496 2
E09  24007578.146 1 126160683.136 2  24007579.950 1  96668588.319 1
> 2022 02 25 13 49 30.0000000  0 30                     
G10  24080676.794 1 126544759.512 2  24080678.545 1  98606298.557 2
G16  21424436.042 1 112586167.600 1                                
G22  20847349.546 1 109553552.749 1                                
G27  24801041.660 1 130330356.407 3  24801044.525 1 101556174.557 2
G26  20027166.243 1 105243467.955 1  20027165.778 1  82007897.035 1
C20  21898788.736 1 114032736.669 1                
C32  24195467.119 1 125992126.583 1                
C37  24143850.290 1 125723353.897 1                
C36  25461478.919 1 132584610.495 1                
C19  23621827.566 1 123005066.836 1                
C27  25305913.068 1 131774535.551 2                
R02  20972982.263 1 111915865.978 1  20972982.723 1  87045684.026 1
R11  22474120.805 1 120094866.160 1  22474119.764 1  93407108.624 1
R01  19287726.857 1 103103947.457 1  19287727.922 1  80191961.031 1
R08  22068752.626 1 118177145.327 1  22068751.399 1  91915534.436 1
R13  21913902.315 2 117019011.493 3  21913902.726 2  91014815.815 3
G29  24239160.879 1 127377641.397 1  24239159.824 1  99255301.531 2
G31  21836281.469 1 114750420.426 1  21836277.097 1  89415891.034 1
G32  21063806.082 1 110691037.490 1  21063806.066 1  86252752.498 1
E01  25568203.666 1 134361806.512 1  25568204.925 1 102952552.446 1
E04  23750769.231 1 124811130.815 1  23750770.171 1  95634502.312 1
E24  26159496.673 1 137469086.409 1  26159498.994 1 105333472.820 1
C30  26401848.548 2 137481352.625 4                
C28  26279843.430 1 136846045.244 1                
R12  20207872.941 1 107946827.549 1  20207872.333 1  83958645.240 1
E18  28527908.860 1 149915166.628 1  28527911.066 1 114870078.337 1
E31  23557675.143 1 123796419.451 1  23557677.828 1  94857004.933 1
G03  23775120.067 1 124939086.729 2  23775121.213 1  97355168.013 1
E19  26385948.598 1 138659088.368 3  26385951.343 1 106245265.917 2
E09  24000669.278 1 126124379.189 2  24000671.276 1  96640771.017 1
> 2022 02 25 13 49 45.0000000  0 29                     
G10  24090576.809 1 126596783.459 2  24090578.353 1  98646836.635 2
G16  21416804.556 1 112546063.107 1                                
G22  20845188.083 1 109542193.516 1                                
G27  24791560.566 1 130280533.944 3  24791563.546 1 101517351.858 3
G26  20027083.709 1 105243034.883 1  20027083.412 1  82007559.572 1
C20  21899073.060 1 114034216.511 1                
C32  24203261.705 1 126032714.620 1                
C37  24148958.253 1 125749953.734 1                
C36  25456955.821 1 132561059.107 2                
C19  23614571.129 1 122967281.363 1                
C27  25300465.802 1 131746171.073 2                
R02  20962951.187 1 111862340.083 1  20962952.469 1  87004052.818 1
R11  22482377.511 1 120138986.721 1  22482376.347 1  93441424.595 1
R01  19289674.616 1 103114358.285 1  19289675.744 1  80200058.326 1
R08  22078498.912 1 118229332.604 2  22078497.897 1  91956124.478 1
R13  21909182.300 2 116993806.246 4  21909182.403 2  90995211.781 2
G29  24240353.513 1 127383908.117 2  24240352.796 1  99260184.701 2
G31  21838758.744 1 114763439.701 1  21838754.883 1  89426035.917 1
G32  21065252.612 1 110698639.406 1  21065252.720 1  86258676.054 1
E01  25574327.394 1 134393987.886 1  25574328.704 1 102977210.881 1
E04  23749287.960 1 124803346.225 1  23749288.893 1  95628537.487 1
E24  26153741.658 1 137438840.511 1  26153743.323 1 105310297.389 1
C28  26277179.562 1 136832176.372 1                
R12  20210738.859 1 107962136.135 1  20210738.861 1  83970551.926 1
E18  28518306.237 1 149864706.594 1  28518308.766 1 114831414.163 1
E31  23557739.482 1 123796757.598 1  23557742.285 1  94857264.031 1
G03  23768451.558 1 124904041.649 2  23768452.652 1  97327860.166 2
E19  26390897.009 1 138685089.390 2  26390899.231 1 106265188.747 2
E09  23993762.152 1 126088085.453 2  23993765.316 1  96612961.537 1
> 2022 02 25 13 50 00.0000000  0 30                     
G10  24100476.405 1 126648805.113 2  24100477.635 1  98687372.931 2
G16  21409194.495 1 112506072.898 1                                
G22  20843041.492 1 109530913.213 1                                
G27  24782070.389 1 130230663.550 2  24782073.368 1 101478491.863 3
G26  20027026.546 1 105242734.027 1  20027026.126 1  82007325.135 1
C20  21899380.636 1 114035818.181 1                
C32  24211067.302 1 126073360.453 1                
C37  24154064.963 1 125776545.526 1                
C36  25452442.143 1 132537557.194 2                
C19  23607328.967 1 122929569.793 1                
C27  25295015.773 1 131717794.877 2                
R02  20952937.341 1 111808904.896 1  20952938.314 1  86962492.151 1
R11  22490629.975 1 120183086.225 1  22490629.114 1  93475724.151 1
R01  19291657.458 1 103124958.326 1  19291658.681 1  80208302.777 1
R08  22088263.083 1 118281619.129 1  22088261.870 1  91996791.715 1
R13  21904481.487 2 116968709.150 4  21904482.345 2  90975691.803 3
G29  24241568.228 1 127390291.586 1  24241567.012 1  99265158.793 2
G31  21841236.244 1 114776459.936 1  21841232.539 1  89436181.544 1
G32  21066718.980 1 110706345.685 1  21066719.176 1  86264680.933 1
E01  25580455.670 1 134426192.444 1  25580457.171 1 103001887.075 1
E04  23747820.094 1 124795633.350 1  23747821.153 1  95622627.608 1
E24  26147998.124 1 137408660.988 1  26148000.154 1 105287172.815 1
C30  26391070.776 1 137425228.47214                
C28  26274528.401 1 136818365.353 1                
R12  20213620.073 1 107977530.512 1  20213620.514 1  83982525.308 1
E18  28508691.222 1 149814176.581 1  28508693.083 1 114792696.354 1
E31  23557818.899 1 123797176.569 1  23557821.987 1  94857585.070 1
G03  23761803.137 1 124869103.630 2  23761803.585 1  97300635.754 1
E19  26395856.465 1 138711150.987 3  26395858.733 1 106285157.953 2
E09  23986858.758 1 126051805.948 2  23986861.690 1  96585162.997 1
> 2022 02 25 13 50 15.0000000  0 30                     
G10  24110374.484 1 126700822.001 2  24110376.638 1  98727905.496 2
G16  21401605.911 1 112466194.936 1                                
G22  20840909.711 1 109519709.812 1                                
G27  24772570.962 1 130180743.148 2  24772573.584 1 101439592.860 3
G26  20026993.815 1 105242563.069 1  20026993.579 1  82007191.920 1
C20  21899711.151 1 114037539.459 1                
C32  24218882.889 1 126114061.656 1                
C37  24159169.292 1 125803126.977 1                
C36  25447937.940 1 132514102.593 1                
C19  23600100.881 1 122891930.214 1                
C27  25289563.098 1 131689404.998 2                
R02  20942940.306 1 111755558.083 1  20942940.388 1  86921000.166 1
R11  22498877.930 1 120227162.159 1  22498877.482 1  93510005.424 1
R01  19293675.260 1 103135745.274 1  19293676.596 1  80216692.637 1
R08  22098045.155 1 118334002.110 1  22098044.244 1  92037533.980 1
R13  21899801.431 2 116943717.748 4  21899802.386 2  90956254.070 2
G29  24242804.742 1 127396789.826 1  24242804.003 1  99270222.359 2
G31  21843713.767 1 114789478.891 1  21843710.141 1  89446326.171 1
G32  21068204.749 1 110714154.273 1  21068205.354 1  86270765.547 1
E01  25586587.888 1 134458417.767 1  25586589.643 1 103026579.178 1
E04  23746365.645 1 124787990.129 1  23746366.762 1  95616771.110 1
E24  26142267.641 1 137378545.705 1  26142269.522 1 105264097.476 1
C30  26385661.418 1 137397062.65013                
C28  26271886.329 1 136804610.304 1                
R12  20216518.000 1 107993008.162 1  20216517.388 1  83994563.485 1
E18  28499061.678 1 149763574.514 1  28499063.811 1 114753923.336 1
E31  23557913.548 1 123797674.042 1  23557916.730 1  94857966.243 1
G03  23755174.652 1 124834270.759 2  23755175.173 1  97273493.229 1
E19  26400826.762 1 138737270.953 3  26400829.091 1 106305171.936 2
E09  23979957.967 1 126015538.722 2  23979959.945 1  96557373.817 1
> 2022 02 25 13 50 30.0000000  0 29                     
G10  24120271.654 1 126752832.549 1  24120274.337 1  98768433.058 2
G16  21394038.714 1 112426428.221 1                                
G22  20838792.240 1 109508582.618 1                                
G27  24763061.428 1 130130771.814 2  24763064.235 1 101400654.163 2
G26  20026986.566 1 105242520.632 1  20026985.372 1  82007158.852 1
C20  21900064.465 1 114039379.208 1                
C32  24226709.489 1 126154816.740 1                
C37  24164272.007 1 125829696.724 1                
C36  25443442.851 1 132490693.959 1                
C19  23592886.416 1 122854361.686 1                
C27  25284109.097 1 131661000.479 2                
R02  20932960.372 1 111702299.817 1  20932960.208 1  86879577.105 1
R11  22507121.471 1 120271213.138 1  22507121.197 1  93544267.251 1
R01  19295728.075 1 103146717.921 1  19295729.170 1  80225226.880 1
R08  22107844.712 1 118386479.630 1  22107843.950 1  92078349.774 1
R13  21895141.310 2 116918830.856 3  21895142.170 1  90936897.633 2
G29  24244063.047 1 127403401.578 1  24244062.638 1  99275374.348 2
G31  21846190.416 1 114802495.277 1  21846186.855 1  89456468.783 1
G32  21069710.334 1 110722064.080 1  21069709.865 1  86276929.004 1
E01  25592724.159 1 134490662.414 1  25592725.907 1 103051286.092 1
E04  23744924.347 1 124780415.522 1  23744925.366 1  95610967.186 1
E24  26136549.149 1 137348493.549 1  26136550.721 1 105241070.500 1
C28  26269255.067 1 136790910.228 1                
R12  20219430.907 1 108008567.355 1  20219430.401 1  84006665.066 1
E18  28489418.492 1 149712899.380 1  28489420.687 1 114715094.343 1
E31  23558023.063 1 123798248.668 1  23558025.892 1  94858406.537 1
G03  23748566.013 1 124799541.936 2  23748566.757 1  97246431.874 1
E19  26405808.400 1 138763447.894 3  26405810.083 1 106325229.560 2
E09  23973058.625 1 125979282.693 2  23973060.738 1  96529593.240 1
> 2022 02 25 13 50 45.0000000  0 29                     
G10  24130167.753 1 126804836.607 2  24130170.318 1  98808955.629 2
G16  21386492.759 1 112386773.301 1                                
G22  20836689.114 1 109497532.012 1                                
G27  24753542.979 1 130080750.159 2  24753545.345 1 101361676.265 3
G26  20027001.937 1 105242606.843 1  20027001.888 1  82007226.031 1
C20  21900440.555 1 114041337.652 1                
C32  24234546.972 1 126195625.748 1                
C37  24169372.354 1 125856254.896 1                
C36  25438955.627 1 132467331.515 1                
C19  23585685.660 1 122816864.755 1                
C27  25278652.245 1 131632581.966 1                
R02  20922996.432 1 111649130.843 1  20922996.993 1  86838223.463 1
R11  22515360.453 1 120315238.983 1  22515359.718 1  93578509.562 1
R01  19297815.407 1 103157876.452 1  19297816.608 1  80233905.727 1
R08  22117662.240 1 118439051.801 1  22117661.441 1  92119239.195 1
R13  21890500.070 2 116894048.726 4  21890501.297 2  90917622.622 3
G29  24245342.980 1 127410127.223 2  24245342.456 1  99280615.087 2
G31  21848667.276 1 114815509.328 1  21848663.291 1  89466609.606 1
G32  21071234.904 1 110730075.466 1  21071234.059 1  86283171.618 1
E01  25598863.622 1 134522926.441 1  25598865.431 1 103076007.875 1
E04  23743496.436 1 124772909.922 1  23743497.004 1  95605216.132 1
E24  26130842.154 1 137318504.814 1  26130844.311 1 105218092.126 1
C28  26266634.720 1 136777265.617 1                
R12  20222358.890 1 108024207.993 1  20222358.477 1  84018829.994 1
E18  28479761.183 1 149662151.630 1  28479764.043 1 114676209.691 1
E31  23558147.362 1 123798900.582 1  23558150.006 1  94858906.051 1
G03  23741977.011 1 124764917.695 1  23741977.938 1  97219451.980 1
E19  26410799.862 1 138789682.169 3  26410802.388 1 106345331.105 2
E09  23966161.427 1 125943038.377 2  23966163.202 1  96501821.618 1
> 2022 02 25 13 51 00.0000000  0 29                     
G10  24140063.259 1 126856835.393 2  24140065.399 1  98849474.048 1
G16  21378968.209 1 112347231.871 1                                
G22  20834601.122 1 109486559.704 1                                
G27  24744015.115 1 130030679.947 3  24744017.531 1 101322660.557 3
G26  20027043.562 1 105242823.022 1  20027043.112 1  82007394.480 1
C20  21900839.671 1 114043416.231 1                
C32  24242394.703 1 126236489.881 1                
C37  24174470.335 1 125882802.818 1                
C36  25434478.278 1 132444016.660 2                
C19  23578498.353 1 122779441.110 1                
C27  25273192.523 1 131604151.146 1                
R02  20913049.386 1 111596052.622 1  20913050.842 1  86796940.457 1
R11  22523594.868 1 120359241.132 1  22523594.056 1  93612733.440 1
R01  19299937.963 1 103169222.433 1  19299939.021 1  80242730.390 1
R08  22127497.723 1 118491719.596 1  22127496.577 1  92160202.969 1
R13  21885879.633 2 116869372.677 3  21885880.126 2  90898430.116 3
G29  24246644.737 1 127416968.219 2  24246643.647 1  99285945.766 1
G31  21851143.722 1 114828522.448 1  21851139.776 1  89476749.696 1
G32  21072779.061 1 110738189.992 1  21072778.328 1  86289494.616 1
E01  25605007.049 1 134555211.130 1  25605008.918 1 103100745.458 1
E04  23742081.356 1 124765474.960 1  23742082.179 1  95599519.204 1
E24  26125147.911 1 137288581.042 1  26125150.064 1 105195163.539 1
C28  26264025.771 1 136763678.212 1                
R12  20225302.164 1 108039931.125 1  20225301.855 1  84031059.101 1
E18  28470090.022 1 149611332.866 1  28470093.654 1 114637270.635 1
E31  23558286.538 1 123799631.111 1  23558288.976 1  94859465.806 1
G03  23735409.065 1 124730399.772 2  23735408.463 1  97192554.921 2
E19  26415803.557 1 138815974.968 3  26415805.769 1 106365477.482 2
E09  23959266.553 1 125906807.373 2  23959268.794 1  96474060.220 1
> 2022 02 25 13 51 15.0000000  0 30                     
G10  24149958.189 1 126908832.467 1  24149960.128 1  98889991.169 1
G16  21371465.944 1 112307808.192 1                                
G22  20832529.036 1 109475669.968 1                                
G27  24734477.972 1 129980565.404 3  24734480.750 1 101283610.293 3
G26  20027109.954 1 105243173.039 1  20027109.518 1  82007667.224 1
C20  21901262.659 1 114045618.952 1                
C32  24250253.807 1 126277412.834 1                
C37  24179567.100 1 125909344.358 1                
C36  25430011.236 1 132420753.284 1                
C19  23571325.971 1 122742095.001 1                
C27  25267730.874 1 131575712.248 2                
R02  20903120.323 1 111543069.861 1  20903121.058 1  86755731.656 1
R11  22531825.190 1 120403223.184 1  22531824.740 1  93646941.649 1
R01  19302096.476 1 103180759.823 1  19302097.490 1  80251703.904 1
R08  22137351.880 1 118544486.734 1  22137350.029 1  92201244.065 1
R13  21881279.070 2 116844806.718 3  21881279.628 2  90879323.272 3
G29  24247969.648 1 127423928.719 1  24247967.686 1  99291369.481 2
G31  21853620.375 1 114841538.480 1  21853616.727 1  89486892.040 1
G32  21074343.433 1 110746411.810 1  21074343.314 1  86295901.216 1
E01  25611155.286 1 134587520.250 1  25611157.243 1 103125501.784 1
E04  23740680.982 1 124758114.770 1  23740681.677 1  95593879.581 1
E24  26119466.291 1 137258726.306 1  26119468.728 1 105172287.837 1
C30  26363886.986 1 137283677.61313                
C28  26261428.092 1 136750152.180 1                
R12  20228261.918 1 108055740.485 1  20228261.621 1  84043355.266 1
E18  28460407.122 1 149560447.286 1  28460410.124 1 114598280.399 1
E31  23558441.090 1 123800444.164 1  23558443.779 1  94860088.796 1
G03  23728861.556 1 124695992.365 2  23728861.385 1  97165743.968 1
E19  26420818.783 1 138842330.451 3  26420821.151 1 106385671.936 2
E09  23952375.498 1 125870593.961 2  23952378.241 1  96446312.289 1
> 2022 02 25 13 51 30.0000000  0 30                     
G10  24159851.445 1 126960823.229 1  24159853.768 1  98930503.342 1
G16  21363985.487 1 112268498.125 1                                
G22  20830471.945 1 109464858.608 1                                
G27  24724932.209 1 129930402.452 3  24724934.967 1 101244522.315 3
G26  20027201.129 1 105243652.367 1  20027200.670 1  82008040.724 1
C20  21901708.779 1 114047941.432 1                
C32  24258123.000 1 126318390.056 1                
C37  24184662.375 1 125935875.021 1                
C36  25425552.876 1 132397536.970 1                
C19  23564168.410 1 122704822.319 1                
C27  25262267.168 1 131547261.166 2                
R02  20893208.752 1 111490178.832 1  20893209.201 1  86714594.194 1
R11  22540051.513 1 120447180.545 1  22540051.027 1  93681130.696 1
R01  19304289.695 1 103192484.081 1  19304290.694 1  80260822.747 1
R08  22147223.549 1 118597348.536 1  22147221.661 1  92242358.731 1
R13  21876698.930 2 116820346.355 3  21876699.194 2  90860298.525 2
G29  24249316.213 1 127431004.215 1  24249314.235 1  99296882.866 2
G31  21856096.732 1 114854553.124 1  21856093.468 1  89497033.314 1
G32  21075927.680 1 110754736.628 1  21075927.174 1  86302388.068 1
E01  25617307.503 1 134619849.238 1  25617309.282 1 103150273.319 1
E04  23739293.945 1 124750825.144 1  23739294.453 1  95588294.011 1
E24  26113797.690 1 137228936.327 1  26113799.753 1 105149461.755 1
C30  26358410.768 1 137255160.132 4                
C28  26258841.787 1 136736683.393 1                
R12  20231236.776 1 108071631.248 1  20231235.895 1  84055714.727 1
E18  28450709.994 1 149509490.701 1  28450713.450 1 114559235.756 1
E31  23558610.408 1 123801335.218 1  23558613.296 1  94860771.549 1
G03  23722334.087 1 124661691.313 2  23722334.344 1  97139015.891 2
E19  26425845.309 1 138868744.142 3  26425847.357 1 106405910.938 2
E09  23945487.221 1 125834393.928 1  23945489.831 1  96418574.613 1
> 2022 02 25 13 51 45.0000000  0 30                     
G10  24169743.658 1 127012806.533 2  24169745.751 1  98971009.733 2
G16  21356526.992 1 112229301.190 1                                
G22  20828429.560 1 109454125.282 1                                
G27  24715376.452 1 129880190.750 2  24715380.142 1 101205396.295 2
G26  20027316.968 1 105244260.207 1  20027316.447 1  82008514.361 1
C20  21902177.857 1 114050383.023 1                
C32  24266002.301 1 126359420.617 1                
C37  24189755.278 1 125962394.009 1                
C36  25421103.258 1 132374366.974 1                
C19  23557025.412 1 122667622.697 1                
C27  25256800.563 1 131518797.591 2                
R02  20883313.474 1 111437379.485 1  20883314.822 1  86673528.045 1
R11  22548272.890 1 120491112.102 1  22548272.408 1  93715299.651 1
R01  19306517.465 1 103204394.578 1  19306518.723 1  80270086.461 1
R08  22157112.406 1 118650303.434 1  22157110.773 1  92283545.799 1
R13  21872138.468 2 116795990.667 3  21872138.179 2  90841355.236 3
G29  24250683.936 1 127438194.211 1  24250682.535 1  99302485.461 2
G31  21858573.189 1 114867565.535 1  21858569.199 1  89507172.846 1
G32  21077531.293 1 110763163.901 1  21077531.047 1  86308954.772 1
E01  25623463.201 1 134652197.182 1  25623464.755 1 103175059.398 1
E04  23737919.867 1 124743605.522 1  23737920.616 1  95582762.089 1
E24  26108141.295 1 137199210.476 1  26108142.984 1 105126684.803 1
C30  26352920.996 2 137226572.507 5                
C28  26256266.124 1 136723271.487 1                
R12  20234226.276 1 108087602.380 1  20234225.912 1  84068136.721 1
E18  28440999.892 1 149458462.628 1  28441003.250 1 114520136.318 1
E31  23558794.614 1 123802303.480 1  23558797.436 1  94861513.462 1
G03  23715827.082 1 124627496.185 2  23715826.590 1  97112370.312 2
E19  26430882.051 1 138895215.197 3  26430884.534 1 106426193.918 2
E09  23938601.700 1 125798206.813 2  23938603.281 1  96390846.851 1
> 2022 02 25 13 52 00.0000000  0 30                     
G10  24179634.363 1 127064784.116 2  24179636.361 1  99011511.645 2
G16  21349089.838 1 112190219.703 1                                
G22  20826402.131 1 109443472.169 1                                
G27  24705812.421 1 129829932.506 3  24705816.837 1 101166234.057 2
G26  20027457.476 1 105244998.371 1  20027457.090 1  82009089.545 1
C20  21902669.629 1 114052945.722 1                
C32  24273892.679 1 126400506.188 1                
C37  24194846.124 1 125988903.218 1                
C36  25416663.273 1 132351245.273 1                
C19  23549895.689 1 122630498.345 1                
C27  25251332.100 1 131490323.792 2                
R02  20873436.527 1 111384674.439 1  20873437.646 1  86632535.235 1
R11  22556489.564 1 120535019.685 1  22556488.813 1  93749449.955 1
R01  19308781.314 1 103216493.225 1  19308782.214 1  80279496.497 1
R08  22167019.055 1 118703353.321 1  22167017.620 1  92324806.785 1
R13  21867597.448 2 116771741.798 3  21867596.952 2  90822495.002 3
G29  24252074.288 1 127445500.728 2  24252073.397 1  99308178.800 2
G31  21861049.430 1 114880577.648 1  21861045.271 1  89517312.142 1
G32  21079154.934 1 110771695.734 1  21079154.721 1  86315602.937 1
E01  25629623.017 1 134684565.860 1  25629624.368 1 103199861.356 1
E04  23736560.072 1 124736458.081 1  23736560.673 1  95577285.464 1
E24  26102497.579 1 137169550.795 1  26102498.973 1 105103958.560 1
C30  26347418.019 1 137197916.807 5                
C28  26253702.149 1 136709918.605 1                
R12  20237231.290 1 108103655.277 1  20237231.549 1  84080622.299 1
E18  28431276.454 1 149407365.176 1  28431279.677 1 114480983.727 1
E31  23558994.145 1 123803350.806 1  23558996.852 1  94862315.951 1
G03  23709340.795 1 124593409.166 1  23709341.179 1  97085808.993 1
E19  26435930.864 1 138921745.630 3  26435933.729 1 106446522.407 2
E09  23931717.660 1 125762034.792 1  23931719.413 1  96363130.627 1
> 2022 02 25 13 52 15.0000000  0 30                     
G10  24189524.006 1 127116754.134 2  24189526.260 1  99052007.685 2
G16  21341674.381 1 112151252.369 1                                
G22  20824389.704 1 109432898.132 1                                
G27  24696239.856 1 129779626.525 2  24696244.104 1 101127034.626 2
G26  20027622.465 1 105245865.258 1  20027621.906 1  82009765.038 1
C20  21903184.878 1 114055628.007 1                
C32  24281792.495 1 126441645.147 1                
C37  24199934.848 1 126015401.018 1                
C36  25412231.667 1 132328170.264 1                
C19  23542780.568 1 122593448.086 1                
C27  25245862.155 1 131461838.505 2                
R02  20863577.303 1 111332062.899 1  20863577.850 1  86591615.179 1
R11  22564701.324 1 120578901.582 1  22564700.136 1  93783580.280 2
R01  19311079.186 1 103228778.405 1  19311080.200 1  80289051.636 1
R08  22176943.116 1 118756496.599 1  22176942.053 1  92366140.396 1
R13  21863075.925 2 116747598.025 3  21863075.162 2  90803716.538 3
G29  24253486.414 1 127452922.353 2  24253485.867 1  99313961.907 2
G31  21863525.122 1 114893587.921 1  21863521.066 1  89527450.017 1
G32  21080798.309 1 110780330.775 1  21080797.795 1  86322331.524 1
E01  25635785.781 1 134716953.634 1  25635787.439 1 103224677.957 1
E04  23735212.808 1 124729381.479 1  23735213.900 1  95571863.136 1
E24  26096865.309 1 137139955.916 1  26096867.360 1 105081281.962 1
C30  26341901.728 1 137169191.611 3                
C28  26251148.134 1 136696623.621 1                
R12  20240251.895 1 108119788.354 1  20240251.162 1  84093170.249 1
E18  28421539.727 1 149356197.109 1  28421542.667 1 114441777.028 1
E31  23559208.340 1 123804475.597 1  23559210.838 1  94863177.800 1
G03  23702874.373 1 124559428.989 1  23702874.937 1  97059330.962 2
E19  26440990.661 1 138948333.879 2  26440993.693 1 106466895.193 2
E09  23924837.879 1 125725876.623 2  23924838.633 1  96335425.017 1
> 2022 02 25 13 52 30.0000000  0 30                     
G10  24199412.202 1 127168715.427 2  24199414.582 1  99092496.931 2
G16  21334280.991 1 112112398.568 1                                
G22  20822392.756 1 109422402.637 1                                
G27  24686658.361 1 129729272.355 2  24686662.082 1 101087797.637 2
G26  20027811.830 1 105246859.948 1  20027811.209 1  82010540.128 1
C20  21903722.557 1 114058429.142 1                
C32  24289703.618 1 126482836.390 1                
C37  24205021.286 1 126041886.522 1                
C36  25407809.295 1 132305141.123 1                
C19  23535679.859 1 122556471.381 1                
C27  25240389.950 1 131433341.336 2                
R02  20853735.680 1 111279544.191 1  20853736.017 1  86550767.283 1
R11  22572908.331 1 120622756.591 1  22572907.359 1  93817689.715 1
R01  19313412.398 1 103241249.374 1  19313413.071 1  80298751.264 1
R08  22186884.589 1 118809731.825 1  22186883.546 1  92407545.494 1
R13  21858573.480 2 116723558.481 3  21858573.487 1  90785019.142 3
G29  24254921.026 1 127460458.466 2  24254919.741 1  99319834.186 2
G31  21866000.034 1 114906595.434 1  21865995.970 1  89537585.735 1
G32  21082461.006 1 110789068.342 1  21082460.130 1  86329139.997 1
E01  25641952.188 1 134749359.491 1  25641954.000 1 103249508.404 1
E04  23733880.114 1 124722375.078 1  23733880.782 1  95566494.585 1
E24  26091245.856 1 137110425.075 1  26091247.659 1 105058654.451 1
C30  26336372.101 1 137140396.370 3                
C28  26248605.514 1 136683385.924 2                
R12  20243286.860 1 108136000.212 1  20243286.124 1  84105779.469 1
E18  28411789.429 1 149304957.796 1  28411792.076 1 114402515.743 1
E31  23559436.871 1 123805676.944 1  23559439.525 1  94864098.313 1
G03  23696428.459 1 124525555.127 1  23696428.194 1  97032935.757 2
E19  26446060.851 1 138974979.029 3  26446063.919 1 106487311.542 2
E09  23917959.127 1 125689731.708 1  23917960.765 1  96307729.566 1
> 2022 02 25 13 52 45.0000000  0 30                     
G10  24209297.817 1 127220665.761 2  24209300.528 1  99132977.567 2
G16  21326908.558 1 112073656.677 1                                
G22  20820410.233 1 109411983.882 1                                
G27  24677067.227 1 129678868.283 2  24677070.221 1 101048521.744 2
G26  20028024.879 1 105247980.269 1  20028024.459 1  82011413.103 1
C20  21904283.157 1 114061347.132 1                
C32  24297623.822 1 126524077.697 1                
C37  24210104.933 1 126068357.641 1                
C36  25403395.769 1 132282155.815 1                
C19  23528592.013 1 122519566.526 1                
C27  25234914.793 1 131404830.480 2                
R02  20843911.162 1 111227116.819 1  20843911.806 1  86509990.428 1
R11  22581109.817 1 120666582.537 1  22581109.447 1  93851776.556 1
R01  19315779.612 1 103253904.005 1  19315780.421 1  80308593.754 1
R08  22196842.634 1 118863056.462 1  22196841.386 1  92449020.161 1
R13  21854089.928 2 116699621.019 4  21854090.810 2  90766401.094 2
G29  24256376.641 1 127468107.029 2  24256375.202 1  99325794.096 2
G31  21868474.701 1 114919598.185 1  21868470.699 1  89547717.748 1
G32  21084142.529 1 110797906.504 1  21084142.005 1  86336026.862 1
E01  25648121.720 1 134781781.228 1  25648123.564 1 103274350.998 1
E04  23732559.566 1 124715437.020 1  23732560.387 1  95561178.409 1
E24  26085638.374 1 137080956.407 1  26085640.116 1 105036074.554 1
C30  26330828.222 1 137111529.220 4                
C28  26246073.602 1 136670203.824 1                
R12  20246335.595 1 108152288.511 1  20246335.789 1  84118448.126 1
E18  28402024.789 1 149253645.411 1  28402027.507 1 114363198.462 1
E31  23559679.708 1 123806952.709 1  23559682.199 1  94865075.848 1
G03  23690002.087 1 124491785.782 2  23690001.333 1  97006621.967 2
E19  26451141.650 1 139001679.187 3  26451144.081 1 106507770.077 2
E09  23911083.142 1 125653598.265 1  23911084.792 1  96280042.906 1
> 2022 02 25 13 53 00.0000000  0 30                     
G10  24219182.108 1 127272605.672 2  24219184.315 1  99173450.159 2
G16  21319557.507 1 112035027.921 1                                
G22  20818442.452 1 109401643.221 1                                
G27  24667466.545 1 129628415.649 3  24667469.298 1 101009207.994 2
G26  20028261.735 1 105249227.086 1  20028261.671 1  82012384.659 1
C20  21904866.324 1 114064382.966 1                
C32  24305552.567 1 126565369.860 1                
C37  24215185.331 1 126094815.261 1                
C36  25398989.832 1 132259215.300 1                
C19  23521518.866 1 122482734.764 1                
C27  25229437.582 1 131376307.310 1                
R02  20834103.818 1 111174782.264 1  20834104.190 1  86469285.787 1
R11  22589305.657 1 120710380.237 2  22589305.666 1  93885841.382 2
R01  19318181.347 1 103266743.224 1  19318182.170 1  80318579.795 1
R08  22206817.751 1 118916471.201 1  22206815.774 1  92490564.911 1
R13  21849626.680 2 116675786.739 4  21849627.298 2  90747863.373 2
G29  24257853.539 1 127475869.060 2  24257852.387 1  99331842.425 2
G31  21870948.395 1 114932597.091 1  21870944.416 1  89557846.754 1
G32  21085843.298 1 110806846.456 1  21085843.557 1  86342993.054 1
E01  25654294.695 1 134814219.659 1  25654296.173 1 103299206.421 1
E04  23731252.531 1 124708568.492 1  23731253.366 1  95555915.506 1
E24  26080042.711 1 137051550.925 1  26080044.739 1 105013543.089 1
C30  26325270.569 1 137082591.330 4                
C28  26243553.855 1 136657078.526 1                
R12  20249399.672 1 108168653.912 1  20249399.552 1  84131176.774 1
E18  28392247.450 1 149202261.184 1  28392249.327 1 114323826.130 1
E31  23559936.878 1 123808303.797 1  23559939.308 1  94866111.099 1
G03  23683595.883 1 124458122.197 1  23683595.305 1  96980390.598 2
E19  26456233.995 1 139028435.297 3  26456235.436 1 106528271.483 3
E09  23904209.838 1 125617477.487 1  23904211.318 1  96252365.950 1
> 2022 02 25 13 53 15.0000000  0 31                     
G10  24229064.780 1 127324536.236 2  24229066.353 1  99213915.420 2
G16  21312228.330 1 111996513.779 1                                
G22  20816489.951 1 109391382.218 1                                
G27  24657857.025 1 129577915.950 2  24657859.138 1 100969857.590 2
G26  20028523.592 1 105250601.592 1  20028523.216 1  82013455.695 1
C20  21905472.196 1 114067537.934 1                
C32  24313492.673 1 126606713.897 1                
C37  24220264.193 1 126121260.541 1                
C36  25394592.886 1 132236320.762 1                
C19  23514460.330 1 122445977.684 1                
C27  25223958.109 1 131347773.389 1                
R02  20824313.521 1 111122543.185 1  20824314.179 1  86428655.402 1
R11  22597496.678 1 120754150.494 1  22597496.639 1  93919884.901 1
R01  19320618.062 1 103279768.396 1  19320619.011 1  80328710.469 1
R08  22216809.880 1 118969977.127 1  22216807.857 1  92532180.578 1
R13  21845182.195 2 116652056.717 3  21845183.679 2  90729406.681 3
G29  24259352.305 1 127483745.959 2  24259351.283 1  99337980.260 3
G31  21873421.078 1 114945593.401 1  21873417.596 1  89567973.744 1
G32  21087564.709 1 110815889.598 1  21087564.125 1  86350039.633 1
E01  25660470.808 1 134846675.872 1  25660472.589 1 103324075.445 1
E04  23729959.086 1 124701770.901 1  23729959.865 1  95550706.960 1
E24  26074459.080 1 137022210.030 1  26074461.455 1 104991061.130 1
C30  26319699.712 1 137053584.166 4                
C28  26241044.319 1 136644011.608 1                
R12  20252478.111 1 108185097.268 1  20252477.586 1  84143966.038 1
E18  28382455.506 1 149150806.577 1  28382457.903 1 114284399.876 1
E31  23560208.546 1 123809731.378 1  23560210.981 1  94867204.956 1
G03  23677210.743 1 124424565.880 2  23677209.639 1  96954242.809 1
E19  26461336.022 1 139055248.439 3  26461338.236 1 106548816.572 2
E09  23897338.801 1 125581370.919 1  23897340.361 1  96224699.877 1
E12                                  27238177.606 8               9
> 2022 02 25 13 53 30.0000000  0 30                     
G10  24238944.775 1 127376456.121 2  24238946.742 1  99254372.396 1
G16  21304921.123 1 111958113.509 1                                
G22  20814552.363 1 109381200.095 1                                
G27  24648238.149 1 129527368.538 2  24648240.180 1 100930470.005 2
G26  20028809.301 1 105252102.625 1  20028809.040 1  82014625.329 1
C20  21906100.597 1 114070811.053 1                
C32  24321441.989 1 126648108.627 1                
C37  24225340.186 1 126147692.385 1                
C36  25390205.518 1 132213471.163 1                
C19  23507415.184 1 122409294.595 1                
C27  25218475.884 1 131319227.977 1                
R02  20814541.245 1 111070398.087 1  20814542.315 1  86388098.097 1
R11  22605682.983 1 120797892.230 1  22605682.251 1  93953906.258 1
R01  19323089.356 1 103292978.420 1  19323090.058 1  80338984.931 1
R08  22226818.448 1 119023572.337 1  22226815.867 1  92573865.659 1
R13  21840757.678 2 116628429.924 3  21840759.236 2  90711030.318 2
G29  24260872.172 1 127491736.769 2  24260872.227 1  99344206.853 2
G31  21875893.837 1 114958586.093 1  21875889.941 1  89578097.913 1
G32  21089305.204 1 110825035.028 1  21089304.480 1  86357165.935 1
E01  25666650.309 1 134879148.697 1  25666652.040 1 103348957.203 1
E04  23728678.864 1 124695043.489 1  23728679.802 1  95545552.181 1
E24  26068887.665 1 136992932.840 1  26068890.038 1 104968627.967 1
C30  26314115.245 2 137024506.906 5                
C28  26238546.437 1 136631002.277 1                
R12  20255570.117 1 108201617.300 1  20255569.677 1  84156814.934 1
E18  28372650.334 1 149099280.796 1  28372652.939 1 114244919.082 1
E31  23560494.518 1 123811234.341 1  23560497.023 1  94868356.577 1
G03  23670845.366 1 124391116.135 2  23670845.561 1  96928178.077 2
E19  26466449.257 1 139082117.737 3  26466451.064 1 106569404.699 2
E09  23890469.849 1 125545277.777 2  23890471.841 1  96197044.094 1
> 2022 02 25 13 53 45.0000000  0 30                     
G10  24248822.144 1 127428362.987 2  24248824.615 1  99294819.242 2
G16  21297634.954 1 111919825.326 1                                
G22  20812629.353 1 109371095.246 1                                
G27  24638609.723 1 129476771.752 2  24638611.798 1 100891043.981 2
G26  20029118.440 1 105253728.107 1  20029118.372 1  82015891.941 1
C20  21906751.638 1 114074200.411 1                
C32  24329400.633 1 126689551.833 1                
C37  24230413.210 1 126174108.771 1                
C36  25385825.131 1 132190664.551 1                
C19  23500384.363 1 122372683.787 1                
C27  25212991.660 1 131290669.509 1                
R02  20804786.767 1 111018346.190 1  20804787.830 1  86347613.298 1
R11  22613862.478 1 120841603.224 2  22613862.177 1  93987903.640 1
R01  19325594.876 1 103306371.243 1  19325595.620 1  80349401.557 1
R08  22236843.926 1 119077255.047 2  22236841.645 1  92615618.813 1
R13  21836352.771 2 116604904.419 3  21836353.765 1  90692732.675 2
G29  24262414.192 1 127499839.675 1  24262414.424 1  99350520.802 2
G31  21878364.693 1 114971573.173 1  21878361.281 1  89588217.718 1
G32  21091064.638 1 110834280.938 1  21091063.830 1  86364370.520 1
E01  25672832.158 1 134911635.978 1  25672834.364 1 103373850.054 1
E04  23727411.389 1 124688384.402 1  23727412.397 1  95540449.761 1
E24  26063328.607 1 136963717.451 1  26063330.632 1 104946242.163 1
C30  26308518.179 2 136995357.728 5                
C28  26236059.409 1 136618048.854 1                
R12  20258677.113 1 108218211.616 1  20258676.366 1  84169721.646 1
E18  28362831.817 1 149047682.095 1  28362834.099 1 114205382.416 1
E31  23560794.103 1 123812810.618 1  23560796.840 1  94869564.379 1
G03  23664499.922 1 124357771.145 2  23664500.472 1  96902194.988 2
E19  26471571.689 1 139109041.173 3  26471574.541 1 106590034.305 2
E09  23883603.997 1 125509196.334 2  23883605.925 1  96169397.272 1
> 2022 02 25 13 54 00.0000000  0 30                     
G10  24258697.466 1 127480258.976 2  24258700.676 1  99335257.535 2
G16  21290371.187 1 111881651.953 1                                
G22  20810721.554 1 109361070.234 1                                
G27  24628972.391 1 129426128.401 3  24628974.851 1 100851581.639 2
G26  20029452.177 1 105255480.302 1  20029451.582 1  82017257.281 1
C20  21907425.058 1 114077708.415 1                
C32  24337369.614 1 126731045.655 1                
C37  24235483.729 1 126200511.983 1                
C36  25381454.367 1 132167903.249 1                
C19  23493368.664 1 122336147.955 1                
C27  25207505.820 1 131262100.636 1                
R02  20795050.085 1 110966390.216 1  20795051.317 1  86307203.100 1
R11  22622036.857 1 120885285.551 2  22622036.763 1  94021878.781 1
R01  19328134.842 1 103319949.358 1  19328135.476 1  80359962.292 1
R08  22246885.041 1 119131027.034 2  22246883.217 1  92657441.405 1
R13  21831966.867 2 116581482.431 3  21831967.395 1  90674515.584 2
G29  24263978.210 1 127508057.013 2  24263977.738 1  99356923.933 2
G31  21880835.328 1 114984556.902 1  21880831.950 1  89598334.908 1
G32  21092843.851 1 110843629.846 1  21092843.344 1  86371655.369 1
E01  25679017.628 1 134944139.937 1  25679019.763 1 103398755.658 1
E04  23726157.776 1 124681796.221 1  23726158.716 1  95535401.669 1
E24  26057781.157 1 136934566.357 1  26057783.216 1 104923905.608 1
C30  26302907.285 2 136966139.283 5                
C28  26233582.830 1 136605154.035 1                
R12  20261797.305 1 108234882.191 1  20261797.348 1  84182687.623 1
E18  28352999.649 1 148996013.081 1  28353001.977 1 114165791.865 1
E31  23561108.755 1 123814462.517 1  23561111.283 1  94870830.113 1
G03  23658174.671 1 124324533.641 2  23658175.350 1  96876295.630 2
E19  26476706.043 1 139136021.111 3  26476709.064 1 106610707.195 2
E09  23876741.530 1 125473129.225 1  23876742.919 1  96141761.439 1
> 2022 02 25 13 54 15.0000000  0 30                     
G10  24268570.965 1 127532143.095 2  24268573.391 1  99375686.662 2
G16  21283128.751 1 111843592.980 1                                
G22  20808828.938 1 109351124.715 1                                
G27  24619326.159 1 129375437.990 2  24619328.837 1 100812082.687 2
G26  20029809.448 1 105257358.379 1  20029808.912 1  82018720.726 1
C20  21908121.517 1 114081334.351 1                
C32  24345347.237 1 126772589.236 1                
C37  24240551.627 1 126226901.266 1                
C36  25377091.932 1 132145186.516 1                
C19  23486367.344 1 122299686.701 1                
C27  25202017.261 1 131233520.995 1                
R02  20785331.686 1 110914530.106 1  20785332.536 1  86266867.474 1
R11  22630205.928 1 120928938.391 2  22630206.087 1  94055830.946 1
R01  19330709.467 1 103333711.889 1  19330709.929 1  80370666.475 1
R08  22256943.401 1 119184886.990 2  22256941.471 1  92699332.420 1
R13  21827599.518 2 116558163.207 3  21827600.391 2  90656378.424 3
G29  24265563.984 1 127516388.341 1  24265562.784 1  99363415.848 2
G31  21883305.555 1 114997536.629 1  21883301.764 1  89608448.971 1
G32  21094642.076 1 110853081.223 1  21094641.862 1  86379020.063 1
E01  25685206.504 1 134976659.708 1  25685207.934 1 103423673.391 1
E04  23724917.954 1 124675278.476 1  23724918.534 1  95530407.550 1
E24  26052246.041 1 136905478.979 1  26052248.030 1 104901617.879 1
C30  26297281.880 2 136936851.024 6                
C28  26231116.885 1 136592317.335 1                
R12  20264932.445 1 108251628.145 1  20264931.883 1  84195712.242 1
E18  28343153.719 1 148944273.283 1  28343156.270 1 114126147.081 1
E31  23561437.244 1 123816189.211 1  23561439.932 1  94872153.167 1
G03  23651870.342 1 124291403.126 2  23651871.023 1  96850479.654 2
E19  26481850.625 1 139163056.683 3  26481854.004 1 106631422.724 2
E09  23869879.999 1 125437076.005 1  23869882.218 1  96114136.238 1
> 2022 02 25 13 54 30.0000000  0 30                     
G10  24278441.798 1 127584013.821 2  24278443.889 1  99416105.321 2
G16  21275908.253 1 111805647.537 1                                
G22  20806951.073 1 109341257.762 1                                
G27  24609671.092 1 129324699.662 3  24609673.490 1 100772546.377 2
G26  20030190.640 1 105259361.014 1  20030190.261 1  82020281.231 1
C20  21908840.540 1 114085077.039 1                
C32  24353334.561 1 126814181.114 1                
C37  24245616.342 1 126253275.282 1                
C36  25372737.736 1 132122513.145 1                
C19  23479378.589 1 122263299.128 1                
C27  25196525.828 1 131204929.741 1                
R02  20775631.092 1 110862765.079 1  20775631.658 1  86226605.778 1
R11  22638369.216 1 120972560.323 2  22638368.896 1  94089759.069 2
R01  19333318.029 1 103347657.670 1  19333318.851 1  80381513.197 1
R08  22267017.137 1 119238833.626 2  22267015.557 1  92741290.868 1
R13  21823251.625 2 116534945.237 3  21823252.464 1  90638320.012 2
G29  24267170.712 1 127524832.524 2  24267169.606 1  99369995.756 2
G31  21885774.586 1 115010511.035 1  21885770.773 1  89618558.888 1
G32  21096460.052 1 110862633.963 1  21096459.502 1  86386463.748 1
E01  25691397.178 1 135009193.896 1  25691399.080 1 103448602.180 1
E04  23723690.681 1 124668830.066 1  23723691.446 1  95525466.550 1
E24  26046723.034 1 136876454.162 1  26046724.487 1 104879378.101 1
C30  26291643.361 2 136907491.912 5                
C28  26228661.711 1 136579537.927 2                
R12  20268080.923 1 108268447.743 1  20268080.369 1  84208794.158 1
E18  28333294.629 1 148892461.670 1  28333296.902 1 114086447.282 1
E31  23561779.789 1 123817989.413 1  23561782.491 1  94873532.544 1
G03  23645586.240 1 124258378.629 2  23645585.882 1  96824746.291 2
E19  26487006.526 1 139190146.831 3  26487008.791 1 106652180.057 2
E09  23863022.171 1 125401035.652 1  23863023.893 1  96086520.904 1
> 2022 02 25 13 54 45.0000000  0 31                     
G10  24288309.729 1 127635870.701 2  24288311.841 1  99456513.194 2
G16  21268708.390 1 111767815.483 1                                
G22  20805088.728 1 109331469.483 1                                
G27  24600006.355 1 129273913.610 2  24600009.215 1 100732972.855 2
G26  20030595.317 1 105261487.893 1  20030594.935 1  82021938.540 1
C20  21909581.650 1 114088936.347 1                
C32  24361331.065 1 126855820.884 1                
C37  24250678.312 1 126279633.793 1                
C36  25368391.921 1 132099882.893 1                
C19  23472405.480 1 122226985.305 1                
C27  25191032.639 1 131176326.948 1                
R02  20765948.233 1 110811096.068 1  20765949.040 1  86186418.758 1
R11  22646526.763 1 121016150.949 2  22646526.070 1  94123662.854 2
R01  19335961.500 1 103361786.419 1  19335961.952 1  80392502.198 1
R08  22277107.274 1 119292866.416 1  22277105.601 1  92783316.305 1
R13  21818922.457 2 116511828.659 3  21818923.217 2  90620340.424 3
G29  24268799.055 1 127533389.454 2  24268798.150 1  99376663.485 2
G31  21888242.438 1 115023480.030 1  21888238.555 1  89628664.619 1
G32  21098297.274 1 110872287.998 1  21098296.740 1  86393986.366 1
E01  25697590.921 1 135041742.167 1  25697592.950 1 103473541.741 1
E04  23722476.332 1 124662451.020 1  23722477.471 1  95520578.710 1
E24  26041211.676 1 136847491.815 1  26041213.001 1 104857186.180 1
C30  26285992.992 2 136878061.931 4                
C28  26226219.057 1 136566815.771 1                
R12  20271243.253 1 108285340.453 1  20271243.343 1  84221932.928 1
E18  28323420.977 1 148840578.286 1  28323423.815 1 114046692.487 1
E31  23562136.384 1 123819862.826 1  23562138.977 1  94874968.016 1
G03  23639321.577 1 124225460.213 1  23639321.710 1  96799095.581 2
E19  26492172.515 1 139217291.282 3  26492173.959 1 106672979.010 2
E09  23856167.131 1 125365008.270 1  23856168.345 1  96058915.510 1
R21                                  24763034.184 9               9
> 2022 02 25 13 55 00.0000000  0 30                     
G10  24298175.638 1 127687717.285 1  24298178.067 1  99496913.011 2
G16  21261531.945 1 111730101.089 1                                
G22  20803241.906 1 109321763.991 1                                
G27  24590333.980 1 129223083.983 2  24590336.836 1 100693365.393 2
G26  20031024.277 1 105263742.797 1  20031023.787 1  82023695.602 1
C20  21910345.942 1 114092916.140 1                
C32  24369337.338 1 126897512.213 1                
C37  24255738.393 1 126305980.586 1                
C36  25364055.080 1 132077299.556 1                
C19  23465446.423 1 122190749.416 1                
C27  25185539.150 1 131147716.825 1                
R02  20756283.623 1 110759526.835 1  20756284.736 1  86146309.381 1
R11  22654678.825 1 121059713.798 2  22654677.980 1  94157545.033 2
R01  19338639.616 1 103376102.144 1  19338640.030 1  80403636.628 1
R08  22287214.214 1 119346988.757 2  22287212.961 1  92825411.366 1
R13  21814613.780 2 116488817.090 3  21814613.978 2  90602442.548 3
G29  24270449.877 1 127542062.935 2  24270449.128 1  99383422.047 2
G31  21890710.091 1 115036447.453 1  21890706.445 1  89638769.079 1
G32  21100154.248 1 110882047.388 1  21100154.113 1  86401591.069 1
E01  25703787.880 1 135074308.224 1  25703789.944 1 103498494.937 1
E04  23721276.519 1 124656145.401 1  23721277.612 1  95515747.126 1
E24  26035712.736 1 136818595.955 1  26035714.346 1 104835045.198 1
C30  26280329.153 1 136848565.092 3                
C28  26223788.629 1 136554155.076 1                
R12  20274420.114 1 108302309.872 1  20274419.501 1  84235131.357 1
E18  28313535.406 1 148788627.262 1  28313537.906 1 114006885.851 1
E31  23562507.591 1 123821813.245 1  23562510.087 1  94876462.492 1
G03  23633078.926 1 124192652.029 1  23633079.334 1  96773530.804 1
E19  26497348.984 1 139244493.894 3  26497350.265 1 106693822.524 2
E09  23849313.852 1 125328997.977 2  23849315.836 1  96031323.210 1
> 2022 02 25 13 55 15.0000000  0 30                     
G10  24308039.650 1 127739551.766 1  24308041.813 1  99537303.462 2
G16  21254377.107 1 111692503.058 1                                
G22  20801410.511 1 109312140.106 1                                
G27  24580653.076 1 129172209.691 2  24580655.809 1 100653723.149 1
G26  20031477.364 1 105266124.050 1  20031476.899 1  82025551.135 1
C20  21911133.079 1 114097014.892 1                
C32  24377353.155 1 126939253.363 1                
C37  24260795.444 1 126332314.056 1                
C36  25359726.771 1 132054761.588 1                
C19  23458502.525 1 122154590.233 1                
C27  25180043.298 1 131119098.190 1                
R02  20746638.567 1 110708056.560 1  20746638.864 1  86106276.925 1
R11  22662825.406 1 121103247.103 2  22662824.737 1  94191404.273 2
R01  19341352.282 1 103390603.114 1  19341352.926 1  80414915.153 1
R08  22297337.081 1 119401198.703 2  22297336.121 1  92867574.620 1
R13  21810324.041 2 116465909.047 3  21810323.951 2  90584625.190 3
G29  24272122.466 1 127550851.651 2  24272121.292 1  99390270.366 2
G31  21893177.235 1 115049411.691 1  21893173.243 1  89648871.075 1
G32  21102031.239 1 110891910.724 1  21102030.715 1  86409276.771 1
E01  25709988.349 1 135106890.402 1  25709989.833 1 103523460.485 1
E04  23720090.651 1 124649911.853 1  23720091.286 1  95510970.759 1
E24  26030226.334 1 136789765.147 1  26030228.143 1 104812954.061 1
C30  26274651.376 1 136819000.088 5                
C28  26221368.753 1 136541554.570 1                
R12  20277610.763 1 108319354.152 1  20277610.202 1  84248388.033 1
E18  28303636.557 1 148736607.269 1  28303638.717 1 113967026.378 1
E31  23562892.832 1 123823839.055 1  23562895.614 1  94878014.738 1
G03  23626856.596 1 124159952.798 1  23626856.688 1  96748050.874 2
E19  26502535.976 1 139271753.127 3  26502537.961 1 106714709.430 2
E09  23842463.502 1 125293003.481 1  23842466.026 1  96003743.015 1
> 2022 02 25 13 55 30.0000000  0 30                     
G10  24317900.613 1 127791371.042 1  24317902.556 1  99577682.014 3
G16  21247244.092 1 111655018.859 1                                
G22  20799594.383 1 109302595.380 1                                
G27  24570963.109 1 129121288.160 2  24570965.850 1 100614044.036 2
G26  20031953.777 1 105268628.751 1  20031953.609 1  82027502.853 1
C20  21911942.428 1 114101229.886 1                
C32  24385378.402 1 126981041.333 1                
C37  24265849.044 1 126358631.335 1                
C36  25355406.828 1 132032266.222 1                
C19  23451572.934 1 122118505.280 1                
C27  25174545.208 1 131090468.594 1                
R02  20737011.548 1 110656683.542 1  20737012.528 1  86066320.144 1
R11  22670966.782 1 121146748.074 2  22670965.834 1  94225238.347 2
R01  19344099.166 1 103405286.527 1  19344099.883 1  80426335.580 1
R08  22307476.492 1 119455493.174 2  22307475.145 1  92909803.582 1
R13  21806052.413 2 116443101.662 4  21806052.680 1  90566886.130 2
G29  24273816.003 1 127559753.002 2  24273815.195 1  99397206.488 3
G31  21895642.977 1 115062369.887 1  21895639.108 1  89658968.390 1
G32  21103927.144 1 110901875.361 1  21103926.984 1  86417041.426 1
E01  25716190.643 1 135139485.706 1  25716192.601 1 103548436.108 1
E04  23718917.637 1 124643747.777 1  23718918.355 1  95506247.633 1
E24  26024751.558 1 136760996.684 1  26024753.719 1 104790910.705 1
C30  26268958.968 2 136789364.475 7                
C28  26218960.553 1 136529011.749 1                
R12  20280815.064 1 108336470.047 1  20280815.091 1  84261700.379 1
E18  28293723.827 1 148684515.739 1  28293726.039 1 113927112.093 1
E31  23563291.886 1 123825937.349 1  23563294.950 1  94879622.530 1
G03  23620654.550 1 124127359.958 2  23620653.888 1  96722653.863 2
E19  26507733.220 1 139299065.994 3  26507735.540 1 106735637.429 2
E09  23835617.776 1 125257022.260 1  23835619.150 1  95976172.990 1
> 2022 02 25 13 55 45.0000000  0 30                     
G10  24327758.800 1 127843174.929 2  24327760.298 1  99618048.583 2
G16  21240133.114 1 111617648.981 1                                
G22  20797792.893 1 109293130.100 1                                
G27  24561264.352 1 129070319.907 2  24561266.764 1 100574328.540 2
G26  20032454.191 1 105271256.894 1  20032453.868 1  82029550.743 1
C20  21912774.329 1 114105561.242 1                
C32  24393412.453 1 127022876.034 1                
C37  24270899.905 1 126384932.478 1                
C36  25351095.347 1 132009813.516 1                
C19  23444657.071 1 122082494.953 1                
C27  25169045.182 1 131061828.460 1                
R02  20727402.159 1 110605407.967 1  20727403.074 1  86026439.159 1
R11  22679101.566 1 121190216.366 2  22679100.482 1  94259046.954 2
R01  19346880.171 1 103420152.230 1  19346880.911 1  80437897.762 1
R08  22317631.614 1 119509871.620 1  22317630.394 1  92952097.872 1
R13  21801799.942 2 116420394.988 3  21801800.487 1  90549225.363 2
G29  24275531.188 1 127568766.828 1  24275530.100 1  99404230.225 3
G31  21898108.054 1 115075322.233 1  21898103.741 1  89669061.106 1
G32  21105842.902 1 110911941.537 1  21105842.542 1  86424885.172 1
E01  25722395.656 1 135172094.107 1  25722397.897 1 103573421.727 1
E04  23717757.871 1 124637653.453 1  23717758.577 1  95501577.951 1
E24  26019289.152 1 136732290.754 1  26019291.203 1 104768915.264 1
C30  26263252.719 2 136759658.377 6                
C28  26216562.564 1 136516526.987 1                
R12  20284032.815 1 108353657.428 1  20284032.605 1  84275068.329 1
E18  28283796.946 1 148632352.997 1  28283799.980 1 113887143.252 1
E31  23563705.132 1 123828108.158 1  23563707.952 1  94881285.873 1
G03  23614472.340 1 124094873.865 2  23614472.327 1  96697340.011 1
E19  26512940.750 1 139326432.668 3  26512943.365 1 106756606.661 2
E09  23828773.021 1 125221054.659 1  23828774.901 1  95948613.389 1
> 2022 02 25 13 56 00.0000000  0 30                     
G10  24337614.087 1 127894965.145 1  24337616.284 1  99658404.527 2
G16  21233043.717 1 111580395.620 1                                
G22  20796007.394 1 109283746.635 1                                
G27  24551556.987 1 129019307.351 2  24551558.898 1 100534578.533 2
G26  20032978.082 1 105274010.355 1  20032977.717 1  82031696.313 1
C20  21913628.816 1 114110010.988 1                
C32  24401455.958 1 127064759.251 1                
C37  24275948.218 1 126411219.439 1                
C36  25346791.560 1 131987405.481 1                
C19  23437756.589 1 122046561.599 1                
C27  25163543.394 1 131033180.127 1                
R02  20717812.414 1 110554232.855 1  20717812.721 1  85986636.301 1
R11  22687229.682 1 121233654.016 2  22687229.450 1  94292831.725 2
R01  19349695.711 1 103435202.544 1  19349696.202 1  80449603.563 1
R08  22327801.937 1 119564336.007 1  22327800.997 1  92994458.960 1
R13  21797566.994 2 116397790.935 4  21797567.665 2  90531644.504 3
G29  24277268.828 1 127577895.315 2  24277267.185 1  99411343.343 2
G31  21900572.011 1 115088270.574 1  21900567.931 1  89679150.717 1
G32  21107778.327 1 110922111.467 1  21107777.689 1  86432809.781 1
E01  25728604.213 1 135204717.482 1  25728606.117 1 103598418.839 1
E04  23716611.794 1 124631631.115 1  23716612.309 1  95496963.424 1
E24  26013838.410 1 136703649.548 1  26013841.114 1 104746969.398 1
C30  26257536.872 2 136729884.112 6                
C28  26214176.072 1 136504102.629 1                
R12  20287263.948 1 108370917.852 1  20287263.462 1  84288493.094 1
E18  28273857.986 1 148580121.366 1  28273860.456 1 113847121.608 1
E31  23564132.390 1 123830353.429 1  23564135.195 1  94883006.279 1
G03  23608310.514 1 124062496.761 2  23608310.839 1  96672111.135 2
E19  26518159.882 1 139353855.377 3  26518162.058 1 106777618.829 2
E09  23821931.336 1 125185102.943 1  23821933.312 1  95921065.987 1
> 2022 02 25 13 56 15.0000000  0 30                     
G10  24347466.199 1 127946739.360 2  24347469.008 1  99698747.982 2
G16  21225976.674 1 111543256.795 1                                
G22  20794236.973 1 109274443.118 1                                
G27  24541840.818 1 128968248.597 2  24541842.615 1 100494792.509 2
G26  20033525.510 1 105276886.932 1  20033525.015 1  82033937.795 1
C20  21914505.570 1 114114577.052 1                
C32  24409507.722 1 127106688.692 1                
C37  24280992.917 1 126437490.026 1                
C36  25342496.277 1 131965039.968 1                
C19  23430870.076 1 122010703.405 1                
C27  25158040.130 1 131004521.835 1                
R02  20708241.299 1 110503156.002 1  20708241.231 1  85946909.881 1
R11  22695352.246 1 121277058.424 2  22695351.998 1  94326590.723 2
R01  19352544.961 1 103450435.079 1  19352545.623 1  80461451.063 1
R08  22337988.693 1 119618883.989 2  22337987.385 1  93036885.124 1
R13  21793352.926 2 116375287.219 4  21793353.678 1  90514141.552 2
G29  24279027.229 1 127587136.580 2  24279025.484 1  99418544.330 3
G31  21903034.854 1 115101213.031 1  21903030.795 1  89689235.740 1
G32  21109733.113 1 110932383.120 1  21109732.599 1  86440813.643 1
E01  25734814.788 1 135237353.520 1  25734816.419 1 103623425.665 1
E04  23715479.170 1 124625678.810 1  23715479.708 1  95492402.559 1
E24  26008401.101 1 136675071.011 1  26008402.911 1 104725071.580 1
C30  26251805.619 2 136700039.761 7                
C28  26211801.508 1 136491736.787 1                
R12  20290508.410 1 108388248.908 1  20290507.876 1  84301972.800 1
E18  28263905.564 1 148527818.903 1  28263907.477 1 113807045.699 1
E31  23564573.831 1 123832670.936 1  23564576.302 1  94884782.027 1
G03  23602169.938 1 124030226.868 3  23602170.266 1  96646965.749 2
E19  26523388.107 1 139381331.808 3  26523390.701 1 106798672.139 2
E09  23815093.096 1 125149165.282 1  23815094.438 1  95893529.340 1
> 2022 02 25 13 56 30.0000000  0 31                     
G10  24357316.460 1 127998501.125 2  24357319.200 1  99739081.721 2
G16  21218931.713 1 111506236.722 1                                
G22  20792482.669 1 109265223.739 1                                
G27  24532116.798 1 128917147.912 2  24532118.305 1 100454973.817 2
G26  20034097.243 1 105279890.335 1  20034096.315 1  82036278.112 1
C20  21915405.556 1 114119263.265 1                
C32  24417569.387 1 127148667.957 1                
C37  24286035.185 1 126463748.003 1                
C36  25338210.744 1 131942720.716 1                
C19  23423999.298 1 121974924.472 1                
C27  25152535.430 1 130975857.728 1                
R02  20698688.506 1 110452182.599 1  20698688.453 1  85907263.886 1
R11  22703470.294 1 121320433.494 2  22703469.229 1  94360326.878 2
R01  19355429.499 1 103465853.757 1  19355430.003 1  80473443.376 1
R08  22348191.300 1 119673518.977 2  22348190.321 1  93079378.937 1
R13  21789157.750 2 116352887.791 4  21789159.147 1  90496719.778 2
G29  24280807.693 1 127596494.515 2  24280806.491 1  99425836.225 2
G31  21905497.489 1 115114153.417 1  21905493.436 1  89699319.156 1
G32  21111707.878 1 110942760.484 1  21111707.766 1  86448899.889 1
E01  25741027.886 1 135270005.928 1  25741029.965 1 103648445.030 1
E04  23714360.594 1 124619800.575 1  23714361.089 1  95487898.449 1
E24  26002975.478 1 136646559.105 1  26002977.238 1 104703224.802 1
C30  26246061.783 2 136670129.24614                
C28  26209438.075 1 136479433.622 1                
R12  20293766.840 1 108405654.129 1  20293766.932 1  84315510.196 1
E18  28253939.392 1 148475449.697 1  28253941.869 1 113766918.653 1
E31  23565029.245 1 123835064.440 1  23565031.689 1  94886616.009 1
G03  23596050.256 1 123998068.200 2  23596050.687 1  96621907.088 2
E19  26528627.487 1 139408865.726 3  26528630.299 1 106819769.547 2
E09  23808257.135 1 125113245.747 1  23808259.088 1  95866006.578 1
E12                                  27231891.135 8               9
> 2022 02 25 13 56 45.0000000  0 30                     
G10  24367163.733 1 128050248.474 2  24367166.443 1  99779404.234 2
G16  21211909.592 1 111469334.098 1                                
G22  20790744.049 1 109256087.234 1                                
G27  24522384.033 1 128866003.985 2  24522385.590 1 100415121.481 2
G26  20034692.344 1 105283018.828 1  20034691.967 1  82038715.907 1
C20  21916328.254 1 114124068.058 1                
C32  24425639.925 1 127190695.253 1                
C37  24291075.550 1 126489991.708 1                
C36  25333932.730 1 131920446.197 1                
C19  23417143.612 1 121939223.515 1                
C27  25147029.456 1 130947186.538 1                
R02  20689154.823 1 110401311.349 1  20689155.260 1  85867697.380 1
R11  22711581.246 1 121363777.393 2  22711580.724 1  94394038.752 2
R01  19358348.506 1 103481456.949 1  19358349.132 1  80485579.178 1
R08  22358409.577 1 119728238.822 1  22358409.317 1  93121938.762 1
R13  21784982.539 2 116330591.027 3  21784983.659 1  90479377.937 2
G29  24282610.237 1 127605967.607 2  24282609.759 1  99433217.839 2
G31  21907959.050 1 115127089.895 1  21907955.647 1  89709399.526 1
G32  21113702.194 1 110953242.155 1  21113701.996 1  86457067.408 1
E01  25747244.434 1 135302672.959 1  25747246.558 1 103673475.591 1
E04  23713255.797 1 124613995.010 1  23713256.312 1  95483450.016 1
E24  25997562.151 1 136618112.336 1  25997564.004 1 104681427.942 1
C30  26240305.388 2 136640151.409 6                
C28  26207088.641 1 136467191.747 2                
R12  20297038.219 1 108423131.633 1  20297038.152 1  84329103.797 1
E18  28243960.240 1 148423012.372 1  28243963.357 1 113726739.407 1
E31  23565498.819 1 123837532.257 1  23565501.370 1  94888506.933 1
G03  23589951.435 1 123966019.472 2  23589951.159 1  96596934.039 2
E19  26533877.516 1 139436455.561 3  26533880.248 1 106840909.737 2
E09  23801425.714 1 125077343.016 1  23801427.354 1  95838496.696 1
> 2022 02 25 13 57 00.0000000  0 30                     
G10  24377007.826 1 128101979.816 2  24377010.563 1  99819714.234 2
G16  21204909.059 1 111432547.719 1                                
G22  20789020.975 1 109247032.420 1                                
G27  24512643.264 1 128814815.858 2  24512645.069 1 100375234.665 2
G26  20035311.297 1 105286270.897 1  20035310.991 1  82041249.990 1
C20  21917273.626 1 114128990.064 1                
C32  24433719.838 1 127232768.976 1                
C37  24296112.321 1 126516219.662 1                
C36  25329663.691 1 131898214.931 1                
C19  23410302.656 1 121903599.449 1                
C27  25141521.956 1 130918507.242 1                
R02  20679640.791 1 110350541.470 1  20679641.047 1  85828209.691 1
R11  22719685.902 1 121407088.364 2  22719685.686 1  94427725.070 2
R01  19361301.615 1 103497243.262 1  19361302.336 1  80497857.404 1
R08  22368643.963 1 119783041.659 1  22368643.466 1  93164563.096 1
R13  21780826.343 2 116308395.331 3  21780827.018 1  90462114.601 3
G29  24284434.550 1 127615554.458 2  24284434.637 1  99440688.099 2
G31  21910419.688 1 115140021.109 1  21910416.131 1  89719475.780 1
G32  21115716.174 1 110963826.797 1  21115715.873 1  86465315.178 1
E01  25753463.214 1 135335353.047 1  25753465.375 1 103698516.153 1
E04  23712165.081 1 124608260.873 1  23712165.159 1  95479056.326 1
E24  25992160.572 1 136589729.393 1  25992162.786 1 104659679.982 1
C30  26234532.888 1 136610104.842 4                
C28  26204748.802 1 136455010.109 2                
R12  20300323.335 1 108440679.457 1  20300323.496 1  84342752.104 1
E18  28233968.069 1 148370505.759 1  28233971.665 1 113686507.076 1
E31  23565982.313 1 123840072.873 1  23565984.895 1  94890453.637 1
G03  23583873.974 1 123934079.474 2  23583873.245 1  96572045.675 2
E19  26539138.345 1 139464099.995 3  26539140.752 1 106862091.794 2
E09  23794596.418 1 125041455.924 2  23794598.180 1  95810998.797 1
> 2022 02 25 13 57 15.0000000  0 30                     
G10  24386848.815 1 128153694.996 2  24386851.253 1  99860011.704 2
G16  21197930.965 1 111395878.131 1                                
G22  20787313.684 1 109238059.826 1                                
G27  24502894.744 1 128763583.985 2  24502896.390 1 100335313.746 2
G26  20035953.504 1 105289646.668 1  20035953.290 1  82043880.459 1
C20  21918241.365 1 114134029.540 1                
C32  24441809.268 1 127274889.145 1                
C37  24301145.912 1 126542432.087 1                
C36  25325402.789 1 131876027.158 1                
C19  23403476.294 1 121868052.834 1                
C27  25136012.940 1 130889820.431 1                
R02  20670145.483 1 110299873.633 1  20670145.903 1  85788801.375 1
R11  22727784.936 2 121450366.475 2  22727784.343 1  94461385.785 2
R01  19364288.878 1 103513212.781 1  19364289.979 1  80510278.133 1
R08  22378893.957 1 119837927.251 1  22378892.754 1  93207251.831 1
R13  21776688.152 2 116286300.930 4  21776689.204 2  90444930.058 3
G29  24286281.015 1 127625255.460 2  24286280.090 1  99448247.325 2
G31  21912879.722 1 115152947.380 1  21912875.855 1  89729548.195 1
G32  21117750.304 1 110974514.830 1  21117750.124 1  86473643.510 1
E01  25759684.642 1 135368046.300 1  25759686.597 1 103723566.807 1
E04  23711087.569 1 124602598.625 1  23711087.769 1  95474717.706 1
E24  25986771.972 1 136561410.652 1  25986773.588 1 104637981.212 1
C30  26228751.350 1 136579990.134 3                
C28  26202421.051 1 136442889.132 2                
R12  20303621.587 1 108458297.806 1  20303621.665 1  84356455.262 1
E18  28223964.131 1 148317930.362 1  28223966.885 1 113646222.042 1
E31  23566479.795 1 123842686.459 1  23566482.342 1  94892456.250 1
G03  23577816.981 1 123902248.770 2  23577817.025 1  96547242.547 2
E19  26544409.300 1 139491799.272 3  26544411.807 1 106883315.870 2
E09  23787769.738 1 125005584.966 1  23787772.276 1  95783513.280 1
> 2022 02 25 13 57 30.0000000  0 30                     
G10  24396687.738 1 128205397.568 2  24396689.735 1  99900299.383 3
G16  21190976.177 1 111359329.249 1                                
G22  20785622.636 1 109229173.614 1                                
G27  24493137.866 1 128712312.483 2  24493140.286 1 100295361.999 2
G26  20036620.258 1 105293149.754 1  20036619.728 1  82046610.139 1
C20  21919232.251 1 114139190.220 1                
C32  24449907.271 1 127317059.275 1                
C37  24306177.164 1 126568632.624 1                
C36  25321150.709 1 131853886.540 1                
C19  23396665.728 1 121832587.677 1                
C27  25130502.925 1 130861130.104 1                
R02  20660669.833 1 110249312.530 1  20660671.142 1  85749476.087 1
R11  22735878.871 1 121493615.375 2  22735877.462 1  94495023.709 2
R01  19367311.275 1 103529369.127 1  19367312.321 1  80522844.184 1
R08  22389159.878 1 119892899.612 2  22389159.109 1  93250008.056 1
R13  21772570.667 2 116264311.588 3  21772571.031 2  90427827.240 3
G29  24288148.930 1 127635074.378 2  24288148.128 1  99455898.435 3
G31  21915339.136 1 115165872.416 1  21915335.499 1  89739619.642 1
G32  21119804.646 1 110985310.144 1  21119804.196 1  86482055.429 1
E01  25765909.019 1 135400756.268 1  25765911.223 1 103748630.289 1
E04  23710024.261 1 124597012.169 1  23710024.760 1  95470437.167 1
E24  25981396.033 1 136533159.921 1  25981397.710 1 104616334.554 1
C30  26222956.303 1 136549811.114 3                
C28  26200105.450 1 136430832.926 2                
R12  20306933.582 1 108475989.900 1  20306933.692 1  84370215.774 1
E18  28213947.259 1 148265290.185 2  28213949.676 1 113605887.335 1
E31  23566991.462 1 123845376.647 1  23566994.095 1  94894517.563 1
G03  23571781.041 1 123870531.282 2  23571781.484 1  96522527.631 2
E19  26549691.575 1 139519556.919 3  26549693.840 1 106904584.670 2
E09  23780947.583 1 124969734.171 1  23780950.188 1  95756043.197 1
> 2022 02 25 13 57 45.0000000  0 30                     
G10  24406524.140 1 128257086.219 2  24406525.842 1  99940576.156 3
G16  21184043.712 1 111322900.341 1                                
G22  20783947.795 1 109220372.957 1                                
G27  24483373.723 1 128661000.771 2  24483376.050 1 100255378.913 2
G26  20037310.648 1 105296778.987 1  20037310.014 1  82049438.107 1
C20  21920246.331 1 114144471.105 1                
C32  24458015.069 1 127359278.125 1                
C37  24311206.409 1 126594820.123 1                
C36  25316907.811 1 131831792.018 1                
C19  23389870.193 1 121797203.265 1                
C27  25124992.068 1 130832435.598 1                
R02  20651214.840 1 110198857.490 1  20651215.957 1  85710233.289 1
R11  22743966.230 1 121536833.766 2  22743965.237 1  94528638.035 2
R01  19370368.706 1 103545711.303 1  19370369.268 1  80535554.728 1
R08  22399441.354 1 119947956.596 1  22399441.158 1  93292830.094 1
R13  21768472.996 2 116242426.168 3  21768472.421 2  90410805.248 2
G29  24290039.993 1 127645010.293 2  24290039.230 1  99463640.734 2
G31  21917798.494 1 115178795.204 1  21917794.666 1  89749689.332 1
G32  21121879.335 1 110996211.813 1  21121878.391 1  86490550.209 1
E01  25772136.193 1 135433481.822 1  25772138.584 1 103773705.681 1
E04  23708975.255 1 124591500.673 1  23708975.915 1  95466214.073 1
E24  25976032.358 1 136504976.276 1  25976034.587 1 104594739.312 1
C30  26217147.968 1 136519567.033 3                
C28  26197803.040 1 136418840.666 2                
R12  20310259.507 1 108493754.460 1  20310258.923 1  84384032.637 1
E18  28203917.550 1 148212584.349 1  28203920.261 1 113565502.362 1
E31  23567517.679 1 123848142.332 1  23567520.372 1  94896636.729 1
G03  23565766.410 1 123838926.210 2  23565766.953 1  96497900.306 1
E19  26554985.050 1 139547371.981 3  26554987.002 1 106925897.485 2
E09  23774129.277 1 124933902.753 1  23774131.794 1  95728587.969 1
> 2022 02 25 13 58 00.0000000  0 30                     
G10  24416357.539 1 128308760.373 2  24416359.370 1  99980841.683 3
G16  21177134.264 1 111286591.541 1                                
G22  20782289.400 1 109211657.950 1                                
G27  24473601.499 1 128609648.947 2  24473603.960 1 100215364.574 2
G26  20038025.415 1 105300534.044 1  20038024.802 1  82052364.136 1
C20  21921283.998 1 114149871.978 1                
C32  24466131.608 1 127401545.316 1                
C37  24316233.127 1 126620994.394 1                
C36  25312673.946 1 131809743.402 1                
C19  23383090.180 1 121761899.640 1                
C27  25119481.079 1 130803737.061 1                
R02  20641779.657 1 110148508.640 1  20641780.601 1  85671073.107 1
R11  22752047.816 2 121580021.349 3  22752047.210 1  94562228.383 2
R01  19373460.609 1 103562239.106 1  19373460.983 1  80548409.675 1
R08  22409738.662 1 120003098.209 1  22409738.259 1  93335717.954 1
R13  21764394.097 2 116220644.404 3  21764393.768 1  90393863.858 3
G29  24291952.786 1 127655063.053 2  24291952.096 1  99471474.020 3
G31  21920256.950 1 115191715.398 1  21920253.068 1  89759757.017 1
G32  21123974.142 1 111007219.828 1  21123973.078 1  86499127.863 1
E01  25778366.870 1 135466222.570 2  25778368.862 1 103798792.722 1
E04  23707941.071 1 124586064.123 1  23707941.420 1  95462048.402 1
E24  25970681.901 1 136476859.622 1  25970683.971 1 104573195.399 1
C30  26211326.905 1 136489257.834 3                
C28  26195511.790 1 136406912.461 2                
R12  20313598.126 1 108511590.778 1  20313597.683 1  84397905.331 1
E18  28193875.821 1 148159812.942 1  28193878.265 1 113525067.128 1
E31  23568058.506 1 123850983.227 1  23568060.940 1  94898813.515 1
G03  23559773.966 1 123807433.627 2  23559774.228 1  96473360.657 1
E19  26560289.036 1 139575244.234 3  26560290.796 1 106947254.121 2
E09  23767314.737 1 124898090.775 1  23767316.765 1  95701147.628 1
> 2022 02 25 13 58 15.0000000  0 30                     
G10  24426188.521 1 128360421.081 2  24426190.176 1 100021096.658 3
G16  21170248.423 1 111250404.297 1                                
G22  20780647.239 1 109203030.056 1                                
G27  24463821.459 1 128558258.528 2  24463824.617 1 100175320.133 2
G26  20038764.111 1 105304416.000 1  20038763.641 1  82055389.034 1
C20  21922344.473 1 114155394.046 1                
C32  24474258.702 1 127443861.759 1                
C37  24321257.540 1 126647156.511 1                
C36  25308448.297 1 131787741.813 1                
C19  23376326.328 1 121726678.366 1                
C27  25113969.624 1 130775035.966 1                
R02  20632364.862 1 110098268.124 1  20632365.482 1  85631997.161 1
R11  22760124.441 1 121623179.134 2  22760123.767 2  94595795.511 3
R01  19376587.156 1 103578953.591 1  19376588.007 1  80561409.820 1
R08  22420051.818 1 120058324.969 1  22420050.922 1  93378672.047 1
R13  21760334.040 2 116198967.290 4  21760334.010 1  90377003.934 3
G29  24293888.262 1 127665233.824 2  24293887.399 1  99479399.314 3
G31  21922715.287 1 115204634.264 1  21922711.596 1  89769823.656 1
G32  21126088.989 1 111018335.442 1  21126088.404 1  86507789.375 1
E01  25784600.304 1 135498979.530 1  25784602.287 1 103823892.190 1
E04  23706920.968 1 124580703.882 1  23706921.361 1  95457941.205 1
E24  25965345.105 1 136448811.297 1  25965346.574 1 104551703.818 1
C30  26205493.482 1 136458884.886 3                
C28  26193234.323 1 136395049.814 3                
R12  20316950.969 1 108529499.815 1  20316950.454 1  84411834.572 1
E18  28183821.051 1 148106977.363 1  28183823.758 1 113484582.727 1
E31  23568613.582 1 123853900.409 1  23568616.113 1  94901048.754 1
G03  23553802.554 1 123776054.993 2  23553802.910 1  96448909.791 1
E19  26565603.863 1 139603174.823 3  26565606.242 1 106968655.426 2
E09  23760503.781 1 124862299.644 1  23760505.924 1  95673723.264 1
> 2022 02 25 13 58 30.0000000  0 30                     
G10  24436016.079 1 128412065.833 2  24436018.181 1 100061339.249 3
G16  21163385.170 1 111214336.691 1                                
G22  20779021.633 1 109194487.430 1                                
G27  24454034.762 1 128506827.759 2  24454037.629 1 100135244.267 2
G26  20039526.561 1 105308422.544 1  20039526.142 1  82058511.013 1
C20  21923427.678 1 114161035.204 1                
C32  24482393.999 1 127486225.142 1                
C37  24326278.929 1 126673304.307 1                
C36  25304232.043 1 131765785.087 1                
C19  23369576.898 1 121691537.515 1                
C27  25108457.127 1 130746330.542 1                
R02  20622969.907 1 110048134.325 1  20622970.619 1  85593004.199 1
R11  22768195.051 1 121666304.740 2  22768194.329 2  94629337.619 3
R01  19379748.753 1 103595852.468 1  19379749.718 1  80574553.371 1
R08  22430380.011 1 120113634.559 1  22430379.732 1  93421690.543 1
R13  21756293.435 2 116177392.961 3  21756294.178 1  90360223.927 2
G29  24295845.714 1 127675520.638 3  24295845.104 1  99487415.004 3
G31  21925172.940 1 115217549.744 1  21925169.271 1  89779887.666 1
G32  21128224.550 1 111029556.640 1  21128223.907 1  86516533.159 1
E01  25790836.413 1 135531750.398 1  25790838.366 1 103849002.323 1
E04  23705915.300 1 124575417.969 1  23705915.523 1  95453890.949 1
E24  25960020.082 1 136420829.165 1  25960021.878 1 104530262.971 1
C30  26199649.131 1 136428446.278 4                
C28  26190967.140 1 136383250.813 2                
R12  20320316.390 1 108547479.042 1  20320316.367 1  84425818.405 1
E18  28173754.725 1 148054075.708 1  28173756.999 1 113444047.694 1
E31  23569182.501 1 123856891.622 1  23569185.250 1  94903340.722 1
G03  23547852.513 1 123744788.366 2  23547853.184 1  96424546.207 1
E19  26570929.086 1 139631161.619 3  26570932.468 1 106990099.811 2
E09  23753696.923 1 124826527.510 1  23753698.929 1  95646313.452 1
> 2022 02 25 13 58 45.0000000  0 30                     
G10  24445840.828 1 128463695.933 2  24445843.265 1 100101570.372 3
G16  21156544.535 1 111178390.706 1                                
G22  20777412.634 1 109186032.001 1                                
G27  24444240.773 1 128455358.522 2  24444242.882 1 100095138.423 2
G26  20040312.867 1 105312555.123 1  20040312.403 1  82061731.208 1
C20  21924534.086 1 114166797.008 1                
C32  24490538.677 1 127528636.830 1                
C37  24331298.023 1 126699439.253 1                
C36  25300023.928 1 131743874.779 1                
C19  23362845.884 1 121656479.036 1                
C27  25102944.426 1 130717622.693 1                
R02  20613594.449 1 109998109.266 1  20613595.729 1  85554095.839 1
R11  22776259.718 1 121709399.547 2  22776258.824 2  94662855.773 3
R01  19382944.846 1 103612937.270 1  19382945.691 1  80587841.546 1
R08  22440724.837 1 120169027.970 1  22440724.204 1  93464774.247 1
R13  21752273.266 2 116155922.590 4  21752273.564 1  90343524.719 3
G29  24297825.461 1 127685925.135 2  24297825.014 1  99495522.414 3
G31  21927630.551 1 115230463.437 1  21927626.946 1  89789950.258 1
G32  21130380.152 1 111040885.173 1  21130379.055 1  86525360.567 1
E01  25797075.441 1 135564536.622 1  25797077.118 1 103874124.227 1
E04  23704923.488 1 124570208.142 1  23704924.087 1  95449899.004 1
E24  25954708.364 1 136392914.935 1  25954709.784 1 104508874.155 1
C30  26193791.518 1 136397943.862 3                
C28  26188715.162 1 136371517.183 2                
R12  20323695.566 1 108565529.792 1  20323695.504 1  84439857.878 1
E18  28163675.296 1 148001109.810 1  28163677.810 1 113403463.440 1
E31  23569766.237 1 123859958.371 1  23569768.809 1  94905690.569  
G03  23541924.688 1 123713635.584 2  23541924.893 1  96400271.314 1
E19  26576266.300 1 139659206.079 3  26576269.054 1 107011588.370 2
E09  23746893.591 1 124790776.178 1  23746895.576 1  95618919.589 1
> 2022 02 25 13 59 00.0000000  0 30                     
G10  24455663.023 1 128515311.920 2  24455665.786 1 100141790.539 3
G16  21149727.556 1 111142567.073 1                                
G22  20775820.638 1 109177664.804 1                                
G27  24434439.417 1 128403852.028 2  24434441.120 1 100055003.506 3
G26  20041123.675 1 105316814.474 1  20041123.039 1  82065050.182 1
C20  21925663.654 1 114172680.308 1                
C32  24498693.135 1 127571097.405 1                
C37  24336314.619 1 126725562.131 1                
C36  25295825.504 1 131722011.647 1                
C19  23356129.385 1 121621504.040 1                
C27  25097430.651 1 130688913.613 1                
R02  20604240.963 1 109948194.545 1  20604241.693 1  85515273.286 1
R11  22784318.723 1 121752464.056 2  22784317.658 2  94696350.375 3
R01  19386175.676 1 103630208.994 1  19386176.507 1  80601275.104 1
R08  22451084.787 1 120224505.878 1  22451084.077 1  93507923.683 1
R13  21748272.064 2 116134556.904 3  21748272.367 2  90326907.003 3
G29  24299827.730 1 127696448.345 3  24299826.932 1  99503722.337 3
G31  21930087.835 1 115243376.016 1  21930083.914 1  89800012.000 1
G32  21132556.243 1 111052321.975 1  21132555.398 1  86534272.342 1
E01  25803317.451 1 135597338.881 1  25803319.355 1 103899258.404 1
E04  23703946.577 1 124565075.448 1  23703947.498 1  95445966.163 1
E24  25949409.666 1 136365069.561 1  25949411.062 1 104487538.102 1
C30  26187921.583 1 136367378.598 3                
C28  26186474.266 1 136359850.200 3                
R12  20327088.126 1 108583652.498 1  20327088.283 1  84453953.314 1
E18  28153584.520 1 147948080.723 1  28153586.744 1 113362830.764 1
E31  23570364.205 1 123863101.393 1  23570366.903 1  94908098.857 1
G03  23536018.874 1 123682597.698 2  23536019.186 1  96376085.964 1
E19  26581614.109 1 139687308.987 3  26581616.604 1 107033121.719 2
E09  23740094.336 1 124755046.745 1  23740096.179 1  95591542.505 1
> 2022 02 25 13 59 15.0000000  0 30                     
G10  24465483.637 1 128566917.281 2  24465486.018 1 100182002.432 3
G16  21142934.590 1 111106869.879 1                                
G22  20774245.951 1 109169389.944 1                                
G27  24424631.330 1 128352312.373 2  24424633.203 1 100014842.757 2
G26  20041958.829 1 105321204.184 1  20041958.464 1  82068470.734 1
C20  21926817.987 1 114178688.825 1                
C32  24506857.321 1 127613610.404 1                
C37  24341329.556 1 126751676.619 1                
C36  25291636.331 1 131700199.410 1                
C19  23349428.418 1 121586616.517 1                
C27  25091918.269 1 130660207.309 2                
R02  20594908.420 1 109898394.529 1  20594909.216 1  85476539.950 1
R11  22792373.139 2 121795502.072 3  22792371.955 1  94729824.402 2
R01  19389442.791 1 103647671.117 1  19389443.184 1  80614856.733 1
R08  22461461.012 1 120280071.625 1  22461460.772 1  93551141.411 1
R13  21744291.520 2 116113299.953 3  21744291.603 1  90310373.831 2
G29  24301854.675 1 127707093.920 2  24301852.607 1  99512017.569 3
G31  21932545.275 1 115256291.145 1  21932541.642 1  89810075.738 1
G32  21134754.001 1 111063870.956 1  21134753.677 1  86543271.537 1
E01  25809563.533 1 135630160.775 1  25809565.292 1 103924407.630 1
E04  23702985.590 1 124560023.844 1  23702986.251 1  95442095.435 1
E24  25944124.295 1 136337296.861 1  25944126.006 1 104466257.726 1
C30  26182040.408 1 136336754.428 3                
C28  26184247.966 1 136348253.785 2                
R12  20330494.857 1 108601850.612 1  20330494.918 1  84468107.383 1
E18  28143481.936 1 147894992.464 1  28143484.387 1 113322152.743 1
E31  23570977.666 1 123866324.343 1  23570980.324 1  94910568.384 1
G03  23530134.589 1 123651678.701 2  23530135.639 1  96351993.248 2
E19  26586972.884 1 139715474.240 3  26586976.141 1 107054702.847 2
E09  23733300.564 1 124719343.260 1  23733301.906 1  95564185.291 1
> 2022 02 25 13 59 30.0000000  0 30                     
G10  24475301.124 1 128618509.849 2  24475303.539 1 100222204.325 3
G16  21136165.304 1 111071297.481 1                                
G22  20772688.303 1 109161205.739 1                                
G27  24414817.020 1 128300738.011 2  24414818.919 1  99974654.972 2
G26  20042818.329 1 105325722.204 1  20042817.997 1  82071991.261 1
C20  21927995.473 1 114184820.676 1                
C32  24515031.144 1 127656173.723 1                
C37  24346342.502 1 126777780.732 1                
C36  25287457.366 1 131678436.103 1                
C19  23342745.525 1 121551814.859 1                
C27  25086405.495 1 130631502.233 1                
R02  20585597.046 1 109848707.642 1  20585598.221 1  85437894.609 1
R11  22800421.517 2 121838511.474 3  22800421.228 2  94763276.073 3
R01  19392744.404 1 103665321.767 1  19392745.275 1  80628585.003 1
R08  22471853.868 1 120335722.787 1  22471853.759 1  93594425.552 1
R13  21740330.383 2 116092149.443 4  21740330.805 1  90293923.472 2
G29  24303903.482 1 127717860.068 2  24303901.632 1  99520406.752 3
G31  21935002.821 1 115269207.019 1  21934999.557 1  89820140.041 1
G32  21136972.974 1 111075530.244 1  21136972.741 1  86552356.678 1
E01  25815812.818 1 135663000.242 1  25815814.690 1 103949570.311 1
E04  23702039.236 1 124555051.507 1  23702039.832 1  95438285.466 1
E24  25938852.391 1 136309595.059 2  25938854.700 1 104445031.682 1
C30  26176147.710 1 136306069.667 3                
C28  26182033.526 1 136336726.331 2                
R12  20333915.565 1 108620121.900 1  20333915.309 1  84482318.386 1
E18  28133368.104 1 147841843.314 1  28133370.501 1 113281428.078 1
E31  23571605.890 1 123869625.189 1  23571608.455 1  94913097.605 1
G03  23524272.716 1 123620876.896 2  23524273.902 1  96327991.898 2
E19  26592344.466 1 139743699.808 3  26592347.236 1 107076330.160 2
E09  23726511.007 1 124683664.029 1  23726512.344 1  95536846.651 1
> 2022 02 25 13 59 45.0000000  0 30                     
G10  24485116.611 1 128670092.166 2  24485119.097 1 100262398.245 3
G16  21129420.512 1 111035853.049 1                                
G22  20771148.934 1 109153115.333 1                                
G27  24404996.632 1 128249132.069 2  24404998.777 1  99934442.598 2
G26  20043703.188 1 105330371.271 1  20043702.754 1  82075613.902 1
C20  21929197.116 1 114191078.664 1                
C32  24523214.784 1 127698789.959 1                
C37  24351354.092 1 126803877.233 1                
C36  25283287.896 1 131656724.537 1                
C19  23336079.766 1 121517102.189 1                
C27  25080893.425 1 130602801.572 1                
R02  20576308.086 1 109799137.233 1  20576308.454 1  85399339.846 1
R11  22808465.123 2 121881494.857 2  22808464.763 2  94796707.533 3
R01  19396081.938 1 103683163.580 1  19396083.025 1  80642461.961 1
R08  22482262.781 1 120391462.149 2  22482262.440 1  93637778.291 1
R13  21736389.592 2 116071108.518 3  21736390.351 1  90277558.280 2
G29  24305975.211 1 127728749.579 2  24305973.185 1  99528892.053 3
G31  21937461.270 1 115282126.358 1  21937458.106 1  89830207.043 1
G32  21139213.550 1 111087302.956 1  21139212.866 1  86561530.209 1
E01  25822065.634 1 135695859.961 1  25822067.783 1 103974748.520 1
E04  23701108.869 1 124550161.538 1  23701109.413 1  95434538.596 1
E24  25933595.154 1 136281967.053 1  25933597.413 1 104423862.188 1
C30  26170243.888 1 136275327.371 3                
C28  26179833.459 1 136325270.811 3                
R12  20337349.790 1 108638468.858 1  20337350.018 1  84496588.217 1
E18  28123242.558 1 147788636.375 1  28123245.384 1 113240659.123 1
E31  23572249.413 1 123873006.717 1  23572251.918 1  94915688.642 1
G03  23518434.755 1 123590195.435 2  23518435.301 1  96304084.261 2
E19  26597727.938 1 139771988.526 3  26597730.593 1 107098005.902 2
E09  23719725.717 1 124648012.128 1  23719728.032 1  95509528.983 1
> 2022 02 25 14 00 00.0000000  0 31                     
G10  24494929.351 1 128721658.158 2  24494932.270 1 100302579.447 2
G16  21122698.844 1 111000530.985 1                                
G22  20769626.211 1 109145113.214 1                                
G27  24395169.059 1 128197489.182 2  24395171.247 1  99894201.465 2
G26  20044611.865 1 105335145.443 1  20044611.037 1  82079334.038 1
C20  21930421.921 1 114197457.080 1                
C32  24531408.229 1 127741453.181 1                
C37  24356363.234 1 126829960.366 1                
C36  25279127.252 1 131635058.989 1                
C19  23329429.482 1 121482473.092 1                
C27  25075382.342 1 130574099.943 1                
R02  20567039.410 1 109749678.561 1  20567039.722 1  85360871.996 1
R11  22816502.793 2 121924446.171 3  22816502.335 2  94830114.033 2
R01  19399454.325 1 103701190.914 1  19399455.279 1  80656483.206 1
R08  22492687.705 1 120447283.291 1  22492686.197 1  93681194.646 1
R13  21732468.738 2 116050170.924 3  21732469.461 1  90261273.511 2
G29  24308069.748 1 127739756.758 2  24308067.925 1  99537469.080 3
G31  21939919.542 1 115295043.655 1  21939915.868 1  89840272.443 1
G32  21141474.219 1 111099183.363 1  21141473.450 1  86570787.643 1
E01  25828321.428 1 135728734.001 1  25828323.525 1 103999937.695 1
E04  23700192.668 1 124545348.292 1  23700193.507 1  95430850.524 1
E24  25928350.613 1 136254407.190 1  25928352.923 1 104402744.904 1
C30  26164327.862 1 136244521.977 2                
C28  26177645.493 1 136313881.995 3                
R12  20340797.285 1 108656885.308 1  20340797.465 1  84510912.114 1
E18  28113105.601 1 147735366.079 1  28113108.251 1 113199841.647 1
E31  23572907.110 1 123876463.034 1  23572909.603 1  94918336.989 1
G03  23512618.517 1 123559628.735 2  23512618.978 1  96280266.057 1
E19  26603121.710 1 139800334.447 3  26603124.646 1 107119725.454 2
E09  23712945.892 1 124612382.099 1  23712947.914 1  95482228.052 1
R21                                  24667530.879 9               9
> 2022 02 25 14 00 15.0000000  0 31                     
G10  24504739.613 1 128773210.339 2  24504742.627 1 100342749.886 2
G16  21116001.252 1 110965334.314 1                                
G22  20768120.794 1 109137202.474 1                                
G27  24385335.054 1 128145812.508 2  24385337.673 1  99853933.969 2
G26  20045544.594 1 105340047.372 1  20045543.933 1  82083153.724 1
C20  21931670.517 1 114203958.718 1                
C32  24539611.035 1 127784165.894 1                
C37  24361370.319 1 126856032.771 1                
C36  25274976.540 1 131613442.107 1                
C19  23322795.511 1 121447930.615 1                
C27  25069870.342 1 130545400.421 1                
R02  20557791.900 1 109700334.787 1  20557792.805 1  85322493.517 1
R11  22824535.561 1 121967368.078 2  22824534.733 2  94863497.763 3
R01  19402861.862 1 103719406.159 1  19402862.810 1  80670650.593 1
R08  22503127.530 1 120503188.546 2  22503126.071 1  93724676.461 1
R21  24663122.917 9               9                                
R13  21728567.552 2 116029339.500 3  21728568.819 1  90245071.288 2
G29  24310187.177 1 127750884.586 3  24310186.237 1  99546140.093 3
G31  21942377.669 1 115307961.598 1  21942374.314 1  89850338.373 1
G32  21143755.634 1 111111174.352 1  21143755.331 1  86580131.281 1
E01  25834580.649 1 135761625.006 1  25834582.467 1 104025139.869 1
E04  23699291.969 1 124540614.771 1  23699292.676 1  95427223.536 1
E24  25923119.415 1 136226918.341 1  25923121.684 1 104381682.035 1
C30  26158400.938 1 136213656.431 2                
C28  26175471.579 1 136302562.714 3                
R12  20344258.073 1 108675373.612 1  20344258.388 1  84525291.913 1
E18  28102957.508 1 147682035.517 1  28102959.826 1 113158977.954 1
E31  23573579.240 1 123879996.813 1  23573582.085 1  94921044.691 1
G03  23506823.675 1 123529179.783 2  23506824.020 1  96256539.623 2
E19  26608528.059 1 139828740.496 3  26608530.199 1 107141491.051 2
E09  23706170.437 1 124576776.963 1  23706172.590 1  95454946.206 1
> 2022 02 25 14 00 30.0000000  0 30                     
G10  24514546.684 1 128824746.569 2  24514550.113 1 100382907.890 2
G16  21109327.364 1 110930261.500 1                                
G22  20766632.582 1 109129381.610 1                                
G27  24375494.622 1 128094100.540 2  24375497.166 1  99813638.987 2
G26  20046501.422 1 105345075.036 1  20046500.919 1  82087071.384 1
C20  21932942.485 1 114210581.658 1                
C32  24547822.636 1 127826926.088 1                
C37  24366374.867 1 126882092.582 1                
C36  25270833.859 1 131591872.058 1                
C19  23316178.220 1 121413473.193 1                
C27  25064358.851 1 130516701.482 1                
R02  20548566.498 1 109651104.404 1  20548567.488 1  85284203.226 1
R11  22832562.101 1 122010258.505 2  22832561.721 2  94896856.920 2
R01  19406304.136 1 103737807.588 1  19406305.307 1  80684962.810 1
R08  22513582.449 1 120559175.486 1  22513582.090 1  93768221.763 1
R13  21724686.042 2 116008612.025 3  21724687.565 1  90228949.971 3
G29  24312327.656 1 127762131.135 2  24312326.471 1  99554903.661 3
G31  21944835.501 1 115320878.263 1  21944832.567 1  89860403.300 1
G32  21146058.142 1 111123274.209 1  21146057.755 1  86589559.709 1
E01  25840842.540 1 135794530.936 1  25840844.249 1 104050353.491 1
E04  23698406.383 1 124535959.243 1  23698406.823 1  95423656.309 1
E24  25917902.171 1 136199498.706 1  25917903.898 1 104360672.178 1
C30  26152461.351 1 136182729.169 4                
C28  26173310.907 1 136291311.528 2                
R12  20347732.552 1 108693931.719 1  20347733.116 1  84539725.968 1
E18  28092797.495 1 147628643.008 1  28092799.660 1 113118066.812 1
E31  23574266.040 1 123883606.104 1  23574268.927 1  94923810.244 1
G03  23501051.145 1 123498846.975 1  23501051.285 1  96232903.649 2
E19  26613944.532 1 139857204.675 3  26613947.227 1 107163301.237 2
E09  23699398.778 1 124541195.090 2  23699401.448 1  95427682.185 1
> 2022 02 25 14 00 45.0000000  0 30                     
G10  24524350.795 1 128876266.288 2  24524353.642 1 100423053.019 2
G16  21102676.591 1 110895312.519 1                                
G22  20765161.390 1 109121650.556 1                                
G27  24365647.766 1 128042353.328 2  24365650.003 1  99773316.516 2
G26  20047481.780 1 105350228.037 1  20047481.535 1  82091086.702 1
C20  21934237.517 1 114217325.688 1                
C32  24556042.554 1 127869733.271 1                
C37  24371376.627 1 126908139.458 1                
C36  25266700.001 1 131570348.539 1                
C19  23309577.310 1 121379100.851 1                
C27  25058847.795 1 130488003.226 1                
R02  20539362.033 1 109601987.899 1  20539362.742 1  85246001.520 1
R11  22840582.042 1 122053116.894 2  22840581.636 2  94930191.220 3
R01  19409781.437 1 103756394.702 1  19409782.623 1  80699419.436 1
R08  22524052.766 1 120615243.764 1  22524052.530 1  93811830.350 1
R13  21720824.071 2 115987988.673 3  21720825.405 1  90212909.560 2
G29  24314490.435 1 127773496.305 2  24314489.343 1  99563759.638 3
G31  21947292.974 1 115333793.364 1  21947290.006 1  89870467.015 1
G32  21148381.460 1 111135482.799 1  21148380.548 1  86599072.875 1
E01  25847107.002 1 135827451.370 1  25847108.612 1 104075578.233 1
E04  23697535.395 1 124531381.639 1  23697535.752 1  95420148.788 1
E24  25912697.609 1 136172148.132 1  25912699.240 1 104339715.272 1
C30  26146510.509 1 136151740.110 4                
C28  26171164.835 1 136280128.306 2                
R12  20351219.370 1 108712558.978 1  20351220.119 1  84554213.831 1
E18  28082624.636 1 147575188.533 1  28082627.776 1 113077108.201 1
E31  23574967.356 1 123887290.522 1  23574970.112 1  94926633.375 1
G03  23495301.483 1 123468630.303 2  23495301.314 1  96209358.173 2
E19  26619371.111 1 139885726.807 3  26619374.935 1 107185155.793 2
E09  23692632.912 1 124505636.493 1  23692634.723 1  95400436.002 1
> 2022 02 25 14 01 00.0000000  0 30                     
G10  24534151.823 1 128927769.825 1  24534154.481 1 100463185.589 2
G16  21096049.544 1 110860488.100 1                                
G22  20763707.042 1 109114010.259 1                                
G27  24355794.126 1 127990571.735 2  24355796.386 1  99732967.291 2
G26  20048486.456 1 105355506.754 1  20048486.238 1  82095199.984 1
C20  21935556.153 1 114224191.320 1                
C32  24564272.663 1 127912587.711 1                
C37  24376375.876 1 126934173.899 1                
C36  25262576.085 1 131548871.992 1                
C19  23302992.473 1 121344814.436 1                
C27  25053336.522 1 130459306.481 1                
R02  20530179.173 1 109552986.470 1  20530179.681 1  85207889.298 1
R11  22848596.216 1 122095943.915 2  22848595.595 2  94963501.055 3
R01  19413293.425 1 103775168.068 1  19413294.424 1  80714020.924 1
R08  22534538.963 1 120671393.688 1  22534538.688 1  93855502.415 1
R13  21716982.179 2 115967469.483 4  21716982.288 1  90196950.212 2
G29  24316675.587 1 127784980.531 1  24316674.675 1  99572708.371 3
G31  21949750.530 1 115346707.505 1  21949747.334 1  89880529.973 1
G32  21150725.527 1 111147800.732 1  21150724.550 1  86608671.260 1
E01  25853374.026 1 135860386.693 1  25853375.936 1 104100814.394 1
E04  23696679.187 1 124526882.693 1  23696679.598 1  95416701.537 1
E24  25907505.888 1 136144867.254 1  25907507.676 1 104318811.751 1
C30  26140546.838 1 136120690.136 3                
C28  26169030.210 1 136269013.932 2                
R12  20354720.498 1 108731255.477 1  20354719.956 1  84568755.548 1
E18  28072441.181 1 147521672.870 1  28072443.907 1 113036102.705 1
E31  23575682.835 1 123891050.524 1  23575685.555 1  94929514.405 1
G03  23489573.834 1 123438530.519 2  23489573.948 1  96185903.801 2
E19  26624810.511 1 139914307.379 3  26624813.387 1 107207055.141 2
E09  23685871.211 1 124470101.969 1  23685872.615 1  95373208.245 1
> 2022 02 25 14 01 15.0000000  0 30                     
G10  24543949.318 1 128979256.544 1  24543952.419 1 100503305.017 2
G16  21089446.474 1 110825788.195 1                                
G22  20762270.851 1 109106460.586 1                                
G27  24345934.350 1 127938755.916 2  24345936.244 1  99692591.351 1
G26  20049514.832 1 105360910.776 1  20049514.280 1  82099410.916 1
C20  21936897.942 1 114231178.250 1                
C32  24572511.411 1 127955488.975 1                
C37  24381373.120 1 126960195.526 1                
C36  25258460.885 1 131527442.160 1                
C19  23296425.514 1 121310613.918 1                
C27  25047825.620 1 130430611.311 1                
R02  20521017.644 1 109504100.330 1  20521018.517 1  85169866.754 1
R11  22856605.218 2 122138738.770 3  22856603.914 2  94996785.906 4
R01  19416839.820 1 103794127.029 1  19416841.159 1  80728766.770 1
R08  22545039.628 1 120727624.304 2  22545038.741 1  93899237.293 1
R13  21713158.604 2 115947054.263 3  21713159.098 1  90181071.732 2
G29  24318883.351 1 127796583.599 2  24318882.159 1  99581749.695 4
G31  21952208.087 1 115359620.333 1  21952204.761 1  89890591.913 1
G32  21153090.323 1 111160227.856 1  21153090.284 1  86618354.708 1
E01  25859644.362 1 135893336.492 1  25859646.118 1 104126061.605 1
E04  23695837.667 1 124522462.235 1  23695838.516 1  95413314.441 1
E24  25902327.567 1 136117655.860 1  25902329.737 1 104297961.456 1
C30  26134572.008 1 136089578.857 3                
C28  26166909.347 1 136257968.342 2                
R12  20358232.836 1 108750020.591 1  20358232.927 1  84583350.618 1
E18  28062245.670 1 147468095.963 1  28062248.344 1 112995050.283 1
E31  23576412.840 1 123894885.694 1  23576415.350 1  94932453.041 1
G03  23483868.106 1 123408547.468 2  23483868.374 1  96162540.394 1
E19  26630260.254 1 139942945.983 3  26630262.881 1 107228998.966 2
E09  23679113.246 1 124434591.455 1  23679115.745 1  95345998.898 1
> 2022 02 25 14 01 30.0000000  0 31                     
G10  24553743.086 1 129030723.069 2  24553746.521 1 100543408.662 2
G16  21082866.758 1 110791209.749 1                                
G22  20760851.297 1 109098998.744 1                                
G27  24336067.034 1 127886903.006 1  24336068.844 1  99652186.523 2
G26  20050566.351 1 105366436.763 1  20050565.650 1  82103716.880 1
C20  21938262.299 1 114238283.372 1                
C32  24580758.770 1 127998433.684 1                
C37  24386367.541 1 126986201.164 1                
C36  25254353.050 1 131506055.828 1                
C19  23289873.788 1 121276496.526 1                
C27  25042315.560 1 130401914.917 2                
R02  20511877.292 1 109455327.164 1  20511878.356 1  85131932.098 1
R11  22864605.855 2 122181498.103 4  22864606.446 2  95030043.192 3
R01  19420420.828 1 103813268.596 1  19420421.761 1  80743654.632 1
R08  22555554.227 1 120783932.172 2  22555554.287 1  93943032.227 1
R13  21709353.640 2 115926739.699 4  21709354.704 1  90165271.502 2
G29  24321113.071 1 127808302.362 3  24321112.086 1  99590881.227 3
G31  21954664.502 1 115372528.657 1  21954661.252 1  89900650.338 1
G32  21155475.040 1 111172761.156 1  21155475.593 1  86628120.895 1
E01  25865916.698 1 135926297.403 1  25865918.401 1 104151317.357 1
E04  23695011.062 1 124518117.306 1  23695011.755 1  95409985.202 1
E24  25897161.677 1 136090510.869 1  25897164.313 1 104277162.072 1
C30  26128585.523 1 136058403.623 2                
C28  26164800.278 1 136246988.697 2                
R12  20361758.069 1 108768850.885 1  20361757.916 1  84597996.390 1
E18  28052039.419 1 147414454.917 1  28052040.544 1 112953948.684 1
E31  23577156.201 1 123898792.782 1  23577158.791 1  94935446.780 1
G03  23478183.968 1 123378678.298 2  23478184.828 1  96139265.749 1
E19  26635720.043 1 139971639.499 3  26635723.086 1 107250984.853 2
E09  23672359.567 1 124399102.092 1  23672362.599 1  95318805.754 1
R21                                  24641425.442 9 102558788.91418
> 2022 02 25 14 01 45.0000000  0 31                     
G10  24563532.993 1 129082170.874 2  24563536.383 1 100583497.773 2
G16  21076309.874 1 110756754.894 1                                
G22  20759448.249 1 109091626.691 1                                
G27  24326192.938 1 127835015.187 2  24326194.904 1  99611754.489 2
G26  20051641.416 1 105372086.414 1  20051640.752 1  82108119.207 1
C20  21939649.931 1 114245508.431 1                
C32  24589014.807 1 128041423.392 1                
C37  24391358.806 1 127012192.544 1                
C36  25250255.304 1 131484714.750 1                
C19  23283337.867 1 121242464.270 1                
C27  25036804.231 1 130373219.451 1                
R02  20502758.929 1 109406668.817 1  20502760.031 1  85094086.707 1
R11  22872600.109 2 122224223.674 3  22872601.590 2  95063274.140 3
R01  19424036.128 1 103832594.293 1  19424037.387 1  80758685.708 1
R08  22566084.119 1 120840318.597 2  22566083.961 1  93986888.203 1
R13  21705568.691 2 115906527.378 4  21705569.280 2  90149550.809 3
G29  24323365.603 1 127820138.839 3  24323365.249 1  99600104.475 3
G31  21957120.395 1 115385434.372 1  21957116.910 1  89910706.727 1
G32  21157880.780 1 111185402.534 1  21157881.088 1  86637971.307 1
E01  25872191.220 1 135959271.107 1  25872193.185 1 104176582.914 1
E04  23694198.965 1 124513849.910 1  23694199.745 1  95406715.374 1
E24  25892009.780 1 136063434.200 2  25892011.571 1 104256415.020 1
C30  26122587.546 1 136027166.293 2                
C28  26162704.594 1 136236077.022 3                
R12  20365296.033 1 108787747.754 1  20365295.733 1  84612693.944 1
E18  28041820.170 1 147360751.752 1  28041821.282 1 112912799.491 1
E31  23577913.998 1 123902773.487 1  23577916.290 1  94938496.930 1
G03  23472522.188 1 123348924.998 2  23472522.996 1  96116081.405 1
E19  26641191.127 1 140000389.614 3  26641194.448 1 107273014.115 2
E09  23665611.514 1 124363635.918 1  23665613.512 1  95291630.388 1
R21                                  24637136.832 9               9
> 2022 02 25 14 02 00.0000000  0 31                     
G10  24573319.889 1 129133601.891 2  24573322.966 1 100623573.788 2
G16  21069777.295 1 110722426.080 1                                
G22  20758062.877 1 109084346.922 1                                
G27  24316312.591 1 127783094.966 2  24316314.614 1  99571297.228 2
G26  20052740.686 1 105377861.741 1  20052739.976 1  82112619.446 1
C20  21941060.835 1 114252855.647 1                
C32  24597279.486 1 128084460.075 1                
C37  24396347.823 1 127038171.803 1                
C36  25246166.141 1 131463421.077 1                
C19  23276819.038 1 121208519.645 1                
C27  25031294.228 1 130344527.395 1                
R02  20493661.704 1 109358128.308 1  20493663.167 1  85056332.981 1
R11  22880590.283 2 122266917.544 3  22880590.151 2  95096480.457 3
R01  19427686.361 1 103852106.309 1  19427687.409 1  80773861.714 1
R08  22576628.691 1 120896785.679 2  22576629.070 1  94030806.976 1
R13  21701803.274 2 115886419.618 3  21701803.866 1  90133911.436 2
G29  24325641.425 1 127832095.202 2  24325640.645 1  99609421.071 3
G31  21959576.103 1 115398339.633 1  21959572.662 1  89920762.765 1
G32  21160307.583 1 111198154.265 1  21160307.371 1  86647907.714 1
E01  25878468.732 1 135992259.656 1  25878470.565 1 104201859.827 1
E04  23693402.577 1 124509662.381 1  23693402.912 1  95403506.739 1
E24  25886870.704 1 136036428.121 1  25886872.637 1 104235722.055 1
C30  26116577.853 1 135995869.379 2                
C28  26160620.992 1 136225235.796 3                
R12  20368845.702 1 108806713.135 1  20368846.006 1  84627444.793 1
E18  28031588.236 1 147306988.885 1  28031590.902 1 112871604.575 1
E31  23578685.842 1 123906829.910 1  23578688.175 1  94941605.095 1
G03  23466883.106 1 123319290.055 2  23466883.657 1  96092989.244 1
E19  26646673.894 1 140029198.625 3  26646676.405 1 107295088.486 2
E09  23658866.379 1 124328195.376 1  23658868.963 1  95264474.653 1
R21                                  24632853.355 9               9
> 2022 02 25 14 02 15.0000000  0 30                     
G10  24583103.444 1 129185013.941 2  24583106.232 1 100663635.055 2
G16  21063268.655 1 110688221.664 1                                
G22  20756694.813 1 109077157.830 1                                
G27  24306425.946 1 127731140.877 2  24306427.893 1  99530813.554 1
G26  20053863.096 1 105383760.722 1  20053862.312 1  82117216.049 1
C20  21942494.752 1 114260323.081 1                
C32  24605552.393 1 128127541.696 1                
C37  24401334.258 1 127064136.990 1                
C36  25242085.548 1 131442172.902 1                
C19  23270317.327 1 121174661.037 1                
C27  25025784.905 1 130315837.244 1                
R02  20484587.341 1 109309704.144 1  20484588.546 1  85018669.766 1
R11  22888573.967 2 122309577.460 3  22888573.556 2  95129660.288 3
R01  19431370.835 1 103871802.679 1  19431372.282 1  80789181.097 1
R08  22587188.692 1 120953330.670 2  22587188.177 1  94074786.351 1
R13  21698057.192 2 115866414.221 3  21698057.235 1  90118351.718 2
G29  24327939.451 1 127844169.540 3  24327938.431 1  99618829.634 3
G31  21962031.591 1 115411242.539 1  21962028.263 1  89930816.975 1
G32  21162755.091 1 111211014.630 1  21162754.692 1  86657928.751 1
E01  25884748.768 1 136025261.004 1  25884750.671 1 104227146.563 1
E04  23692620.279 1 124505553.029 1  23692620.778 1  95400358.009 1
E24  25881744.914 1 136009490.834 1  25881746.541 1 104215081.802 1
C30  26110554.433 1 135964511.141 2                
C28  26158553.247 1 136214463.318 2                
R12  20372408.479 1 108825744.650 1  20372408.689 1  84642247.091 1
E18  28021346.062 1 147253164.718 1  28021348.595 1 112830362.679 1
E31  23579471.581 1 123910960.055 1  23579474.019 1  94944769.745 1
G03  23461266.015 1 123289771.740 2  23461266.166 1  96069987.974 2
E19  26652166.447 1 140058064.421 3  26652169.609 1 107317206.408 2
E09  23652126.734 1 124292778.851 1  23652129.477 1  95237337.320 1
> 2022 02 25 14 02 30.0000000  0 31                     
G10  24592883.464 1 129236407.925 2  24592886.397 1 100703682.209 2
G16  21056783.693 1 110654143.054 1                                
G22  20755344.427 1 109070060.890 1                                
G27  24296533.261 1 127679154.360 2  24296535.184 1  99490304.637 2
G26  20055009.234 1 105389784.318 1  20055008.523 1  82121909.758 1
C20  21943952.083 1 114267911.879 1                
C32  24613834.854 1 128170669.061 1                
C37  24406317.624 1 127090089.162 1                
C36  25238013.946 1 131420971.283 1                
C19  23263831.819 1 121140889.872 1                
C27  25020276.095 1 130287150.420 1                
R02  20475535.868 1 109261398.403 1  20475536.476 1  84981098.642 1
R11  22896550.518 2 122352204.541 3  22896551.564 2  95162814.692 3
R01  19435090.279 1 103891684.252 1  19435091.405 1  80804644.521 1
R08  22597763.338 1 121009954.637 1  22597762.226 1  94118827.115 1
R21  24624322.539 9 131769706.66637                                
R13  21694330.096 2 115846512.529 3  21694330.535 1  90102872.667 2
G29  24330259.591 1 127856363.078 2  24330258.949 1  99628331.042 3
G31  21964486.354 1 115424144.241 1  21964483.440 1  89940870.241 1
G32  21165223.243 1 111223984.831 1  21165222.597 1  86668035.383 1
E01  25891031.594 1 136058276.112 1  25891033.460 1 104252443.837 1
E04  23691853.456 1 124501523.125 1  23691853.865 1  95397270.157 1
E24  25876632.602 1 135982623.557 1  25876633.677 1 104194495.199 1
C30  26104520.924 1 135933092.818 2                
C28  26156498.268 1 136203761.086 2                
R12  20375983.992 1 108844843.195 1  20375983.963 1  84657101.497 1
E18  28011091.867 1 147199280.568 1  28011094.734 1 112789074.839 1
E31  23580271.650 1 123915164.930 1  23580274.224 1  94947991.664 1
G03  23455671.655 1 123260371.449 1  23455671.417 1  96047078.662 2
E19  26657670.358 1 140086988.305 3  26657673.941 1 107339368.809 2
E09  23645391.758 1 124257387.709 1  23645394.947 1  95210219.448 1
> 2022 02 25 14 02 45.0000000  0 30                     
G10  24602660.160 1 129287782.246 1  24602662.618 1 100743714.055 2
G16  21050322.240 1 110620189.154 1                                
G22  20754011.210 1 109063054.931 1                                
G27  24286634.208 1 127627134.536 2  24286636.019 1  99449769.714 2
G26  20056178.895 1 105395931.105 1  20056178.216 1  82126699.463 1
C20  21945432.626 1 114275620.745 1                
C32  24622125.469 1 128213840.743 1                
C37  24411299.282 1 127116027.033 1                
C36  25233950.862 1 131399814.934 1                
C19  23257362.799 1 121107205.194 1                
C27  25014767.463 1 130258466.056 1                
R02  20466505.290 1 109213209.957 1  20466505.628 1  84943618.742 1
R11  22904521.704 2 122394797.144 4  22904522.460 2  95195942.296 3
R01  19438843.961 1 103911749.856 1  19438845.206 1  80820251.098 1
R08  22608352.201 1 121066655.888 2  22608350.591 1  94162927.986 1
R13  21690622.057 2 115826713.020 3  21690623.393 1  90087473.000 2
G29  24332602.078 1 127868674.623 2  24332601.349 1  99637924.465 3
G31  21966941.302 1 115437043.395 1  21966937.971 1  89950921.533 1
G32  21167711.986 1 111237063.719 1  21167711.402 1  86678226.721 1
E01  25897316.678 1 136091303.575 1  25897318.363 1 104277750.569 1
E04  23691101.711 1 124497571.583 1  23691101.987 1  95394242.344 1
E24  25871532.444 1 135955825.092 1  25871533.938 1 104173961.328 1
C30  26098476.224 1 135901613.511 3                
C28  26154458.320 1 136193127.957 2                
R12  20379571.598 1 108864007.129 1  20379571.583 1  84672006.772 1
E18  28000826.691 1 147145335.437 1  28000829.141 1 112747740.252 1
E31  23581085.783 1 123919443.174 1  23581088.442 1  94951269.795 1
G03  23450099.535 1 123231088.082 1  23450099.193 1  96024260.443 1
E19  26663185.622 1 140115968.843 3  26663188.971 1 107361574.610 2
E09  23638661.972 1 124222020.955 1  23638664.785 1  95183120.266 1
> 2022 02 25 14 03 00.0000000  0 30                     
G10  24612432.531 1 129339135.123 1  24612435.064 1 100783729.177 2
G16  21043884.302 1 110586358.600 1                                
G22  20752695.213 1 109056138.776 1                                
G27  24276728.533 1 127575080.242 2  24276730.346 1  99409207.941 1
G26  20057371.628 1 105402199.419 1  20057371.165 1  82131583.862 1
C20  21946935.791 1 114283448.138 1                
C32  24630424.506 1 128257054.996 1                
C37  24416277.134 1 127141948.981 1                
C36  25229896.309 1 131378702.304 1                
C19  23250910.407 1 121073605.764 1                
C27  25009259.038 1 130229782.900 1                
R02  20457496.640 1 109165138.024 1  20457497.672 1  84906229.456 1
R11  22912486.921 2 122437353.767 4  22912485.613 2  95229041.791 3
R01  19442631.539 1 103931997.529 1  19442632.611 1  80835999.275 1
R08  22618954.878 1 121123432.388 2  22618953.068 1  94207087.436 2
R13  21686933.423 2 115807013.922 4  21686934.120 1  90072151.506 2
G29  24334966.735 1 127881102.651 3  24334966.374 1  99647608.631 4
G31  21969395.436 1 115449938.460 1  21969391.702 1  89960969.620 1
G32  21170221.445 1 111250249.883 1  21170220.699 1  86688501.628 1
E01  25903603.677 1 136124341.705 1  25903605.360 1 104303065.478 1
E04  23690364.259 1 124493697.036 1  23690364.720 1  95391273.526 1
E24  25866445.822 1 135929094.006 1  25866447.210 1 104153479.065 1
C30  26092418.905 1 135870071.842 2                
C28  26152428.004 1 136182562.847 2                
R12  20383170.593 1 108883234.477 1  20383170.505 1  84686961.381 1
E18  27990549.683 1 147091328.022 1  27990551.917 1 112706357.947 1
E31  23581913.573 1 123923793.132 1  23581916.123 1  94954602.883 1
G03  23444548.330 1 123201920.344 1  23444549.186 1  96001532.365 1
E19  26668710.963 1 140145004.455 3  26668714.127 1 107383822.615 2
E09  23631937.239 1 124186677.317 1  23631938.923 1  95156038.770 1
