     3.04           OBSERVATION DATA    M: Mixed            RINEX VERSION / TYPE
CONVBIN demo5 b34c                      20220306 234958 UTC PGM / RUN BY / DATE 
log: 2022-02-25_00-00-00_GNSS-1.ubx                         COMMENT             
format: u-blox UBX, option: -TADJ=1                         COMMENT             
format: u-blox UBX                                          COMMENT             
log: 2022-02-25_00-00-00_GNSS-1.ubx                         COMMENT             
                                                            MARKER NAME         
                                                            MARKER NUMBER       
                                                            MARKER TYPE         
                                                            OBSERVER / AGENCY   
                                                            REC # / TYPE / VERS 
                                                            ANT # / TYPE        
  2078720.6329 -5683487.5402  2007608.6397                  APPROX POSITION XYZ 
        0.0000        0.0000        0.0000                  ANTENNA: DELTA H/E/N
G    4 C1C L1C C2X L2X                                      SYS / # / OBS TYPES 
R    4 C1C L1C C2C L2C                                      SYS / # / OBS TYPES 
E    4 C1X L1X C7X L7X                                      SYS / # / OBS TYPES 
C    2 C2I L2I                                              SYS / # / OBS TYPES 
    15.000                                                  INTERVAL            
  2022    02    25    13    00   00.0000000     GPS         TIME OF FIRST OBS   
  2022    02    25    18    00   00.0000000     GPS         TIME OF LAST OBS    
G L1C                                                       SYS / PHASE SHIFT   
G L2X  0.00000                                              SYS / PHASE SHIFT   
R L1C                                                       SYS / PHASE SHIFT   
R L2C                                                       SYS / PHASE SHIFT   
E L1X  0.00000                                              SYS / PHASE SHIFT   
E L7X  0.00000                                              SYS / PHASE SHIFT   
C L2I                                                       SYS / PHASE SHIFT   
 24 R01  1 R02 -4 R03  5 R04  6 R05  1 R06 -4 R07  5 R08  6 GLONASS SLOT / FRQ #
    R09 -2 R10 -7 R11  0 R12 -1 R13 -2 R14 -7 R15  0 R16 -1 GLONASS SLOT / FRQ #
    R17  4 R18 -3 R19  3 R20  2 R21  4 R22 -3 R23  3 R24  2 GLONASS SLOT / FRQ #
 C1C    0.000 C1P    0.000 C2C    0.000 C2P    0.000        GLONASS COD/PHS/BIS 
                                                            END OF HEADER       
> 2022 02 25 13 00 00.0000000  0 36                     
G03  25196898.745 2 132410618.10016  25196893.604 4 103177051.79116
E12  26743853.618 1 140539810.95314  26743850.709 1 107686333.61412
G23  24791094.112 1 130277998.24113  24791088.402 1 101515272.90012
G29  24174245.571 1 127036526.64512  24174238.500 1  98989472.81112
G26  20322332.680 1 106794583.54911  20322326.599 1  83216538.83511
G22  21270580.576 1 111777643.91311                                
C19  25036007.516 1 130369051.47812
C37  22907360.383 1 119284625.89511
C20  22053463.648 1 114838224.83111
C27  26042144.260 1 135608267.55012
C36  26321620.939 1 137063587.45312
R13  23016396.942 4 122906306.11315  23016390.124 2  95593748.90113
R11  20611082.239 1 110139374.87711  20611073.552 1  85663886.70311
R01  19341249.819 1 103390162.96311  19341243.488 1  80414476.86611
R02  22932172.912 1 122370565.66111  22932168.519 1  95177027.86412
R07  24282052.037 1 129983626.79812  24282046.647 1 101098328.40212
G21  25493278.840 8               9                                
G32  20894161.668 1 109799545.39811  20894153.591 1  85558121.67511
G25  22981255.920 1 120767300.57612  22981249.480 1  94104353.56512
G10  21970140.754 1 115453797.85111  21970134.361 1  89964029.22911
G31  21144131.321 1 111113142.62911  21144121.086 1  86581628.49511
G16  23060087.018 1 121181557.67711                                
C32  22694371.493 1 118175540.55511
C23  26595814.148 8               9
R08  20354890.469 1 108999497.57811  20354881.291 1  84777342.41911
R12  19813163.980 1 105838318.74811  19813156.688 1  82318759.38211
E19  25405849.638 1 133508720.15512  25405843.847 1 102298965.37812
E31  23637660.893 1 124216720.22211  23637657.732 1  95179050.51911
E01  24262803.979 1 127501910.79211  24262799.709 1  97696244.35011
E21  28301126.989 4 148723405.23116  28301122.301 1 113956910.93515
E20  27815543.804 2 146171659.89015                                
E18  29894922.376 1 157098834.69312  29894918.685 1 120374410.61111
E24  27290923.217 1 143414733.22212  27290920.036 1 109889237.20911
E09  25142122.264 1 132122711.54112  25142119.609 1 101236884.20811
E04  24036992.571 1 126315241.84411  24036986.737 1  96786986.96711
E10  28189566.167 2 148137196.50417  28189563.077 1 113507629.41514
> 2022 02 25 13 00 15.0000000  0 36                     
G03  25192236.234 1 132386120.869 4  25192231.492 2 103157963.064 5
E12  26751609.722 1 140580566.962 4  26751606.192 1 107717562.224 2
G23  24806161.874 1 130357178.976 2  24806156.184 1 101576972.077 2
G29  24176603.023 1 127048914.776 2  24176595.546 1  98999125.902 2
G26  20322126.428 1 106793500.355 1  20322120.259 1  83215694.792 1
G22  21271452.366 1 111782226.765 1                                
C19  25031979.938 1 130348081.317 2
C37  22917157.182 1 119335641.115 1
C20  22054440.140 1 114843310.410 1
C27  26043091.847 1 135613201.566 2
C36  26320113.834 1 137055740.866 2
R13  23012741.677 4 122886788.990 5  23012735.610 2  95578568.952 4
R11  20623811.790 1 110207396.486 1  20623802.903 1  85716792.375 1
R01  19341708.862 1 103392617.621 1  19341702.258 1  80416386.032 1
R02  22925665.001 1 122335837.201 1  22925659.984 1  95150016.873 1
R07  24296996.562 2 130063623.412 2  24296990.850 1 101160547.912 2
G21  25499693.596 8               9                                
G32  20897333.483 1 109816213.407 1  20897325.725 1  85571109.734 1
G25  22995322.830 1 120841221.288 2  22995316.126 1  94161954.122 1
G10  21983755.440 1 115525342.475 1  21983748.568 1  90019778.246 1
G31  21151111.715 1 111149824.666 1  21151101.472 1  86610211.912 1
G16  23054268.943 1 121150982.984 2                                
C32  22704160.684 1 118226515.884 1
C23  26607739.643 9               9
R08  20364792.498 1 109052522.634 1  20364783.034 1  84818584.113 1
R12  19816572.127 1 105856522.921 1  19816564.530 1  82332918.191 1
E19  25413463.693 1 133548732.816 2  25413458.187 1 102329624.399 2
E31  23639392.050 1 124225815.677 1  23639388.517 1  95186019.763 1
E01  24272242.608 1 127551511.102 1  24272238.174 1  97734249.779 1
E21  28313584.401 2 148788878.803 7  28313581.583 1 114007078.962 5
E20  27824736.767 2 146219962.872 5                                
E18  29893526.414 1 157091500.527 2  29893522.851 1 120368790.924 1
E24  27288077.584 1 143399778.076 2  27288074.292 1 109877778.098 1
E09  25140351.414 1 132113405.244 2  25140348.683 1 101229753.425 1
E04  24038462.737 1 126322968.489 1  24038456.995 1  96792907.388 1
E10  28198178.728 4 148182455.293 5  28198174.937 1 113542308.197 3
> 2022 02 25 13 00 30.0000000  0 35                     
G03  25187585.797 2 132361673.627 5  25187579.149 2 103138913.197 5
E12  26759352.480 1 140621253.965 4  26759348.789 1 107748737.923 2
G23  24821228.158 1 130436353.012 3  24821222.499 1 101638666.061 2
G29  24178975.552 1 127061383.368 2  24178968.107 1  99008841.707 2
G26  20321945.157 1 106792547.776 1  20321939.117 1  83214952.533 1
G22  21272329.554 1 111786836.716 1                                
C19  25027956.037 1 130327131.802 2
C37  22926959.489 1 119386684.499 1
C20  22055435.295 1 114848494.965 1
C27  26044027.958 1 135618078.255 2
C36  26318616.997 1 137047946.283 3
R13  23009104.236 4 122867367.764 4  23009099.402 2  95563463.573 3
R11  20636551.489 1 110275474.250 1  20636543.098 1  85769741.720 1
R01  19342195.218 1 103395219.927 1  19342189.027 1  80418410.047 1
R02  22919156.138 1 122301103.375 1  22919150.604 1  95123001.686 2
R07  24311951.762 1 130143679.803 2  24311945.883 1 101222813.846 1
G32  20900517.903 1 109832947.959 1  20900510.396 1  85584149.624 1
G25  23009400.647 1 120915201.220 1  23009394.400 1  94219600.797 1
G10  21997383.650 1 115596959.133 1  21997376.594 1  90075583.410 1
G31  21158097.340 1 111186536.706 1  21158087.524 1  86638818.698 1
G16  23048460.804 1 121120460.604 2                                
C32  22713968.629 1 118277588.006 1
C23  26619699.125 9               9
R08  20374723.447 1 109105701.528 1  20374713.182 1  84859945.448 1
R12  19820007.812 1 105874875.254 1  19820000.303 1  82347192.226 1
E19  25421089.459 1 133588805.978 2  25421083.757 1 102360329.785 2
E31  23641140.226 1 124235003.043 1  23641136.834 1  95193059.432 1
E01  24281693.757 1 127601178.283 1  24281689.353 1  97772306.439 1
E21  28326042.793 2 148854353.246 6  28326041.007 1 114057247.630 5
E20  27833937.119 2 146268318.840 5                                
E18  29892112.483 1 157084069.270 2  29892108.651 1 120363096.852 1
E24  27285239.490 1 143384865.370 2  27285236.279 1 109866351.478 1
E09  25138577.352 1 132104081.120 2  25138574.462 1 101222608.969 1
E04  24039940.378 1 126330731.976 1  24039934.466 1  96798856.032 1
E10  28206785.451 2 148227666.861 5  28206778.882 1 113576950.771 3
> 2022 02 25 13 00 45.0000000  0 35                     
G03  25182942.929 2 132337274.776 4  25182936.825 2 103119901.118 4
E12  26767081.409 1 140661869.891 4  26767077.895 1 107779859.161 2
G23  24836292.799 1 130515518.144 3  24836286.817 1 101700353.084 2
G29  24181362.993 1 127073930.674 1  24181355.435 1  99018618.828 2
G26  20321788.405 1 106791724.048 1  20321782.197 1  83214310.678 1
G22  21273211.601 1 111791472.130 1                                
C19  25023936.415 1 130306201.223 2
C37  22936766.432 1 119437753.910 1
C20  22056449.451 1 114853776.748 1
C27  26044953.163 1 135622895.933 2
C36  26317129.591 1 137040201.774 2
R13  23005485.462 4 122848040.592 5  23005480.807 2  95548431.354 3
R11  20649301.535 1 110343605.912 1  20649292.938 1  85822732.990 1
R01  19342709.545 1 103397968.356 1  19342703.243 1  80420547.726 1
R02  22912646.078 1 122266363.069 1  22912640.329 1  95095981.481 2
R07  24326917.840 2 130223793.590 3  24326912.107 2 101285124.505 3
G32  20903714.976 1 109849747.384 1  20903707.519 1  85597240.094 1
G25  23023489.397 1 120989238.004 2  23023483.080 1  94277291.763 2
G10  22011025.175 1 115668645.551 1  22011018.095 1  90131442.924 1
G31  21165089.082 1 111223276.604 1  21165078.629 1  86667447.172 1
G16  23042662.419 1 121089989.168 1                                
C32  22723794.477 1 118328754.891 1
C23  26631624.256 9               9
R08  20384682.782 1 109159032.048 1  20384672.180 1  84901424.719 1
R12  19823470.998 1 105893373.668 1  19823463.907 1  82361579.892 1
E19  25428726.200 1 133628937.748 2  25428720.867 1 102391080.092 2
E31  23642905.874 1 124244280.392 1  23642902.301 1  95200168.058 1
E01  24291157.664 1 127650910.201 1  24291152.866 1  97810412.708 1
E21  28338501.157 2 148919826.337 8  28338500.504 1 114107415.334 5
E20  27843149.840 2 146316726.177 5                                
E18  29890679.855 1 157076539.120 2  29890675.633 1 120357326.988 1
E24  27282410.201 1 143369993.273 2  27282406.299 1 109854956.008 1
E09  25136798.595 1 132094737.328 2  25136796.390 1 101215449.463 1
E04  24041424.705 1 126338530.534 1  24041418.530 1  96804831.548 1
E10  28215373.070 4 148272829.176 5  28215372.787 1 113611555.586 3
> 2022 02 25 13 01 00.0000000  0 35                     
G03  25178307.986 1 132312923.341 3  25178304.687 2 103100925.976 4
E12  26774796.437 1 140702413.376 4  26774792.896 1 107810924.918 2
G23  24851355.278 1 130594672.812 3  24851349.462 1 101762031.959 2
G29  24183765.426 1 127086555.823 2  24183757.776 1  99028456.615 2
G26  20321655.987 1 106791028.143 1  20321650.065 1  83213768.431 1
G22  21274098.133 1 111796132.056 1                                
C19  25019920.676 1 130285288.704 1
C37  22946578.767 1 119488847.933 1
C20  22057482.094 1 114859154.798 1
C27  26045866.798 1 135627653.553 2
C36  26315652.263 1 137032506.300 2
R13  23001883.950 4 122828806.814 5  23001879.457 2  95533471.758 3
R11  20662060.990 1 110411789.611 1  20662051.992 1  85875764.743 1
R01  19343251.370 1 103400862.127 1  19343244.543 1  80422798.415 1
R02  22906134.763 1 122231615.529 1  22906128.524 1  95068955.638 2
R07  24341894.309 1 130303963.442 1  24341888.738 1 101347478.704 2
G32  20906923.799 1 109866610.733 1  20906916.512 1  85610380.365 1
G25  23037588.628 1 121063330.122 2  23037582.266 1  94335025.833 1
G10  22024679.712 1 115740400.179 1  22024672.928 1  90187355.600 1
G31  21172085.764 1 111260043.022 1  21172075.138 1  86696096.331 1
G16  23036873.312 1 121059567.511 2                                
C32  22733638.702 1 118380015.249 1
C23  26643544.942 9               9
R08  20394670.350 1 109212513.458 1  20394659.784 1  84943021.358 1
R12  19826960.916 1 105912016.765 1  19826953.677 1  82376080.070 1
E19  25436373.593 1 133669127.128 2  25436368.466 1 102421874.520 2
E31  23644688.346 1 124253646.577 1  23644684.532 1  95207344.753 1
E01  24300633.825 1 127700705.432 1  24300628.432 1  97848567.491 1
E21  28350959.057 2 148985297.028 7  28350959.509 1 114157581.112 4
E20  27852371.038 2 146365183.645 6                                
E18  29889227.211 1 157068908.979 2  29889223.628 1 120351480.516 1
E24  27279588.039 1 143355160.807 2  27279583.805 1 109843590.882 1
E09  25135017.063 1 132085372.818 2  25135014.090 1 101208274.080 1
E04  24042915.189 1 126346363.181 1  24042909.055 1  96810833.191 1
E10  28223951.094 2 148317940.747 5  28223956.875 1 113646121.570 4
> 2022 02 25 13 01 15.0000000  0 35                     
G03  25173684.536 1 132288624.201 3  25173679.796 1 103081991.498 4
E12  26782498.899 1 140742888.850 4  26782495.561 1 107841938.554 2
G23  24866416.486 1 130673821.275 3  24866411.037 1 101823705.987 3
G29  24186183.753 1 127099263.658 2  24186176.275 1  99038358.826 2
G26  20321548.791 1 106790464.747 1  20321542.888 1  83213329.416 1
G22  21274990.528 1 111800821.172 1                                
C19  25015909.124 1 130264398.960 2
C37  22956396.547 1 119539970.823 1
C20  22058534.032 1 114864633.839 1
C27  26046770.223 1 135632355.790 2
C36  26314184.541 1 137024864.331 2
R13  22998300.634 4 122809670.926 5  22998294.246 2  95518588.262 3
R11  20674830.868 1 110480029.476 1  20674821.762 1  85928840.204 1
R01  19343821.018 1 103403906.216 1  19343813.972 1  80425166.032 1
R02  22899622.536 1 122196865.770 1  22899616.936 1  95041928.090 1
R07  24356882.200 1 130384193.342 2  24356876.513 1 101409879.662 2
G32  20910145.969 1 109883542.746 1  20910138.515 1  85623574.125 1
G25  23051699.253 1 121137481.705 2  23051693.192 1  94392806.261 1
G10  22038347.946 1 115812227.122 1  22038341.358 1  90243324.628 1
G31  21179087.970 1 111296840.197 1  21179077.471 1  86724769.459 1
G16  23031094.547 1 121029200.730 2                                
C32  22743501.647 1 118431373.421 1
C23  26655487.073 9               9
R08  20404686.877 1 109266149.746 1  20404676.165 1  84984738.451 1
R12  19830478.729 1 105930809.003 1  19830471.665 1  82390696.249 1
E19  25444033.088 1 133709378.484 3  25444028.087 1 102452716.457 2
E31  23646488.202 1 124263106.151 1  23646484.780 1  95214592.999 1
E01  24310122.537 1 127750568.292 1  24310117.244 1  97886774.093 1
E21  28363417.986 2 149050769.157 7  28363418.764 1 114207748.116 4
E20  27861601.923 2 146413695.619 5                                
E18  29887757.469 1 157061183.507 2  29887753.404 1 120345560.990 1
E24  27276773.516 1 143340372.648 2  27276769.650 1 109832259.704 1
E09  25133232.449 1 132075992.243 2  25133228.948 1 101201086.367 1
E04  24044413.057 1 126354234.635 1  24044406.944 1  96816864.555 1
E10                                  28232532.570 1 113680652.095 4
> 2022 02 25 13 01 30.0000000  0 35                     
G03  25169070.692 1 132264376.066 4  25169065.867 1 103063096.779 4
E12  26790187.565 1 140783294.643 5  26790184.436 1 107872898.771 2
G23  24881476.851 1 130752961.629 2  24881471.190 1 101885373.743 2
G29  24188617.538 1 127112052.844 1  24188609.994 1  99048324.423 2
G26  20321466.556 1 106790032.357 1  20321460.686 1  83212992.499 1
G22  21275888.124 1 111805538.176 1                                
C19  25011901.705 1 130243530.662 2
C37  22966219.448 1 119591120.784 1
C20  22059605.409 1 114870212.448 1
C27  26047662.526 1 135637001.224 2
C36  26312726.950 1 137017274.292 2
R13  22994734.653 4 122790631.358 5  22994728.220 2  95503779.759 3
R11  20687611.167 1 110548323.389 1  20687601.703 1  85981957.688 1
R01  19344418.466 1 103407099.432 1  19344411.549 1  80427649.641 1
R02  22893109.949 1 122162112.550 1  22893103.979 1  95014897.817 1
R07  24371880.816 2 130464481.501 2  24371874.981 2 101472325.909 3
G32  20913380.799 1 109900542.061 1  20913373.453 1  85636820.354 1
G25  23065820.694 1 121211690.791 2  23065814.967 1  94450631.487 1
G10  22052029.579 1 115884124.426 1  22052022.693 1  90299348.470 1
G31  21186095.610 1 111333666.512 1  21186085.238 1  86753465.278 1
G16  23025326.158 1 120998887.431 2                                
C32  22753383.025 1 118482827.685 1
C23  26667418.857 9               9
R08  20414731.633 1 109319939.278 1  20414720.653 1  85026574.750 1
R12  19834024.249 1 105949748.368 1  19834017.126 1  82405426.868 1
E19  25451704.170 1 133749690.422 3  25451699.160 1 102483604.822 2
E31  23648305.561 1 124272657.492 1  23648302.107 1  95221911.565 1
E01  24319624.055 1 127800496.975 1  24319618.445 1  97925031.120 1
E21  28375878.317 2 149116241.275 7  28375877.674 1 114257914.983 4
E20  27870842.285 2 146462260.564 6                                
E18  29886268.360 1 157053361.171 2  29886264.996 1 120339567.246 1
E24  27273967.807 1 143325627.317 2  27273963.712 1 109820961.363 1
E09  25131443.039 1 132066594.075 2  25131440.420 1 101193885.184 1
E04  24045918.137 1 126362143.436 1  24045912.030 1  96822924.546 1
E10                                  28241099.566 1 113715145.728 3
> 2022 02 25 13 01 45.0000000  0 34                     
G03  25164466.312 1 132240179.703 3  25164461.575 1 103044242.460 3
E12  26797862.843 1 140823630.969 5  26797860.202 1 107903805.794 2
G23  24896535.140 1 130832093.919 2  24896529.890 1 101947035.204 3
G29  24191066.623 1 127124924.035 2  24191059.398 1  99058353.947 2
G26  20321409.427 1 106789731.556 1  20321403.192 1  83212758.108 1
G22  21276791.400 1 111810283.661 1                                
C19  25007898.264 1 130222684.449 2
C37  22976047.797 1 119642297.943 1
C20  22060695.925 1 114875891.221 1
C27  26048543.378 1 135641590.439 2
C36  26311279.443 1 137009736.675 2
R13  22991187.922 2 122771688.931 4  22991180.919 2  95489046.778 3
R11  20700401.703 1 110616671.397 1  20700392.702 1  86035117.243 1
R01  19345043.963 1 103410442.357 1  19345036.951 1  80430249.695 1
R02  22886596.532 1 122127356.365 1  22886590.715 1  94987865.224 1
R07  24386889.983 2 130544827.955 3  24386884.618 1 101534817.419 2
G32  20916628.664 1 109917609.312 1  20916621.586 1  85650119.505 1
G25  23079953.523 1 121285957.409 2  23079947.508 1  94508501.539 1
G10  22065724.362 1 115956092.084 1  22065717.604 1  90355427.140 1
G31  21193108.936 1 111370521.902 1  21193098.583 1  86782183.757 1
G16  23019568.205 1 120968628.554 1                                
C32  22763282.749 1 118534378.303 1
R08  20424805.132 1 109373882.167 1  20424794.042 1  85068530.319 1
R12  19837597.190 1 105968835.191 1  19837590.398 1  82420272.191 1
E19  25459386.552 1 133790063.419 3  25459382.080 1 102514539.963 2
E31  23650140.556 1 124282301.037 1  23650137.369 1  95229300.776 1
E01  24329137.206 1 127850491.634 1  24329132.197 1  97963338.718 1
E21  28388339.107 2 149181713.534 7  28388336.415 1 114308081.959 4
E20  27880095.691 2 146510879.015 5                                
E18  29884761.301 1 157045442.502 2  29884758.204 1 120333499.702 1
E24  27271169.845 1 143310925.394 2  27271165.943 1 109809696.271 1
E09  25129651.065 1 132057178.875 2  25129649.039 1 101186670.944 1
E04  24047430.416 1 126370090.210 1  24047424.089 1  96829013.629 1
E10                                  28249657.380 1 113749602.608 3
> 2022 02 25 13 02 00.0000000  0 34                     
G03  25159870.366 1 132216030.639 4  25159866.368 1 103025424.994 3
E12  26805524.727 1 140863893.066 5  26805521.924 1 107934655.932 2
G23  24911590.888 1 130911213.160 2  24911585.563 1 102008686.458 2
G29  24193530.895 1 127137872.966 2  24193523.673 1  99068444.016 2
G26  20321376.609 1 106789557.762 1  20321369.900 1  83212622.686 1
G22  21277698.629 1 111815053.040 1                                
C19  25003898.255 1 130201855.903 2
C37  22985880.019 1 119693497.448 1
C20  22061805.116 1 114881665.711 1
C27  26049413.122 1 135646118.932 1
C36  26309841.017 1 137002246.820 2
R13  22987657.658 2 122752838.957 5  22987650.620 2  95474385.728 3
R11  20713201.018 1 110685068.249 1  20713192.512 1  86088314.768 1
R01  19345696.170 1 103413930.822 1  19345689.532 1  80432962.929 1
R02  22880081.407 1 122092593.014 1  22880075.729 1  94960827.079 1
R07  24401909.409 2 130625227.584 4  24401904.204 2 101597350.343 2
G32  20919888.372 1 109934740.012 1  20919881.363 1  85663468.095 1
G25  23094095.963 1 121360276.515 2  23094089.826 1  94566412.490 2
G10  22079431.664 1 116028125.008 1  22079425.824 1  90411556.668 1
G31  21200126.863 1 111407401.565 1  21200116.630 1  86810921.150 1
G16  23013819.778 1 120938419.728 2                                
C32  22773200.210 1 118586020.498 1
R08  20434906.460 1 109427973.721 1  20434895.062 1  85110601.506 1
R12  19841197.011 1 105988064.608 1  19841190.142 1  82435228.401 1
E19  25467080.176 1 133830492.635 3  25467075.643 1 102545518.162 2
E31  23651992.411 1 124292032.074 1  23651989.065 1  95236757.034 1
E01  24338662.570 1 127900547.379 1  24338657.442 1  98001693.106 1
E21  28400795.468 2 149247180.952 7  28400794.412 1 114358245.304 5
E20  27889357.682 2 146559546.017 6                                
E18  29883235.385 1 157037422.866 2  29883232.244 1 120327354.770 1
E24  27268378.976 1 143296262.338 2  27268375.630 1 109798460.960 1
E09  25127855.996 1 132047742.022 2  25127853.341 1 101179440.123 1
E04  24048948.915 1 126378070.402 1  24048942.807 1  96835128.322 1
E10                                  28258204.605 1 113784019.052 3
> 2022 02 25 13 02 15.0000000  0 35                     
G03  25155284.896 1 132191933.007 3  25155280.505 1 103006647.566 3
E12  26813172.906 1 140904084.559 4  26813170.005 1 107965451.945 2
G23  24926645.102 1 130990322.740 3  24926640.099 1 102070330.226 2
G29  24196010.644 1 127150903.490 2  24196003.182 1  99078597.644 3
G26  20321368.317 1 106789514.888 1  20321361.466 1  83212589.280 1
G22  21278611.819 1 111819850.520 1                                
C19  24999902.857 1 130181049.007 2
C37  22995716.959 1 119744722.803 1
C20  22062933.648 1 114887539.838 1
C27  26050272.549 1 135650590.592 2
C30  26972090.045 1 140450756.01211
C36  26308412.675 1 136994808.484 2
R13  22984144.855 2 122734085.374 5  22984139.120 2  95459799.624 3
R11  20726010.307 1 110753517.079 1  20726001.734 1  86141552.727 1
R01  19346376.643 1 103417568.907 1  19346370.513 1  80435792.544 1
R02  22873565.919 1 122057826.861 1  22873561.015 1  94933786.743 1
R07  24416939.886 2 130705683.960 2  24416934.445 2 101659927.389 2
G32  20923161.107 1 109951938.169 1  20923154.170 1  85676869.243 1
G25  23108249.377 1 121434651.449 2  23108242.833 1  94624366.935 2
G10  22093152.588 1 116100226.610 1  22093146.426 1  90467739.683 1
G31  21207150.406 1 111444309.071 1  21207140.153 1  86839680.234 1
G16  23008081.631 1 120908264.916 1                                
C32  22783135.806 1 118637757.850 1
R08  20445036.289 1 109482217.530 1  20445025.005 1  85152791.118 1
R12  19844824.220 1 106007440.027 1  19844817.267 1  82450298.182 1
E19  25474785.398 1 133870982.080 2  25474780.688 1 102576542.534 2
E31  23653861.334 1 124301854.393 1  23653858.302 1  95244283.236 1
E01  24348199.840 1 127950667.729 1  24348195.187 1  98040097.010 1
E21  28413250.988 2 149312647.051 7  28413251.843 1 114408407.629 5
E20  27898627.491 4 146608265.454 7                                
E18  29881690.807 1 157029306.144 2  29881687.730 1 120321135.451 1
E24  27265597.004 1 143281642.072 2  27265593.626 1 109787258.425 1
E09  25126056.932 1 132038287.453 2  25126054.043 1 101172195.699 1
E04  24050474.790 1 126386087.969 1  24050468.318 1  96841271.650 1
E10                                  28266742.000 1 113818397.733 3
> 2022 02 25 13 02 30.0000000  0 35                     
G03  25150710.032 1 132167887.848 2  25150704.447 1 102987911.031 3
E12  26820808.097 1 140944205.969 4  26820805.040 1 107996194.264 2
G23  24941697.243 1 131069423.064 3  24941692.766 1 102131966.763 2
G29  24198505.843 1 127164016.648 1  24198498.873 1  99088815.706 2
G26  20321385.170 1 106789603.738 1  20321378.477 1  83212658.518 1
G22  21279530.234 1 111824676.838 1                                
C19  24995911.715 1 130160264.660 2
C37  23005559.040 1 119795974.379 1
C20  22064080.621 1 114893514.451 1
C27  26051120.436 1 135655006.289 2
C30  26974536.074 8 140463487.41536
C36  26306994.713 1 136987422.390 2
R13  22980650.521 4 122715429.275 5  22980645.423 2  95445289.346 3
R11  20738829.319 1 110822018.293 1  20738820.813 1  86194831.446 1
R01  19347085.389 1 103421357.903 1  19347079.471 1  80438739.540 1
R02  22867050.621 1 122023058.840 1  22867045.749 1  94906744.960 1
R07  24431980.431 2 130786197.305 3  24431974.862 2 101722548.773 3
G32  20926446.925 1 109969204.647 1  20926440.024 1  85690323.642 1
G25  23122412.951 1 121509082.503 2  23122406.583 1  94682365.108 2
G10  22106886.134 1 116172397.102 1  22106879.574 1  90523976.399 1
G31  21214178.922 1 111481244.697 1  21214169.117 1  86868461.240 1
G16  23002353.157 1 120878165.074 1                                
C32  22793089.642 1 118689590.867 1
R08  20455194.474 1 109536614.249 1  20455183.817 1  85195099.670 1
R12  19848478.815 1 106026962.048 1  19848471.575 1  82465481.977 1
E19  25482502.292 1 133911532.441 2  25482497.249 1 102607613.564 2
E31  23655748.170 1 124311768.650 1  23655744.865 1  95251879.874 1
E01  24357749.981 1 128000853.155 1  24357745.038 1  98078550.754 1
E21  28425710.496 2 149378112.384 8  28425709.642 1 114458569.367 5
E20  27907907.028 4 146657037.832 7                                
E18  29880128.511 1 157021093.073 2  29880124.932 1 120314842.323 1
E24  27262823.295 1 143267065.385 2  27262819.779 1 109776089.283 1
E09  25124254.097 1 132028815.846 2  25124251.643 1 101164938.249 1
E04  24052007.270 1 126394143.760 1  24052001.225 1  96847444.263 1
E10  28275274.963 4 148587540.39015  28275271.215 1 113852739.072 3
> 2022 02 25 13 02 45.0000000  0 35                     
G03  25146144.905 1 132143895.355 2  25146138.833 1 102969215.561 3
E12  26828430.774 1 140984257.161 4  26828426.586 1 108026882.786 2
G23  24956747.774 1 131148513.782 3  24956743.400 1 102193595.789 2
G29  24201017.077 1 127177212.769 2  24201009.774 1  99099098.408 3
G26  20321426.904 1 106789824.391 1  20321420.557 1  83212830.457 1
G22  21280454.404 1 111829532.305 1                                
C19  24991924.790 1 130139503.129 2
C37  23015406.515 1 119847251.952 1
C20  22065247.395 1 114899589.734 1
C27  26051957.528 1 135659366.118 2
C30  26976968.140 1 140476146.612 2
C36  26305586.552 1 136980088.518 2
R13  22977174.619 4 122696870.794 5  22977170.470 2  95430854.985 3
R11  20751658.118 1 110890571.212 1  20751649.370 1  86248150.372 1
R01  19347822.275 1 103425297.936 1  19347816.146 1  80441804.016 1
R02  22860534.543 1 121988289.309 1  22860529.497 1  94879702.012 2
R07  24447030.973 1 130866767.800 2  24447026.478 2 101785214.608 2
G32  20929745.875 1 109986539.663 1  20929738.306 1  85703831.435 1
G25  23136587.620 1 121583569.249 2  23136580.871 1  94740406.718 2
G10  22120632.618 1 116244636.090 1  22120626.418 1  90580266.489 1
G31  21221212.908 1 111518208.466 1  21221203.122 1  86897264.156 1
G16  22996636.069 1 120848120.590 1                                
C32  22803062.083 1 118741519.389 1
R08  20465380.606 1 109591163.650 1  20465370.930 1  85237526.956 1
R12  19852160.843 1 106046630.351 1  19852153.499 1  82480779.546 1
E19  25490230.133 1 133952143.582 3  25490225.221 1 102638731.180 2
E31  23657652.256 1 124321774.825 1  23657648.859 1  95259546.943 1
E01  24367312.271 1 128051103.354 1  24367307.282 1  98117054.139 1
E21  28438166.638 2 149443576.764 8  28438166.861 1 114508730.254 6
E20  27917197.771 4 146705863.250 7                                
E18  29878547.031 1 157012783.728 2  29878543.810 1 120308475.438 1
E24  27260057.948 1 143252532.417 2  27260054.299 1 109764953.645 1
E09  25122448.358 1 132019327.353 2  25122445.909 1 101157667.865 1
E04  24053547.115 1 126402237.890 1  24053541.565 1  96853646.266 1
E10  28283791.640 2 148632309.810 6  28283790.415 1 113887042.883 3
> 2022 02 25 13 03 00.0000000  0 36                     
G03  25141588.732 1 132119957.780 3  25141583.654 1 102950562.924 3
E12  26836039.931 1 141024239.953 3  26836035.194 1 108057518.902 2
G23  24971797.154 1 131227596.516 3  24971792.620 1 102255218.611 3
G29  24203544.078 1 127190493.767 2  24203536.864 1  99109447.259 2
G26  20321494.219 1 106790178.968 1  20321488.209 1  83213106.753 1
G22  21281384.434 1 111834419.290 1                                
C19  24987942.660 1 130118766.567 1
C37  23025259.087 1 119898557.235 1
C20  22066433.545 1 114905767.790 1
C27  26052784.467 1 135663672.253 2
C30  26979383.391 1 140488725.166 2
C36  26304187.870 1 136972808.851 2
R13  22973717.975 4 122678411.837 5  22973713.690 2  95416498.046 3
R11  20764497.042 1 110959177.470 1  20764488.808 1  86301510.781 1
R01  19348587.899 1 103429391.401 1  19348582.090 1  80444987.827 1
R02  22854019.046 1 121953520.995 1  22854013.669 1  94852660.004 2
R07  24462092.977 2 130947396.257 3  24462088.775 2 101847925.495 3
G32  20933057.979 1 110003945.383 1  20933050.688 1  85717394.339 1
G25  23150772.896 1 121658113.361 2  23150766.274 1  94798492.974 2
G10  22134393.089 1 116316945.166 1  22134386.242 1  90636611.190 1
G31  21228252.359 1 111555202.126 1  21228242.505 1  86926090.380 1
G16  22990929.628 1 120818133.800 2                                
C32  22813052.913 1 118793545.198 1
C23  26738748.167 9               9
R08  20475595.945 1 109645867.510 1  20475586.517 1  85280074.391 1
R12  19855870.596 1 106066446.796 1  19855863.052 1  82496192.332 1
E19  25497969.602 1 133992817.656 2  25497965.388 1 102669896.998 2
E31  23659574.433 1 124331874.884 1  23659570.938 1  95267285.946 1
E01  24376887.112 1 128101420.068 1  24376882.201 1  98155608.494 1
E21  28450624.040 4               9  28450624.297 1 114558891.718 5
E20  27926500.858 2 146754743.733 7                                
E18  29876948.306 1 157004380.215 2  29876944.718 1 120302036.368 1
E24  27257301.002 1 143238045.284 2  27257297.337 1 109753853.125 1
E09  25120640.798 1 132009824.079 2  25120637.548 1 101150386.137 1
E04  24055095.326 1 126410372.541 1  24055089.723 1  96859879.310 1
E10  28292294.986 2 148677032.057 7  28292300.777 1 113921310.518 3
> 2022 02 25 13 03 15.0000000  0 36                     
G03  25137043.342 1 132096075.073 3  25137038.735 1 102931953.016 3
E12  26843634.845 1 141064153.886 3  26843630.285 1 108088102.254 2
G23  24986844.777 1 131306670.569 3  24986839.528 1 102316834.670 2
G29  24206087.709 1 127203859.588 1  24206080.304 1  99119862.170 2
G26  20321587.144 1 106790667.188 1  20321581.081 1  83213487.196 1
G22  21282319.823 1 111839337.388 1                                
C19  24983964.861 1 130098054.818 1
C37  23035116.931 1 119949889.584 1
C20  22067639.610 1 114912048.433 1
C27  26053600.783 1 135667924.459 2
C30  26981783.902 1 140501222.129 3
C36  26302799.902 1 136965583.003 2
R13  22970281.023 2 122660052.238 4  22970276.259 2  95402218.369 3
R11  20777345.795 1 111027836.138 1  20777337.616 1  86354911.950 1
R01  19349382.587 1 103433638.361 1  19349376.769 1  80448291.008 1
R02  22847503.497 1 121918753.433 1  22847498.916 1  94825618.585 1
R07  24477166.171 2 131028082.111 6  24477161.906 2 101910681.683 3
G32  20936383.577 1 110021421.665 1  20936376.286 1  85731012.233 1
G25  23164968.689 1 121732713.990 2  23164962.184 1  94856623.295 2
G10  22148166.289 1 116389323.499 1  22148159.887 1  90693009.866 1
G31  21235297.597 1 111592224.959 1  21235287.449 1  86954939.320 1
G16  22985234.374 1 120788204.622 2                                
C32  22823062.816 1 118845667.770 1
C23  26750643.339 8               9
R08  20485840.739 1 109700725.536 1  20485830.900 1  85322741.730 1
R12  19859607.721 1 106086410.753 1  19859600.252 1  82511719.870 1
E19  25505722.074 1 134033554.190 2  25505717.520 1 102701110.692 2
E31  23661514.223 1 124342068.416 1  23661510.685 1  95275096.584 1
E01  24386474.661 1 128151802.718 1  24386469.604 1  98194213.374 1
E21  28463080.676 8               9  28463081.771 1 114609053.417 6
E20  27935813.245 2 146803678.562 5                                
E18  29875330.504 1 156995882.182 2  29875327.517 1 120295524.908 1
E24  27254552.988 1 143223603.717 2  27254549.143 1 109742787.509 1
E09  25118829.877 1 132000305.698 2  25118826.281 1 101143092.820 1
E04  24056651.210 1 126418547.471 1  24056645.261 1  96866143.211 1
E10  28300794.811 2 148721706.426 5  28300801.998 1 113955541.536 3
> 2022 02 25 13 03 30.0000000  0 37                     
G03  25132508.816 1 132072243.367 3  25132504.281 1 102913382.836 2
E12  26851215.808 1 141103994.686 3  26851211.842 1 108118629.577 2
G23  25001889.907 1 131385731.485 3  25001884.397 1 102378440.453 2
G29  24208646.535 1 127217306.360 2  24208638.840 1  99130340.168 2
G26  20321705.011 1 106791285.042 1  20321698.921 1  83213968.640 1
G22  21283260.973 1 111844282.703 1                                
C19  24979991.183 1 130077364.023 1
C37  23044978.826 1 120001244.667 1
C20  22068864.672 1 114918427.727 1
C27  26054406.390 1 135672118.729 2
C30  26984167.744 1 140513633.425 2
C36  26301421.935 1 136958406.871 2
R13  22966860.492 2 122641788.017 4  22966854.242 2  95388012.883 3
R11  20790203.451 1 111096542.546 1  20790194.911 1  86408350.246 1
R01  19350205.297 1 103438034.886 1  19350198.830 1  80451710.532 1
R02  22840987.422 1 121883983.042 1  22840982.839 1  94798574.992 1
R07  24492249.292 2 131108821.430 4  24492244.262 1 101973478.794 2
G32  20939721.994 1 110038964.575 1  20939714.539 1  85744682.022 1
G25  23179174.825 1 121807366.625 2  23179168.153 1  94914794.155 2
G10  22161951.665 1 116461766.596 1  22161945.053 1  90749458.997 1
G31  21242347.760 1 111629272.720 1  21242337.216 1  86983807.701 1
G16  22979549.485 1 120758329.300 2                                
C32  22833090.277 1 118897882.839 1
C23  26762512.414 9               9
R08  20496113.177 1 109755732.987 1  20496103.279 1  85365525.269 1
R12  19863372.055 1 106106517.655 1  19863364.607 1  82527358.555 1
E19  25513485.002 1 134074349.145 3  25513480.570 1 102732369.126 2
E31  23663470.913 1 124352351.303 1  23663467.561 1  95282975.673 1
G01  25528210.767 9               9                                
E01  24396073.698 1 128202246.893 1  24396068.828 1  98232865.386 1
E21  28475543.337 8               9  28475538.697 1 114659211.779 7
E20  27945135.531 2 146852663.905 6                                
E18  29873695.031 1 156987285.590 2  29873691.608 1 120288937.908 1
E24  27251813.313 1 143209203.711 2  27251808.968 1 109731753.746 1
E09  25117014.733 1 131990768.151 2  25117011.582 1 101135784.846 1
E04  24058213.406 1 126426758.715 1  24058207.671 1  96872434.940 1
E10  28309293.246 2 148766328.686 6  28309293.956 1 113989732.572 3
> 2022 02 25 13 03 45.0000000  0 36                     
G03  25127983.076 1 132048467.630 3  25127980.645 1 102894856.284 2
E12  26858783.912 1 141143766.971 4  26858780.233 1 108149104.388 2
G23  25016932.897 1 131464783.588 2  25016927.614 1 102440039.428 2
G29  24211221.445 1 127230839.170 2  24211214.260 1  99140885.244 2
G26  20321848.087 1 106792037.373 1  20321841.929 1  83214554.877 1
G22  21284208.351 1 111849260.079 1                                
C19  24976022.192 1 130056699.110 1
C37  23054846.733 1 120052626.941 1
C20  22070110.012 1 114924910.544 1
C27  26055201.588 1 135676259.958 2
C30  26986534.529 1 140525964.045 2
C36  26300054.631 1 136951285.162 1
R13  22963458.760 2 122623623.997 4  22963452.240 2  95373885.373 3
R11  20803071.049 1 111165301.051 1  20803062.217 1  86461829.071 1
R01  19351057.097 1 103442586.227 1  19351049.986 1  80455250.439 1
R02  22834472.254 1 121849214.923 1  22834467.193 1  94771533.175 1
R07  24507343.513 2 131189619.211 2  24507338.415 2 102036320.727 2
G32  20943073.506 1 110056579.048 1  20943066.061 1  85758407.583 1
G25  23193391.229 1 121882075.605 2  23193384.952 1  94973008.896 2
G10  22175750.060 1 116534278.749 1  22175743.701 1  90805961.938 1
G31  21249403.395 1 111666349.732 1  21249392.818 1  87012698.873 1
G16  22973875.282 1 120728512.874 2                                
C32  22843135.861 1 118950194.974 1
C23  26774383.096 9               9
R08  20506413.947 1 109810894.564 1  20506404.168 1  85408428.689 1
R12  19867163.697 1 106126772.285 1  19867156.423 1  82543112.159 1
E19  25521260.012 1 134115207.410 2  25521255.711 1 102763676.100 2
E31  23665445.593 1 124362728.225 1  23665442.140 1  95290926.830 1
E01  24405685.204 1 128252757.102 1  24405680.802 1  98271568.011 1
E21  28487999.290 8               9  28487996.114 1 114709370.448 6
E20  27954466.805 4               9                                
E18  29872041.564 1 156978595.288 2  29872037.972 1 120282279.098 1
E24  27249082.045 1 143194850.175 2  27249077.772 1 109720755.594 1
E09  25115196.778 1 131981216.326 2  25115194.152 1 101128465.932 1
E04  24059783.787 1 126435011.157 1  24059778.025 1  96878758.239 1
E10  28317774.701 2 148810903.362 6  28317776.071 1 114023887.142 3
> 2022 02 25 13 04 00.0000000  0 36                     
G03  25123469.137 1 132024746.153 3  25123466.796 1 102876372.041 2
E12  26866338.171 1 141183468.429 4  26866335.573 1 108179524.971 2
G23  25031974.095 1 131543824.545 2  25031968.675 1 102501629.694 2
G29  24213812.964 1 127244456.065 2  24213805.379 1  99151495.810 2
G26  20322016.376 1 106792922.195 1  20322010.389 1  83215244.358 1
G22  21285161.205 1 111854267.788 1                                
C19  24972058.436 1 130036058.252 2
C37  23064718.410 1 120104034.077 1
C20  22071374.519 1 114931495.016 1
C27  26055986.364 1 135680346.263 2
C30  26988886.976 1 140538211.844 4
C36  26298696.788 1 136944215.829 2
R13  22960076.857 2 122605558.414 5  22960069.293 2  95359834.352 4
R11  20815947.300 1 111234108.905 1  20815938.989 1  86515346.261 1
R01  19351936.735 1 103447290.643 1  19351929.732 1  80458909.425 1
R02  22827956.796 1 121814447.271 1  22827951.602 1  94744491.694 1
R07  24522446.019 8               9  24522442.608 4 102099205.622 6
G32  20946438.850 1 110074263.229 1  20946431.182 1  85772187.460 1
G25  23207618.120 1 121956838.453 2  23207611.795 1  95031265.617 2
G10  22189562.006 1 116606857.471 1  22189554.891 1  90862516.763 1
G31  21256463.994 1 111703453.822 1  21256453.719 1  87041611.138 1
G16  22968212.305 1 120698753.629 1                                
C32  22853200.160 1 119002601.900 1
C23  26786233.350 9               9
R08  20516743.615 1 109866208.278 1  20516733.380 1  85451450.444 1
R12  19870982.456 1 106147172.137 1  19870975.455 1  82558978.705 1
E19  25529046.738 1 134156126.577 2  25529042.308 1 102795029.740 2
E31  23667437.912 1 124373197.132 1  23667434.301 1  95298948.463 1
E01  24415309.396 1 128303331.033 1  24415304.713 1  98310319.445 1
E21  28500459.475 9               9  28500453.256 1 114759527.591 7
E20  27963807.997 2 146950797.298 7                                
E18  29870368.874 1 156969809.217 2  29870366.079 1 120275546.916 1
E24  27246358.473 1 143180541.128 2  27246354.841 1 109709791.544 1
E09  25113376.280 1 131971648.215 2  25113373.131 1 101121134.538 1
E04  24061361.871 1 126443302.884 1  24061355.919 1  96885111.638 1
E10  28326253.743 4 148855428.193 6  28326249.026 1 114058003.503 3
> 2022 02 25 13 04 15.0000000  0 36                     
G03  25118966.615 1 132001079.897 2  25118962.797 1 102857930.812 2
E12  26873880.227 1 141223099.600 4  26873877.209 1 108209891.644 2
G23  25047013.345 1 131622854.620 2  25047007.560 1 102563211.512 2
G29  24216420.138 1 127258157.966 2  24216412.954 1  99162172.584 2
G26  20322210.123 1 106793940.265 1  20322203.975 1  83216037.675 1
G22  21286120.379 1 111859306.822 1                                
C19  24968099.488 1 130015442.378 2
C37  23074595.488 1 120155466.465 1
C20  22072658.750 1 114938181.909 1
C27  26056760.860 1 135684378.407 2
C30  26991223.667 1 140550377.640 2
C36  26297348.955 1 136937199.538 2
R13  22956712.630 2 122587591.929 4  22956705.072 2  95345860.488 3
R11  20828833.306 1 111302966.562 1  20828824.510 1  86568902.193 1
R01  19352845.637 1 103452149.097 1  19352838.698 1  80462688.232 1
R02  22821441.998 1 121779681.387 1  22821436.055 1  94717451.570 2
R07  24537560.227 1 131351481.33211  24537556.673 1 102162133.775 1
G32  20949817.323 1 110092017.931 1  20949809.651 1  85786022.286 1
G25  23221855.395 1 122031655.405 2  23221848.808 1  95089564.502 2
G10  22203385.779 1 116679503.007 1  22203378.751 1  90919123.645 1
G31  21263529.697 1 111740585.297 1  21263519.674 1  87070544.741 1
G16  22962560.522 1 120669052.397 2                                
C32  22863282.434 1 119055104.104 1
C23  26798100.250 9               9
R08  20527101.444 1 109921674.640 1  20527091.678 1  85494590.927 1
R12  19874828.833 1 106167717.702 1  19874821.550 1  82574958.597 1
E19  25536845.450 1 134197107.570 2  25536840.589 1 102826430.729 2
E31  23669447.637 1 124383758.627 1  23669444.172 1  95307041.043 1
E01  24424945.448 1 128353969.055 1  24424940.829 1  98349119.998 1
E20  27973159.440 4 146999944.059 7                                
E18  29868678.840 1 156960928.116 2  29868675.994 1 120268741.936 1
E24  27243643.890 1 143166277.352 2  27243640.555 1 109698862.154 1
E09  25111552.416 1 131962064.563 2  25111549.274 1 101113791.219 1
E04  24062947.313 1 126451634.699 1  24062941.177 1  96891495.752 1
E10  28334714.068 2 148899903.462 6  28334712.254 1 114092081.959 3
E21                                  28512910.229 1 114809683.576 7
> 2022 02 25 13 04 30.0000000  0 36                     
G03  25114474.537 1 131977469.332 3  25114469.593 1 102839532.957 3
E12  26881408.237 1 141262660.599 4  26881405.640 1 108240204.569 2
G23  25062050.119 1 131701873.766 3  25062044.625 1 102624784.776 2
G29  24219043.548 1 127271945.329 2  24219036.623 1  99172915.992 2
G26  20322429.390 1 106795091.934 1  20322422.952 1  83216935.082 1
G22  21287085.555 1 111864377.590 1                                
C19  24964145.291 1 129994851.889 1
C37  23084477.742 1 120206924.070 1
C20  22073962.954 1 114944971.652 1
C27  26057525.189 1 135688356.828 2
C30  26993544.038 1 140562461.417 3
C36  26296012.148 1 136930236.509 2
R13  22953366.643 2 122569725.099 4  22953358.814 2  95331964.032 3
R11  20841727.852 1 111371873.431 1  20841719.711 1  86622496.401 1
R01  19353783.224 1 103457162.080 1  19353776.599 1  80466587.208 1
R02  22814927.290 1 121744917.296 1  22814921.129 1  94690412.844 2
R07  24552685.252 4 131432444.391 5  24552681.749 4 102225104.738 6
G32  20953209.642 1 110109843.626 1  20953201.829 1  85799912.422 1
G25  23236103.159 1 122106526.339 1  23236096.698 1  95147905.475 2
G10  22217221.962 1 116752215.149 1  22217215.219 1  90975782.431 1
G31  21270601.040 1 111777744.302 1  21270590.771 1  87099499.789 1
G16  22956919.342 1 120639409.808 2                                
C32  22873383.087 1 119107701.669 1
C23  26809928.827 9               9
R08  20537487.508 1 109977293.383 1  20537478.421 1  85537849.927 1
R12  19878702.135 1 106188408.977 1  19878694.850 1  82591051.803 1
E19  25544655.334 1 134238150.602 2  25544650.921 1 102857879.268 2
E31  23671475.069 1 124394412.914 1  23671471.457 1  95315204.718 1
E01  24434594.002 1 128404671.167 1  24434589.081 1  98387969.646 1
E20  27982524.259 4 147049144.537 6                                
E18  29866970.649 1 156951952.346 2  29866967.987 1 120261864.402 1
E24  27240937.990 1 143152059.187 2  27240934.901 1 109687967.729 1
E09  25109725.507 1 131952465.687 2  25109723.064 1 101106436.258 1
E04  24064540.674 1 126460006.993 1  24064534.344 1  96897910.881 1
E10  28343160.147 2 148944329.317 7  28343166.179 1 114126122.553 3
E21                                  28525366.008 1 114859838.411 8
> 2022 02 25 13 04 45.0000000  0 35                     
G03  25109991.699 1 131953915.125 2  25109987.094 1 102821179.011 2
E12  26888923.836 1 141302151.817 4  26888920.689 1 108270464.011 2
G23  25077084.897 1 131780882.028 3  25077079.460 1 102686349.543 2
G29  24221683.446 1 127285818.953 1  24221676.078 1  99183726.624 2
G26  20322673.867 1 106796377.675 1  20322667.484 1  83217936.967 1
G22  21288056.879 1 111869480.522 1                                
C19  24960196.220 1 129974287.450 1
C37  23094364.383 1 120258407.074 1
C20  22075287.059 1 114951864.804 1
C27  26058278.587 1 135692282.003 2
C30  26995848.290 1 140574462.805 2
C36  26294685.282 1 136923327.122 2
R13  22950038.911 2 122551958.152 4  22950031.560 2  95318145.306 3
R11  20854632.023 1 111440829.517 1  20854623.794 1  86676128.911 1
R01  19354750.157 1 103462330.419 1  19354743.611 1  80470607.031 1
R02  22808412.731 1 121710156.761 1  22808407.144 1  94663376.910 1
R07  24567820.955 2 131513467.40112  24567816.298 2 102288227.37313
G32  20956615.408 1 110127740.880 1  20956607.433 1  85813858.334 1
G25  23250360.755 1 122181451.227 1  23250354.424 1  95206288.467 2
G10  22231071.603 1 116824993.934 1  22231064.349 1  91032493.133 1
G31  21277677.610 1 111814930.908 1  21277666.976 1  87128476.355 1
G16  22951289.764 1 120609826.480 2                                
C32  22883502.086 1 119160394.798 1
R08  20547902.412 1 110033064.839 1  20547893.348 1  85581227.694 1
R12  19882602.692 1 106209246.204 1  19882595.605 1  82607258.547 1
E19  25552477.788 1 134279256.040 3  25552473.255 1 102889375.623 2
E31  23673520.394 1 124405160.380 1  23673516.629 1  95323439.791 1
E01  24444254.707 1 128455437.518 1  24444249.686 1  98426868.531 1
E20  27991899.906 2 147098399.064 5                                
E18  29865245.325 1 156942882.361 2  29865241.909 1 120254914.675 1
E24  27238241.270 1 143137887.170 2  27238238.322 1 109677108.670 1
E09  25107896.028 1 131942852.122 2  25107893.776 1 101099070.033 1
E04  24066141.422 1 126468420.324 1  24066135.371 1  96904357.458 1
E10  28351611.852 2 148988706.071 7  28351610.589 1 114160125.411 3
E21                                  28537821.541 2               9
> 2022 02 25 13 05 00.0000000  0 35                     
G03  25105520.491 1 131930416.059 2  25105515.603 1 102802868.039 2
E12  26896425.110 1 141341571.396 3  26896421.714 1 108300668.594 2
G23  25092117.492 1 131859877.387 3  25092112.194 1 102747904.274 2
G29  24224339.946 1 127299777.451 2  24224332.181 1  99194603.356 2
G26  20322943.965 1 106797796.033 1  20322937.491 1  83219042.178 1
G22  21289033.791 1 111874614.290 1                                
C19  24956251.469 1 129953747.679 1
C37  23104255.546 1 120309913.649 1
C20  22076630.251 1 114958859.964 1
C27  26059021.654 1 135696152.593 3
C30  26998137.295 1 140586381.559 4
C36  26293368.372 1 136916469.850 2
R13  22946730.086 2 122534290.023 4  22946722.876 2  95304403.456 3
R11  20867545.132 1 111509832.737 1  20867536.927 1  86729798.048 1
R01  19355746.041 1 103467653.013 1  19355739.327 1  80474746.835 1
R02  22801898.955 1 121675397.531 1  22801893.366 1  94636341.988 1
R07  24582966.523 1 131594539.814 1  24582961.533 1 102351283.412 1
G32  20960034.375 1 110145708.354 1  20960026.725 1  85827858.955 1
G25  23264628.531 1 122256428.094 1  23264621.996 1  95264711.974 2
G10  22244933.442 1 116897837.352 1  22244925.805 1  91089254.210 1
G31  21284758.739 1 111852143.431 1  21284748.171 1  87157473.135 1
G16  22945670.956 1 120580301.278 2                                
C32  22893639.299 1 119213181.782 1
R08  20558345.032 1 110088987.205 1  20558336.351 1  85624722.848 1
R12  19886530.550 1 106230227.348 1  19886523.320 1  82623577.214 1
E19  25560311.238 1 134320422.368 3  25560306.809 1 102920918.643 2
E31  23675582.698 1 124415999.409 1  23675579.236 1  95331745.029 1
E01  24453927.190 1 128506266.287 1  24453921.923 1  98465815.242 1
E20  28001282.769 2 147147706.040 5                                
E18  29863500.776 1 156933716.627 2  29863497.772 1 120247891.583 1
E24  27235552.750 1 143123759.871 2  27235549.622 1 109666283.856 1
E09  25106064.156 1 131933222.349 2  25106061.196 1 101091691.400 1
E04  24067749.906 1 126476873.265 1  24067743.857 1  96910834.376 1
E10  28360042.992 2 149033031.685 5  28360045.022 1 114194089.171 3
E21                                  28550276.409 4               9
> 2022 02 25 13 05 15.0000000  0 35                     
G03  25101059.800 1 131906972.109 3  25101054.738 1 102784600.032 2
E12  26903912.770 1 141380919.082 4  26903909.411 1 108330818.081 2
G23  25107146.946 1 131938859.424 3  25107142.071 1 102809448.633 2
G29  24227012.578 1 127313820.742 2  24227004.574 1  99205546.182 3
G26  20323238.642 1 106799346.905 1  20323232.471 1  83220250.664 1
G22  21290016.363 1 111879779.057 1                                
C19  24952311.238 1 129933232.602 2
C37  23114151.231 1 120361443.352 1
C20  22077993.357 1 114965957.109 1
C27  26059754.148 1 135699968.469 2
C30  27000409.983 1 140598216.951 2
C36  26292061.328 1 136909664.493 2
R13  22943439.216 4 122516720.464 5  22943431.888 2  95290738.278 3
R11  20880466.939 1 111578882.409 1  20880458.929 1  86783503.343 1
R01  19356770.576 1 103473129.806 1  19356764.170 1  80479006.535 1
R02  22795385.803 1 121640640.717 1  22795380.297 1  94609308.932 1
R07  24598121.875 1 131675670.73512  24598117.146 1 102414381.039 1
G32  20963467.005 1 110163746.035 1  20963459.253 1  85841914.283 1
G25  23278905.910 1 122331456.351 1  23278899.586 1  95323175.523 2
G10  22258807.324 1 116970744.749 1  22258799.804 1  91146065.156 1
G31  21291844.971 1 111889381.316 1  21291834.664 1  87186489.659 1
G16  22940064.164 1 120550834.407 1                                
C32  22903794.370 1 119266062.226 1
R08  20568816.633 1 110145060.422 1  20568806.893 1  85668335.329 1
R12  19890484.976 1 106251352.022 1  19890477.935 1  82640007.526 1
E19  25568156.818 1 134361649.273 3  25568151.841 1 102952508.055 2
E31  23677662.451 1 124426929.801 1  23677659.291 1  95340120.262 1
E01  24463611.180 1 128557157.032 1  24463606.131 1  98504809.447 1
E20  28010674.492 2 147197065.346 6                                
E18  29861738.523 1 156924455.101 2  29861735.299 1 120240795.076 1
E24  27232873.600 1 143109677.181 2  27232869.698 1 109655493.244 1
E09  25104229.021 1 131923576.282 2  25104225.271 1 101084300.274 1
E04  24069365.995 1 126485365.789 1  24069360.017 1  96917341.623 1
E10  28368477.698 4 149077305.858 8  28368471.020 1 114228013.514 3
E21                                  28562730.509 8               9
> 2022 02 25 13 05 30.0000000  0 35                     
G03  25096609.198 1 131883585.428 3  25096604.126 1 102766376.666 3
E12  26911387.034 1 141420196.578 3  26911383.413 1 108360913.751 2
G23  25122174.338 1 132017829.682 3  25122169.628 1 102870983.754 2
G29  24229701.230 1 127327951.157 2  24229693.443 1  99216556.909 3
G26  20323559.613 1 106801032.227 1  20323553.255 1  83221563.896 1
G22  21291005.685 1 111884976.932 1                                
C19  24948376.683 1 129912744.283 2
C37  23124052.094 1 120412997.741 1
C20  22079376.037 1 114973158.210 1
C27  26060477.293 1 135703731.687 2
C30  27002667.070 1 140609970.766 2
C36  26290764.896 1 136902912.877 2
R13  22940167.168 2 122499251.514 5  22940160.349 2  95277151.351 3
R11  20893397.164 1 111647979.978 1  20893389.548 1  86837245.862 1
R01  19357824.557 1 103478763.048 1  19357817.977 1  80483387.947 1
R02  22788872.584 1 121605887.822 1  22788868.007 1  94582278.932 1
R07  24613286.965 1 131756850.966 2  24613282.729 2 102477521.003 3
G32  20966913.181 1 110181855.964 1  20966905.489 1  85856025.922 1
G25  23293193.387 1 122406537.467 2  23293187.555 1  95381680.250 1
G10  22272693.244 1 117043717.612 1  22272685.926 1  91202927.096 1
G31  21298936.366 1 111926646.230 1  21298926.239 1  87215527.252 1
G16  22934468.381 1 120521427.939 1                                
C32  22913967.904 1 119319037.784 1
R08  20579316.427 1 110201285.864 1  20579306.648 1  85712066.213 1
R12  19894466.651 1 106272621.945 1  19894459.683 1  82656550.805 1
E19  25576013.400 1 134402938.743 3  25576009.101 1 102984145.427 2
E31  23679760.192 1 124437953.341 1  23679757.053 1  95348566.877 1
E01  24473307.011 1 128608111.348 1  24473302.346 1  98543852.350 1
E20  28020079.093 2 147246478.571 6                                
E18  29859958.019 1 156915099.625 2  29859955.198 1 120233626.592 1
E24  27230202.293 1 143095641.118 2  27230198.612 1 109644738.325 1
E09  25102390.171 1 131913915.857 1  25102386.521 1 101076898.123 1
E04  24070989.635 1 126493899.851 1  24070984.078 1  96923880.714 1
E10  28376891.149 2 149121530.316 7  28376886.511 1 114261899.694 3
E21                                  28575186.853 8               9
> 2022 02 25 13 05 45.0000000  0 35                     
G03  25092169.428 1 131860255.857 3  25092163.781 1 102748197.702 3
E12  26918847.354 1 141459403.176 4  26918844.562 1 108390955.130 2
G23  25137199.213 1 132096787.129 3  25137194.644 1 102932508.943 2
G29  24232406.690 1 127342168.141 1  24232398.967 1  99227635.062 2
G26  20323905.858 1 106802851.544 1  20323899.325 1  83222981.546 1
G22  21292000.789 1 111890207.400 1                                
C19  24944447.646 1 129892282.464 2
C37  23133957.043 1 120464576.034 1
C20  22080778.584 1 114980462.898 1
C27  26061190.183 1 135707441.874 2
C30  27004908.696 1 140621642.424 2
C36  26289478.837 1 136896214.409 2
R13  22936915.027 2 122481882.738 4  22936908.711 2  95263642.279 3
R11  20906336.961 1 111717124.365 1  20906328.861 1  86891024.786 1
R01  19358907.433 1 103484552.605 1  19358901.170 1  80487890.934 1
R02  22782360.687 1 121571139.204 1  22782355.876 1  94555252.272 1
R07  24628463.275 2 131838087.137 3  24628459.322 8 102540721.81634
G32  20970372.675 1 110200037.811 1  20970365.284 1  85870193.584 1
G25  23307490.397 1 122481670.498 1  23307484.693 1  95440225.435 1
G10  22286591.451 1 117116754.937 1  22286584.734 1  91259839.255 1
G31  21306032.466 1 111963937.385 1  21306022.432 1  87244585.283 1
G16  22928884.275 1 120492081.569 1                                
C32  22924159.610 1 119372107.782 1
R08  20589844.379 1 110257662.828 1  20589835.407 1  85755914.948 1
R12  19898475.640 1 106294036.192 1  19898468.619 1  82673206.324 1
E19  25583881.849 1 134444290.110 3  25583877.878 1 103015830.216 2
E31  23681875.791 1 124449069.507 1  23681872.376 1  95357084.457 1
E01  24483015.051 1 128659128.439 1  24483010.588 1  98582943.360 1
E20  28029490.548 2 147295945.262 5                                
E18  29858159.552 1 156905649.774 2  29858156.932 1 120226385.806 1
E24  27227540.766 1 143081651.234 2  27227536.215 1 109634018.804 1
E09  25100548.531 1 131904240.580 2  25100545.048 1 101069484.616 1
E04  24072621.272 1 126502475.113 1  24072615.976 1  96930451.371 1
E10  28385299.793 2 149165704.228 5  28385292.425 1 114295747.196 3
E21                                  28587638.590 8               9
> 2022 02 25 13 06 00.0000000  0 35                     
G03  25087740.484 1 131836981.896 3  25087734.643 1 102730062.084 2
E12  26926294.417 1 141498537.015 4  26926291.468 1 108420940.744 2
G23  25152221.580 1 132175729.814 3  25152216.866 1 102994022.647 2
G29  24235128.106 1 127356470.219 2  24235120.644 1  99238779.585 3
G26  20324277.571 1 106804803.244 1  20324270.621 1  83224502.354 1
G22  21293002.251 1 111895469.054 1                                
C19  24940523.220 1 129871845.669 2
C37  23143866.678 1 120516176.276 1
C20  22082200.713 1 114987869.646 1
C27  26061892.196 1 135711097.470 2
C30  27007133.714 1 140633229.938 1
C36  26288202.898 1 136889567.450 2
R13  22933681.204 2 122464612.387 4  22933675.356 2  95250209.801 2
R11  20919285.113 1 111786313.291 1  20919276.619 1  86944838.391 1
R01  19360019.467 1 103490496.959 1  19360013.127 1  80492514.329 1
R02  22775849.686 1 121536393.689 1  22775844.236 1  94528228.008 1
R07  24643647.215 1 131919370.00211  24643642.700 4 102603946.34912
G32  20973846.050 1 110218290.048 1  20973838.864 1  85884416.106 1
G25  23321796.934 1 122556853.326 1  23321791.602 1  95498809.397 2
G10  22300501.825 1 117189854.625 1  22300495.503 1  91316800.019 1
G31  21313133.246 1 112001252.947 1  21313123.287 1  87273662.345 1
G16  22923310.966 1 120462793.901 1                                
C32  22934368.877 1 119425270.302 1
R08  20600400.894 1 110314189.595 1  20600391.491 1  85799880.183 1
R12  19902511.145 1 106315592.762 1  19902503.965 1  82689972.552 1
E19  25591762.393 1 134485701.864 3  25591758.342 1 103047561.292 2
E31  23684008.182 1 124460276.501 1  23684004.980 1  95365671.642 1
E01  24492735.077 1 128710206.342 1  24492730.424 1  98622080.963 1
E20  28038914.592 2 147345463.609 6                                
E18  29856343.506 1 156896103.903 2  29856340.307 1 120219071.467 1
E24  27224886.101 1 143067705.912 2  27224882.594 1 109623333.439 1
E09  25098705.028 1 131894548.896 2  25098700.649 1 101062058.522 1
E04  24074260.419 1 126511090.013 1  24074255.400 1  96937052.383 1
E10  28393690.923 2 149209825.568 6  28393688.753 1 114329554.454 3
E21                                  28600089.977 9               9
> 2022 02 25 13 06 15.0000000  0 35                     
G03  25083321.251 1 131813765.194 3  25083316.692 1 102711971.182 2
E12  26933728.206 1 141537599.392 3  26933724.827 1 108450871.576 2
G23  25167241.759 1 132254658.834 3  25167236.374 1 103055525.689 2
G29  24237866.657 1 127370859.004 1  24237858.883 1  99249991.632 2
G26  20324674.302 1 106806888.814 1  20324667.624 1  83226127.484 1
G22  21294009.788 1 111900763.476 1                                
C19  24936603.227 1 129851435.473 1
C37  23153780.379 1 120567799.608 1
C20  22083642.888 1 114995379.987 1
C27  26062583.804 1 135714700.003 2
C30  27009343.105 1 140644734.866 2
C36  26286936.682 1 136882973.379 2
R13  22930466.047 2 122447442.235 4  22930460.431 2  95236855.252 2
R11  20932241.288 1 111855547.676 1  20932232.482 1  86998687.339 1
R01  19361160.967 1 103496597.996 1  19361154.222 1  80497259.570 1
R02  22769339.224 1 121501652.562 1  22769333.930 1  94501207.170 1
R07  24658842.305 2 132000708.832 3  24658837.621 2 102667209.441 5
G32  20977333.219 1 110236614.298 1  20977325.832 1  85898694.737 1
G25  23336113.705 1 122632086.971 1  23336108.069 1  95557432.970 2
G10  22314424.359 1 117263017.682 1  22314417.936 1  91373810.165 1
G31  21320239.342 1 112038594.091 1  21320228.975 1  87302759.323 1
G16  22917749.116 1 120433566.669 1                                
C32  22944596.617 1 119478526.571 1
R08  20610984.571 1 110370867.060 1  20610975.113 1  85843962.631 1
R12  19906573.091 1 106337292.932 1  19906566.280 1  82706850.472 1
E19  25599655.316 1 134527175.371 3  25599650.457 1 103079339.658 2
E31  23686158.420 1 124471575.745 1  23686155.252 1  95374329.504 1
E01  24502466.606 1 128761346.209 1  24502462.181 1  98661266.043 1
E20  28048347.573 2 147395034.903 5                                
E18  29854509.271 1 156886463.530 2  29854505.816 1 120211684.661 1
E24  27222241.485 1 143053806.727 2  27222237.668 1 109612683.421 1
E09  25096858.325 1 131884842.364 2  25096854.023 1 101054621.043 1
E04  24075907.276 1 126519746.081 1  24075902.812 1  96943684.966 1
E10  28402085.417 2 149253895.758 7  28402075.001 1 114363322.453 3
E21                                  28612542.034 9               9
> 2022 02 25 13 06 30.0000000  0 35                     
G03  25078913.638 1 131790608.077 3  25078910.096 1 102693926.692 2
E12  26941148.610 1 141576592.137 4  26941144.819 1 108480749.077 2
G23  25182259.303 1 132333575.774 3  25182254.015 1 103117019.332 2
G29  24240621.533 1 127385336.710 2  24240614.226 1  99261272.950 2
G26  20325096.915 1 106809110.362 1  20325090.460 1  83227858.564 1
G22  21295023.920 1 111906092.816 1                                
C19  24932689.038 1 129831054.110 2
C37  23163698.779 1 120619447.802 1
C20  22085105.629 1 115002996.059 1
C27  26063265.568 1 135718251.649 2
C30  27011537.374 1 140656159.312 2
C36  26285680.351 1 136876434.139 3
R13  22927270.128 2 122430374.252 4  22927264.973 2  95223580.208 3
R11  20945205.952 1 111924829.088 1  20945197.469 1  87052572.876 1
R01  19362331.751 1 103502858.105 1  19362325.208 1  80502128.540 1
R02  22762829.954 1 121466918.257 1  22762824.789 1  94474191.628 1
R07  24674052.965 9 132082137.02138  24674040.040 9 102730497.12237
G32  20980834.288 1 110255012.750 1  20980826.740 1  85913031.176 1
G25  23350440.113 1 122707373.020 1  23350434.817 1  95616097.387 1
G10  22328359.022 1 117336245.663 1  22328352.932 1  91430870.896 1
G31  21327350.333 1 112075962.404 1  21327340.291 1  87331877.496 1
G16  22912199.157 1 120404402.160 1                                
C32  22954842.008 1 119531878.406 1
R08  20621597.045 1 110427697.374 1  20621587.908 1  85888163.962 1
R12  19910662.671 1 106359138.503 1  19910655.940 1  82723841.468 1
E19  25607559.567 1 134568712.590 3  25607554.568 1 103111166.870 2
E31  23688326.671 1 124482969.190 1  23688323.201 1  95383059.555 1
E01  24512210.363 1 128812549.796 1  24512206.150 1  98700499.951 1
E20  28057790.984 2 147444661.244 6                                
E18  29852657.706 1 156876730.705 2  29852653.756 1 120204227.035 1
E24  27219605.952 1 143039955.794 2  27219602.091 1 109602070.380 1
E09  25095008.696 1 131875122.979 2  25095005.065 1 101047173.737 1
E04  24077562.768 1 126528445.492 1  24077558.195 1  96950350.744 1
E10  28410455.359 2 149297916.434 6  28410452.112 1 114397052.533 3
E21                                  28624994.125 9               9
> 2022 02 25 13 06 45.0000000  0 35                     
G03  25074519.814 1 131767507.245 2  25074514.481 1 102675926.020 3
E12  26948553.849 1 141615511.493 4  26948551.055 1 108510570.355 2
G23  25197273.920 1 132412476.777 3  25197268.500 1 103178500.539 2
G29  24243393.061 1 127399900.097 2  24243385.625 1  99272621.060 3
G26  20325545.053 1 106811464.323 1  20325538.691 1  83229692.820 1
G22  21296043.854 1 111911453.761 1                                
C19  24928780.036 1 129810698.223 2
C37  23173621.230 1 120671116.962 1
C20  22086587.641 1 115010714.463 1
C27  26063937.233 1 135721748.899 2
C30  27013715.347 1 140667499.629 2
C36  26284434.102 1 136869946.210 3
R13  22924091.921 2 122413405.086 4  22924087.066 2  95210381.966 3
R11  20958179.309 1 111994153.287 1  20958170.377 1  87106491.663 1
R01  19363531.889 1 103509273.906 1  19363525.274 1  80507118.607 1
R02  22756321.975 1 121432187.866 1  22756316.244 1  94447179.130 1
R07  24689263.288 2 132163582.87213  24689268.855 9 102793902.27436
G32  20984348.973 1 110273481.972 1  20984341.670 1  85927422.771 1
G25  23364775.570 1 122782707.466 2  23364770.250 1  95674799.509 1
G10  22342305.685 1 117409534.518 1  22342299.727 1  91487979.060 1
G31  21334465.472 1 112113354.109 1  21334455.468 1  87361013.885 1
G16  22906660.381 1 120375297.170 1                                
C32  22965105.445 1 119585322.013 1
R08  20632237.713 1 110484676.525 1  20632228.190 1  85932481.075 1
R12  19914779.071 1 106381125.351 1  19914771.735 1  82740942.350 1
E19  25615475.532 1 134610309.911 3  25615470.278 1 103143040.131 2
E31  23690511.754 1 124494453.173 1  23690508.515 1  95391858.966 1
E01  24521965.574 1 128863813.209 1  24521961.274 1  98739779.694 1
E20  28067243.348 2 147494338.903 5                                
E18  29850786.785 1 156866901.876 2  29850783.421 1 120196695.869 1
E24  27216978.597 1 143026149.555 2  27216974.686 1 109591491.577 1
E09  25093155.587 1 131865387.241 2  25093152.449 1 101039713.913 1
E04  24079226.026 1 126537184.757 1  24079221.306 1  96957047.067  
E10  28418822.857 2 149341883.831 7  28418818.755 1 114430741.747 3
E21                                  28637445.895 9               9
> 2022 02 25 13 07 00.0000000  0 35                     
G03  25070136.108 1 131744465.512 3  25070129.844 1 102657971.402 3
E12  26955946.967 1 141654359.989 3  26955943.914 1 108540337.311 2
G23  25212285.908 1 132491364.097 3  25212280.248 1 103239971.047 2
G29  24246180.785 1 127414551.851 2  24246173.965 1  99284038.020 2
G26  20326018.514 1 106813953.422 1  20326012.372 1  83231632.384 1
G22  21297070.243 1 111916849.171 1                                
C19  24924876.414 1 129790370.669 2
C37  23183548.378 1 120722809.462 1
C20  22088090.247 1 115018537.905 1
C27  26064598.832 1 135725194.578 2
C30  27015877.550 1 140678758.424 4
C36  26283198.790 1 136863512.083 3
R13  22920932.723 2 122396537.420 5  22920928.157 2  95197262.668 3
R11  20971160.583 1 112063522.530 1  20971151.674 1  87160445.511 1
R01  19364761.923 1 103515848.327 1  19364755.412 1  80512232.048 1
R02  22749814.325 1 121397463.873 1  22749809.001 1  94420171.606 1
R07  24704487.936 2 132245080.218 3  24704484.983 9               9
G32  20987877.203 1 110292024.785 1  20987869.986 1  85941871.717 1
G25  23379120.878 1 122858092.530 2  23379115.697 1  95733541.083 2
G10  22356264.163 1 117482886.469 1  22356258.321 1  91545136.386 1
G31  21341585.948 1 112150771.731 1  21341575.709 1  87390170.467 1
G16  22901133.405 1 120346254.540 1                                
C32  22975387.039 1 119638859.841 1
R08  20642906.699 1 110541807.011 1  20642896.497 1  85976915.872 1
R12  19918922.223 1 106403256.041 1  19918915.018 1  82758155.106 1
E19  25623403.026 1 134651969.902 2  25623398.068 1 103174961.394 2
E31  23692715.109 1 124506030.282 1  23692711.516 1  95400729.738 1
E01  24531733.079 1 128915138.817 1  24531728.432 1  98779107.092 1
E20  28076706.324 2 147544070.325 6                                
E18  29848899.271 1 156856979.753 2  29848895.443 1 120189093.197 1
E24  27214360.444 1 143012390.810 2  27214356.541 1 109580949.174 1
E09  25091300.541 1 131855637.889 2  25091297.086 1 101032243.639 1
E04  24080897.326 1 126545966.664 1  24080892.325 1  96963776.057 1
E10  28427172.959 2 149385800.286 8  28427176.238 1 114464391.991 2
E21                                  28649896.420 9               9
> 2022 02 25 13 07 15.0000000  0 35                     
G03  25065761.748 1 131721485.984 3  25065756.854 1 102640065.294 2
E12  26963326.530 1 141693140.197 3  26963323.576 1 108570051.974 2
G23  25227295.006 1 132570240.131 4  25227289.813 1 103301432.825 3
G29  24248986.602 1 127429295.131 1  24248979.662 1  99295526.292 2
G26  20326518.706 1 106816580.507 1  20326512.474 1  83233679.472 1
G22  21298104.139 1 111922282.012 1                                
C19  24920978.544 1 129770074.354 1
C37  23193480.615 1 120774527.789 1
C20  22089613.491 1 115026469.324 1
C27  26065251.347 1 135728591.595 2
C30  27018024.650 2 140689938.740 8
C36  26281974.020 1 136857134.571 2
R13  22917793.601 4 122379774.094 5  22917788.050 2  95184224.549 3
R11  20984150.900 1 112132939.067 1  20984142.070 1  87214436.119 1
R01  19366022.181 1 103522584.491 1  19366015.765 1  80517471.293 1
R02  22743308.879 1 121362750.441 1  22743303.697 1  94393172.292 1
R07  24719719.994 1 132326596.23211  24719716.957 2 102920699.65914
G32  20991420.604 1 110310644.147 1  20991413.110 1  85956380.307 1
G25  23393476.179 1 122933530.545 2  23393471.264 1  95792323.931 2
G10  22370235.051 1 117556303.842 1  22370229.190 1  91602344.678 1
G31  21348711.703 1 112188217.618 1  21348701.498 1  87419349.091 1
G16  22895619.259 1 120317277.431 1                                
C32  22985686.952 1 119692494.424 1
R08  20653604.722 1 110599091.300 1  20653593.362 1  86021470.306 1
R12  19923092.362 1 106425532.978 1  19923085.741 1  82775481.620 1
E19  25631342.997 1 134693695.525 3  25631338.410 1 103206932.965 2
E31  23694936.398 1 124517703.244 1  23694932.864 1  95409673.965 1
E01  24541512.176 1 128966529.139 1  24541507.666 1  98818484.088 1
E20  28086179.323 2 147593858.446 5                                
E18  29846993.511 1 156846967.181 1  29846989.901 1 120181421.225 1
E24  27211751.770 1 142998682.423 2  27211747.774 1 109570445.360 1
E09  25089442.993 1 131845877.776 2  25089439.936 1 101024765.124 1
E04  24082577.151 1 126554794.140 1  24082572.006 1  96970539.959 1
E10  28435524.310 4 149429654.45317  28435523.924 1 114498005.217 3
E21                                  28662346.382 9               9
> 2022 02 25 13 07 30.0000000  0 35                     
G03  25061400.348 1 131698567.424 2  25061395.880 1 102622206.654 2
E12  26970693.071 1 141731850.437 4  26970689.612 1 108599713.036 2
G23  25242302.066 1 132649102.951 3  25242296.866 1 103362884.288 3
G29  24251809.601 1 127444128.558 1  24251802.067 1  99307084.805 2
G26  20327044.458 1 106819344.067 1  20327038.053 1  83235832.903 1
G22  21299144.557 1 111927750.974 1                                
C19  24917087.059 1 129749807.970 1
C37  23203417.249 1 120826270.105 1
C20  22091157.366 1 115034507.249 1
C27  26065894.061 1 135731938.503 2
C30  27020156.961 4               9
C36  26280759.857 1 136850812.102 2
R13  22914673.263 2 122363113.770 4  22914667.556 2  95171266.564 4
R11  20997149.805 1 112202400.816 1  20997140.622 1  87268461.906 1
R01  19367312.073 1 103529481.156 1  19367305.859 1  80522835.354 1
R02  22736805.312 1 121328045.151 1  22736800.120 1  94366179.334 1
R07  24734964.593 2 132408195.19312  24734962.105 2 102984170.889 3
G32  20994978.504 1 110329338.677 1  20994970.504 1  85970947.458 1
G25  23407841.148 1 123009019.578 2  23407836.139 1  95851146.527 2
G10  22384217.915 1 117629784.649 1  22384212.324 1  91659602.399 1
G31  21355842.450 1 112225690.168 1  21355832.540 1  87448548.466 1
G16  22890117.170 1 120288364.488 1                                
C32  22996005.376 1 119746224.001 1
R08  20664330.372 1 110656527.513 1  20664318.915 1  86066142.874 1
R12  19927289.678 1 106447954.462 1  19927283.434 1  82792920.547 1
E19  25639295.020 1 134735485.070 2  25639290.695 1 103238953.499 2
E31  23697175.485 1 124529470.443 1  23697172.070 1  95418690.392 1
E01  24551303.465 1 129017982.345 1  24551298.833 1  98857909.257 1
E20  28095664.954 2 147643701.489 6                                
E18  29845070.600 1 156836862.622 1  29845066.922 1 120173678.789 1
E24  27209152.950 1 142985022.932 2  27209148.684 1 109559978.998 1
E09  25087583.247 1 131836105.383 2  25087580.424 1 101017277.228 1
E04  24084265.472 1 126563665.719 1  24084260.199 1  96977337.667 1
E10  28443865.598 4 149473472.452 5  28443861.703 1 114531580.048 3
E21                                  28674794.702 9               9
> 2022 02 25 13 07 45.0000000  0 35                     
G03  25057049.864 1 131675704.971 4  25057045.258 1 102604391.777 3
E12  26978045.003 1 141770485.610 4  26978041.788 1 108629316.548 2
G23  25257305.756 1 132727947.188 4  25257300.526 1 103424321.304 3
G29  24254648.306 1 127459047.350 2  24254640.593 1  99318709.877 2
G26  20327595.226 1 106822239.179 1  20327588.846 1  83238088.845 1
G22  21300191.389 1 111933251.149 1                                
C19  24913200.368 1 129729566.837 1
C37  23213357.217 1 120878031.232 1
C20  22092720.344 1 115042646.941 1
C27  26066525.850 1 135735230.497 2
C30  27022271.752 4 140712058.25417
C36  26279554.664 1 136844539.673 2
R13  22911572.073 2 122346551.503 4  22911565.740 2  95158384.793 3
R11  21010155.994 1 112271902.195 1  21010147.422 1  87322518.501 1
R01  19368631.313 1 103536533.751 1  19368625.433 1  80528320.697 1
R02  22730302.691 1 121293344.155 1  22730296.949 1  94339189.684 1
R07  24750218.865 9               9  24750214.085 9               9
G32  20998549.590 1 110348103.575 1  20998541.368 1  85985569.451 1
G25  23422214.925 1 123084554.217 2  23422209.847 1  95910004.633 2
G10  22398212.495 1 117703323.449 1  22398205.958 1  91716905.327 1
G31  21362977.261 1 112263184.275 1  21362967.404 1  87477764.653 1
G16  22884626.653 1 120259511.097 1                                
C32  23006340.882 1 119800043.443 1
R08  20675084.217 1 110714110.773 1  20675072.288 1  86110929.852 1
R12  19931513.010 1 106470514.973 1  19931506.715 1  82810467.617 1
E19  25647258.457 1 134777333.518 3  25647254.314 1 103271019.179 2
E31  23699431.807 1 124541326.861 1  23699428.262 1  95427775.184 1
E01  24561105.437 1 129069493.191 1  24561100.790 1  98897378.592 1
E20  28105159.362 1 147693594.312 4                                
E18  29843129.780 1 156826661.207 2  29843125.546 1 120165862.110 1
E24  27206561.887 1 142971407.434 2  27206557.816 1 109549546.353 1
E09  25085720.354 1 131826315.867 2  25085717.600 1 101009776.192 1
E04  24085961.552 1 126572576.611 1  24085955.788 1  96984165.485 1
E10  28452198.517 4 149517235.204 6  28452188.866 1 114565112.487 4
E21                                  28687243.244 9               9
> 2022 02 25 13 08 00.0000000  0 34                     
G03  25052710.150 1 131652902.248 3  25052706.121 1 102586623.376 2
E12  26985383.416 1 141809048.701 4  26985380.126 1 108658864.833 2
G23  25272306.384 1 132806775.782 4  25272301.100 1 103485746.098 3
G29  24257504.098 1 127474054.970 2  24257496.066 1  99330404.147 3
G26  20328171.870 1 106825269.082 1  20328165.476 1  83240449.818 1
G22  21301244.769 1 111938785.959 1                                
C19  24909318.591 1 129709354.246 1
C37  23223301.388 1 120929814.031 1
C20  22094303.510 1 115050891.642 1
C27  26067148.360 1 135738470.851 2
C30  27024369.685 4 140722990.295 7
C36  26278360.171 1 136838320.442 2
R13  22908490.163 2 122330090.525 4  22908483.393 2  95145581.814 3
R11  21023170.438 1 112341445.978 1  21023161.121 1  87376608.126 1
R01  19369980.380 1 103543745.438 1  19369974.382 1  80533929.794 1
R02  22723800.366 1 121258650.643 1  22723794.884 1  94312205.862 1
G32  21002134.305 1 110366942.181 1  21002126.454 1  86000248.869 1
G25  23436598.015 1 123160137.218 2  23436592.446 1  95968900.444 2
G10  22412218.276 1 117776923.000 1  22412211.673 1  91774255.589 1
G31  21370116.649 1 112300702.521 1  21370106.931 1  87506999.643 1
G16  22879147.947 1 120230720.709 1                                
C32  23016694.318 1 119853955.710 1
R08  20685865.050 1 110771843.780 1  20685853.534 1  86155833.282 1
R12  19935763.051 1 106493217.526 1  19935756.404 1  82828125.150 1
E19  25655233.629 1 134819243.985 3  25655229.479 1 103303132.376 2
E31  23701705.604 1 124553275.607 1  23701702.014 1  95436930.712 1
E01  24570919.076 1 129121064.547 1  24570914.416 1  98936894.291 1
E20  28114663.141 2 147743540.231 4                                
E18  29841169.814 1 156816366.146 2  29841166.638 1 120157973.680 1
E24  27203979.649 1 142957839.250 2  27203975.966 1 109539149.949 1
E09  25083854.793 1 131816512.451 2  25083851.772 1 101002264.497 1
E04  24087665.743 1 126581530.067 1  24087659.669 1  96991025.921 1
E10  28460512.572 4 149560945.493 6  28460507.331 1 114598604.749 4
E21                                  28699685.934 9               9
> 2022 02 25 13 08 15.0000000  0 34                     
G03  25048382.471 1 131630157.320 3  25048378.038 1 102568900.062 2
E12  26992707.784 1 141847537.471 3  26992704.410 1 108688356.169 2
G23  25287303.630 1 132885586.201 3  25287298.423 1 103547156.706 3
G29  24260376.315 1 127489149.251 2  24260368.413 1  99342165.926 2
G26  20328773.639 1 106828431.711 1  20328767.252 1  83242914.213 1
G22  21302304.414 1 111944353.558 1                                
C19  24905441.373 1 129689168.311 1
C37  23233249.281 1 120981616.130 1
C20  22095906.710 1 115059239.398 1
C27  26067760.232 1 135741657.668 2
C30  27026453.460 2 140733837.930 4
C36  26277175.266 1 136832152.224 2
R13  22905426.372 2 122313728.747 4  22905420.189 2  95132855.971 3
R11  21036191.549 1 112411029.450 1  21036182.835 1  87430728.572 1
R01  19371359.257 1 103551114.689 1  19371352.729 1  80539661.410 1
R02  22717299.735 1 121223962.784 1  22717294.510 1  94285226.457 1
G32  21005732.713 1 110385852.549 1  21005725.218 1  86014984.208 1
G25  23450990.353 1 123235766.036 2  23450984.156 1  96027831.967 2
G10  22426234.854 1 117850580.755 1  22426228.078 1  91831651.199 1
G31  21377260.277 1 112338242.598 1  21377250.584 1  87536251.640 1
G16  22873681.166 1 120201991.532 2                                
C32  23027064.476 1 119907958.474 1
R08  20696673.629 1 110829724.318 1  20696662.234 1  86200851.476 1
R12  19940038.843 1 106516059.645 1  19940032.337 1  82845891.238 1
E19  25663220.360 1 134861214.456 3  25663215.989 1 103335291.564 2
E31  23703996.487 1 124565314.481 1  23703992.996 1  95446155.307 1
E01  24580743.859 1 129172694.040 1  24580739.034 1  98976454.547 1
E20  28124178.950 2 147793536.885 5                                
E18  29839193.153 1 156805975.371 1  29839189.270 1 120150011.915 1
E24  27201406.401 1 142944316.309 2  27201402.594 1 109528788.232 1
E09  25081986.080 1 131806693.069 1  25081982.648 1 100994740.571 1
E04  24089377.432 1 126590524.137 1  24089370.980 1  96997917.469 1
E10  28468816.270 2 149604601.122 6  28468814.837 1 114632055.138 4
E21                                  28712131.684 9               9
> 2022 02 25 13 08 30.0000000  0 34                     
G03  25044065.135 1 131607470.060 3  25044061.079 1 102551221.715 3
E12  27000017.961 1 141885951.399 4  27000014.539 1 108717790.166 2
G23  25302297.189 1 132964377.801 3  25302291.893 1 103608552.630 3
G29  24263265.021 1 127504330.261 2  24263257.655 1  99353995.320 2
G26  20329400.995 1 106831726.847 1  20329394.071 1  83245481.850 1
G22  21303370.011 1 111949953.783 1                                
C19  24901570.050 1 129669008.990 1
C37  23243200.967 1 121033436.968 1
C20  22097529.429 1 115067690.038 1
C27  26068362.308 1 135744790.717 2
C30  27028520.827 2 140744601.179 7
C36  26276000.843 1 136826034.752 2
R13  22902380.222 2 122297466.219 4  22902375.068 2  95120207.285 3
R11  21049219.679 1 112480651.883 1  21049211.663 1  87484879.339 1
R01  19372766.856 1 103558641.319 1  19372760.721 1  80545515.462 1
R02  22710800.244 1 121189280.800 1  22710794.953 1  94258251.582 1
G32  21009344.622 1 110404834.549 1  21009337.633 1  86029775.374 1
G25  23465390.369 1 123311439.975 2  23465384.549 1  96086798.621 2
G10  22440262.253 1 117924295.957 1  22440255.637 1  91889091.582 1
G31  21384407.954 1 112375803.988 1  21384398.159 1  87565520.239 1
G16  22868225.976 1 120173323.533 1                                
C32  23037452.769 1 119962051.248 1
R08  20707509.897 1 110887751.951 1  20707498.682 1  86245984.062 1
R12  19944340.680 1 106539040.734 1  19944334.508 1  82863765.407 1
E19  25671218.125 1 134903244.591 2  25671214.071 1 103367496.438 2
E31  23706304.605 1 124577443.144 1  23706300.896 1  95455448.707 1
E01  24590579.530 1 129224381.101 1  24590574.704 1  99016058.909 1
E20  28133703.148 1 147843584.015 4                                
E18  29837197.148 1 156795488.657 1  29837193.777 1 120141976.631 1
E24  27198841.448 1 142930838.445 2  27198837.904 1 109518461.033 1
E09  25080115.242 1 131796857.566 1  25080110.567 1 100987204.277 1
E04  24091096.550 1 126599558.645 1  24091090.129 1  97004840.002 1
E21                                  28724577.144 9               9
E10                                  28477111.454 1 114665463.174 4
> 2022 02 25 13 08 45.0000000  0 34                     
G03  25039759.359 1 131584845.833 3  25039755.891 1 102533592.434 3
E12  27007314.654 1 141924295.432 3  27007311.192 1 108747170.630 2
G23  25317288.018 1 133043155.190 4  25317282.604 1 103669937.553 3
G29  24266171.486 1 127519603.159 2  24266164.432 1  99365896.281 2
G26  20330054.153 1 106835159.530 1  20330047.527 1  83248156.664 1
G22  21304443.118 1 111955591.941 1                                
C19  24897704.797 1 129648881.385 2
C37  23253157.111 1 121085281.257 1
C20  22099173.131 1 115076248.651 1
C27  26068954.339 1 135747875.165 2
C30  27030572.584 2 140755284.836 6
C36  26274837.034 1 136819972.923 2
R13  22899353.636 2 122281307.860 5  22899348.829 2  95107639.691 3
R11  21062257.115 1 112550317.742 1  21062248.942 1  87539063.863 1
R01  19374204.903 1 103566330.802 1  19374199.328 1  80551496.152 1
R02  22704303.159 1 121154610.208 1  22704298.617 1  94231285.608 1
G32  21012971.704 1 110423893.391 1  21012964.431 1  86044626.412 1
G25  23479800.210 1 123387163.625 2  23479794.450 1  96145804.033 2
G10  22454301.538 1 117998073.179 1  22454295.549 1  91946580.275 1
G31  21391560.635 1 112413391.662 1  21391550.655 1  87594809.336 1
G16  22862783.385 1 120144721.983 1                                
C32  23047858.896 1 120016238.798 1
R08  20718374.653 1 110945931.208 1  20718363.539 1  86291234.590 1
R12  19948670.270 1 106562165.680 1  19948663.460 1  82881751.482 1
E19  25679228.989 1 134945339.358 2  25679224.793 1 103399750.872 2
E31  23708630.574 1 124589666.545 1  23708627.073 1  95464814.695 1
E01  24600427.185 1 129276130.462 1  24600422.455 1  99055711.004 1
E20  28143238.377 2 147893686.532 5                                
E18  29835184.081 1 156784911.066 2  29835181.086 1 120133871.718 1
E24  27196285.918 1 142917410.731 2  27196282.699 1 109508172.282 1
E09  25078241.072 1 131787010.965 1  25078236.539 1 100979659.468 1
E04  24092823.960 1 126608638.732 1  24092818.186 1  97011797.457 1
E21                                  28737020.531 9               9
E10                                  28485398.397 1 114698832.589 3
> 2022 02 25 13 09 00.0000000  0 33                     
G03  25035466.828 1 131562279.663 3  25035460.864 1 102516008.399 3
E12  27014596.891 1 141962564.092 4  27014593.376 1 108776493.311 2
G23  25332275.467 1 133121912.849 4  25332269.758 1 103731307.020 3
G29  24269094.207 1 127534962.819 2  24269087.218 1  99377864.842 2
G26  20330732.453 1 106838724.550 1  20330726.020 1  83250934.604 1
G22  21305522.048 1 111961262.820 1                                
C19  24893844.820 1 129628780.522 1
C37  23263116.750 1 121137143.474 1
C20  22100836.110 1 115084910.142 1
C27  26069536.159 1 135750905.912 2
C36  26273682.718 1 136813961.501 2
R13  22896346.073 2 122265248.538 4  22896341.341 2  95095149.142 3
R11  21075301.515 1 112620021.216 1  21075293.089 1  87593277.656 1
R01  19375672.703 1 103574177.911 1  19375667.158 1  80557599.471 1
R02  22697807.365 1 121119945.828 1  22697802.386 1  94204324.453 1
G32  21016611.850 1 110443023.963 1  21016604.464 1  86059533.328 1
G25  23494218.615 1 123462931.281 2  23494212.601 1  96204843.741 2
G10  22468351.522 1 118071906.701 1  22468345.429 1  92004112.879 1
G31  21398717.202 1 112450999.889 1  21398706.987 1  87624114.447 1
G16  22857352.074 1 120116181.851 1                                
C32  23058282.065 1 120070515.679 1
R08  20729266.415 1 111004256.695 1  20729255.486 1  86336598.822 1
R12  19953025.359 1 106585428.714 1  19953018.425 1  82899844.963 1
E19  25687250.258 1 134987493.472 3  25687246.511 1 103432050.739 2
E31  23710973.610 1 124601979.346 1  23710970.024 1  95474249.176 1
E01  24610285.698 1 129327936.572 1  24610280.714 1  99095406.583 1
E20  28152782.005 2 147943838.978 5                                
E18  29833152.897 1 156774237.381 2  29833149.934 1 120125693.176 1
E24  27193739.489 1 142904028.000 2  27193735.889 1 109497918.002 1
E09  25076364.401 1 131777148.139 1  25076359.997 1 100972102.230 1
E04  24094559.092 1 126617759.245 1  24094553.730 1  97018785.902 1
E21                                  28749464.837 9               9
E10                                  28493675.792 1 114732159.092 4
> 2022 02 25 13 09 15.0000000  0 34                     
G03  25031184.606 1 131539771.620 3  25031177.515 1 102498469.668 3
E12  27021864.574 1 142000757.148 4  27021861.343 1 108805758.071 2
G23  25347258.973 1 133200650.216 4  25347252.810 1 103792660.734 4
G29  24272033.456 1 127550409.385 2  24272026.536 1  99389901.116 2
G26  20331436.136 1 106842421.823 1  20331429.606 1  83253815.600 1
G22  21306607.208 1 111966966.516 1                                
C19  24889990.014 1 129608706.535 1
C37  23273079.645 1 121189023.262 1
C20  22102519.288 1 115093674.539 1
C27  26070107.964 1 135753882.997 2
C30  27034626.447 1 140776415.93813
C36  26272538.049 1 136808000.366 2
R13  22893357.327 4 122249288.220 5  22893352.018 2  95082735.587 3
R11  21088352.669 1 112689761.686 1  21088344.119 1  87647520.251 1
R01  19377170.194 1 103582183.121 1  19377164.740 1  80563825.736 1
R02  22691312.754 1 121085288.692 1  22691307.471 1  94177368.953 1
G32  21020266.063 1 110462226.327 1  21020258.751 1  86074496.215 1
G25  23508644.829 1 123538742.427 2  23508638.824 1  96263917.301 2
G10  22482412.251 1 118145796.007 1  22482406.070 1  92061688.888 1
G31  21405877.717 1 112488628.440 1  21405867.854 1  87653435.388 1
G16  22851932.946 1 120087703.438 1                                
C32  23068722.847 1 120124881.555 1
R08  20740185.779 1 111062728.108 1  20740174.355 1  86382076.556 1
R12  19957405.793 1 106608829.560 1  19957399.272 1  82918045.616 1
E19  25695283.650 1 135029706.759 2  25695279.415 1 103464395.964 2
E31  23713333.767 1 124614381.390 1  23713330.098 1  95483752.041 1
E01  24620154.601 1 129379799.054 1  24620149.840 1  99135145.361 1
E10  28501943.812 4 149778720.12017  28501941.242 1 114765442.480 4
E20  28162334.463 2 147994041.360 6                                
E18  29831103.803 1 156763467.568 2  29831100.510 1 120117440.991 1
E24  27191201.389 1 142890690.299 2  27191197.821 1 109487698.202 1
E09  25074484.258 1 131767268.998 1  25074480.316 1 100964532.509 1
E04  24096302.332 1 126626920.229 1  24096296.994 1  97025805.356 1
E21                                  28761907.745 9               9
> 2022 02 25 13 09 30.0000000  0 34                     
G03  25026913.032 1 131517326.253 3  25026906.284 1 102480979.786 3
E12  27029118.168 1 142038878.801 4  27029115.883 1 108834968.118 2
G23  25362239.372 1 133279371.303 3  25362233.115 1 103854001.757 3
G29  24274990.539 1 127565947.430 2  24274982.867 1  99402008.731 2
G26  20332165.712 1 106846255.778 1  20332159.113 1  83256803.111 1
G22  21307699.422 1 111972707.627 1                                
C19  24886141.491 1 129588663.915 1
C37  23283047.167 1 121240924.654 1
C20  22104222.653 1 115102546.262 1
C27  26070670.186 1 135756810.845 2
C30  27036630.068 1 140786848.853 3
C36  26271403.488 1 136802093.756 2
R13  22890387.576 2 122233431.359 4  22890382.826 2  95070402.479 3
R11  21101411.592 1 112759543.001 1  21101403.064 1  87701794.577 1
R01  19378698.510 1 103590350.965 1  19378692.454 1  80570178.479 1
R02  22684819.873 1 121050642.969 1  22684814.786 1  94150422.273 1
G32  21023934.559 1 110481505.016 1  21023926.904 1  86089518.559 1
G25  23523080.246 1 123614600.982 2  23523074.294 1  96323027.846 2
G10  22496484.245 1 118219744.960 1  22496477.572 1  92119311.433 1
G31  21413042.964 1 112526281.358 1  21413032.995 1  87682775.313 1
G16  22846526.114 1 120059291.319 1                                
C32  23079180.863 1 120179340.557 1
R08  20751132.727 1 111121349.738 1  20751121.437 1  86427671.144 1
R12  19961812.578 1 106632372.189 1  19961806.526 1  82936356.555 1
E19  25703328.779 1 135071983.621 3  25703324.397 1 103496789.917 2
E31  23715711.609 1 124626876.945 1  23715707.749 1  95493326.558 1
E01  24630035.368 1 129431721.982 1  24630030.566 1  99174930.448 1
E10  28510205.463 4 149822105.717 7  28510197.378 1 114798685.902 4
E20  28171897.176 2 148044297.858 5                                
E18  29829037.107 1 156752606.017 2  29829033.726 1 120109118.499 1
E24  27188672.374 1 142877401.997 2  27188669.127 1 109477516.279 1
E09  25072602.262 1 131757378.012 2  25072598.152 1 100956953.710 1
E04  24098053.566 1 126636126.150 1  24098048.845 1  97032859.239 1
E21                                  28774351.761 9               9
> 2022 02 25 13 09 45.0000000  0 34                     
G03  25022652.988 1 131494942.281 5  25022646.818 1 102463537.672 3
E12  27036359.523 1 142076927.217 4  27036355.910 1 108864122.041 2
G23  25377216.140 1 133358074.136 3  25377210.327 1 103915328.559 3
G29  24277964.160 1 127581575.531 2  24277956.730 1  99414186.447 2
G26  20332920.982 1 106850224.766 1  20332914.305 1  83259895.836 1
G22  21308798.783 1 111978484.628 1                                
C19  24882297.886 1 129568651.191 1
C37  23293017.950 1 121292845.726 1
C20  22105946.929 1 115111523.769 1
C27  26071222.894 1 135759687.917 2
C30  27038618.170 1 140797199.214 2
C36  26270279.865 1 136796239.970 2
R13  22887436.443 2 122217676.390 5  22887432.273 2  95058148.596 3
R11  21114477.348 1 112829363.053 1  21114468.983 1  87756099.061 1
R01  19380257.002 1 103598680.099 1  19380250.569 1  80576656.692 1
R02  22678328.782 1 121016007.111 1  22678323.162 1  94123483.296 1
G32  21027617.476 1 110500858.507 1  21027609.889 1  86104599.174 1
G25  23537524.614 1 123690504.862 2  23537518.582 1  96382173.667 2
G10  22510567.279 1 118293751.464 1  22510560.794 1  92176978.799 1
G31  21420212.559 1 112563956.748 1  21420202.544 1  87712132.742 1
G16  22841132.372 1 120030944.125 2                                
C32  23089656.593 1 120233890.781 1
R08  20762107.284 1 111180119.185 1  20762096.468 1  86473380.690 1
R12  19966246.188 1 106656054.656 1  19966239.834 1  82954776.253 1
E19  25711385.430 1 135114322.367 2  25711381.007 1 103529231.256 2
E31  23718106.923 1 124639464.257 1  23718103.131 1  95502971.385 1
E01  24639927.365 1 129483703.375 1  24639922.299 1  99214760.332 1
E10  28518440.849 2 149865437.190 7  28518443.494 1 114831887.875 3
E20  28181472.370 2 148094606.661 5                                
E18  29826952.277 1 156741651.111 2  29826948.931 1 120100724.467 1
E24  27186153.384 1 142864161.540 2  27186149.372 1 109467370.991 1
E09  25070717.232 1 131747473.568 1  25070713.805 1 100949364.607 1
E04  24099813.554 1 126645375.456 1  24099808.934 1  97039946.367 1
E21                                  28786784.903 9               9
> 2022 02 25 13 10 00.0000000  0 33                     
G03  25018403.576 1 131472620.058 4  25018399.496 1 102446143.814 3
E12  27043585.585 1 142114902.458 3  27043582.819 1 108893219.877 2
G23  25392189.425 1 133436758.549 3  25392183.764 1 103976640.986 4
G29  24280955.069 1 127597293.985 2  24280947.918 1  99426434.615 3
G26  20333701.896 1 106854329.075 1  20333695.527 1  83263094.009 1
G22  21309904.958 1 111984298.148 1                                
C19  24878459.835 1 129548668.820 1
C37  23302992.853 1 121344786.432 1
C20  22107691.954 1 115120607.412 1
C27  26071765.983 1 135762514.657 2
C30  27040589.672 1 140807467.403 1
C36  26269165.965 1 136790439.215 2
R13  22884505.290 2 122202023.600 4  22884500.359 2  95045974.244 3
R11  21127550.483 1 112899221.462 1  21127542.609 1  87810433.361 1
R01  19381845.539 1 103607171.065 1  19381839.412 1  80583260.763 1
R02  22671839.912 1 120981381.997 1  22671834.901 1  94096552.680 1
G32  21031314.344 1 110520287.210 1  21031307.310 1  86119738.415 1
G25  23551977.322 1 123766453.887 2  23551970.846 1  96441354.696 2
G10  22524661.396 1 118367815.311 1  22524654.625 1  92234690.848 1
G31  21427386.482 1 112601654.509 1  21427376.337 1  87741507.611 1
G16  22835749.880 1 120002662.304 1                                
C32  23100150.047 1 120288532.273 1
R08  20773109.645 1 111239036.874 1  20773099.716 1  86519205.565 1
R12  19970705.768 1 106679876.890 1  19970699.721 1  82973304.662 1
E19  25719454.146 1 135156723.176 3  25719449.594 1 103561720.186 2
E31  23720519.626 1 124652143.523 1  23720515.942 1  95512686.663 1
E01  24649829.901 1 129535743.196 1  24649825.151 1  99254634.989 1
E10  28526673.738 4 149908714.584 6  28526679.236 1 114865048.438 3
E20  28191055.234 2 148144967.967 5                                
E18  29824850.202 1 156730603.147 2  29824846.545 1 120092259.149 1
E24  27183643.183 1 142850969.232 2  27183639.033 1 109457262.611 1
E09  25068829.938 1 131737555.975 2  25068826.547 1 100941765.425 1
E04  24101581.932 1 126654668.537 1  24101577.395 1  97047067.040 1
> 2022 02 25 13 10 15.0000000  0 33                     
G03  25014166.975 1 131450358.015 3  25014163.221 1 102428796.819 2
E12  27050797.342 1 142152802.428 4  27050794.725 1 108922260.068 2
G23  25407158.667 1 133515422.221 3  25407152.901 1 104037937.230 3
G29  24283963.055 1 127613101.074 2  24283955.846 1  99438751.819 3
G26  20334507.916 1 106858566.747 1  20334501.761 1  83266396.093 1
G22  21311018.106 1 111990146.175 1                                
C19  24874627.882 1 129528715.029 2
C37  23312970.822 1 121396744.540 1
C20  22109456.475 1 115129795.387 1
C27  26072298.958 1 135765289.190 2
C30  27042545.698 1 140817651.413 2
C36  26268061.595 1 136784689.509 2
R13  22881593.566 2 122186471.222 4  22881588.235 2  95033877.928 3
R11  21140630.416 1 112969115.788 1  21140622.396 1  87864795.586 1
R01  19383464.176 1 103615821.884 1  19383457.743 1  80589989.173 1
R02  22665353.153 1 120946765.672 1  22665347.894 1  94069628.886 1
G32  21035025.306 1 110539789.293 1  21035018.454 1  86134934.847 1
G25  23566437.917 1 123842445.628 2  23566431.645 1  96500568.994 1
G10  22538765.523 1 118441934.059 1  22538759.271 1  92292445.663 1
G31  21434563.758 1 112639372.538 1  21434553.613 1  87770898.297 1
G16  22830380.229 1 119974444.258 1                                
C32  23110660.210 1 120343262.842 1
R08  20784139.586 1 111298100.224 1  20784129.710 1  86565143.698 1
R12  19975190.985 1 106703836.488 1  19975184.976 1  82991939.905 1
E19  25727534.737 1 135199184.056 3  25727529.747 1 103594255.118 2
E31  23722949.432 1 124664912.679 1  23722945.805 1  95522470.827 1
E01  24659743.713 1 129587839.213 1  24659738.730 1  99294552.705 1
E10  28534900.829 4 149951935.660 7  28534903.361 1 114898165.887 3
E20  28200646.008 2 148195379.621 5                                
E18  29822729.281 1 156719460.198 2  29822726.193 1 120083721.050 1
E24  27181141.251 1 142837823.195 2  27181137.338 1 109447189.689 1
E09  25066939.467 1 131727623.355 2  25066936.396 1 100934154.716 1
E04  24103358.965 1 126664003.492 1  24103353.781 1  97054219.800 1
> 2022 02 25 13 10 30.0000000  0 33                     
G03  25009943.667 1 131428159.177 3  25009938.580 1 102411498.992 4
E12  27057996.082 1 142190629.782 3  27057993.142 1 108951244.619 2
G23  25422124.595 1 133594067.649 3  25422119.129 1 104099219.284 4
G29  24286988.977 1 127628999.816 2  24286981.289 1  99451140.471 2
G26  20335340.514 1 106862940.716 1  20335334.341 1  83269804.380 1
G22  21312137.907 1 111996031.798 1                                
C19  24870802.270 1 129508792.910 1
C37  23322952.823 1 121448722.613 1
C20  22111241.536 1 115139090.595 1
C27  26072822.131 1 135768014.552 2
C36  26266967.740 1 136778993.629 2
R13  22878700.355 4 122171021.928 5  22878694.954 2  95021861.840 3
R11  21153717.643 1 113039048.479 1  21153709.470 1  87919187.653 1
R01  19385113.392 1 103624636.153 1  19385106.756 1  80596844.711 1
R02  22658868.185 1 120912161.976 1  22658863.355 1  94042714.930 1
G32  21038750.899 1 110559367.803 1  21038744.125 1  86150190.840 1
G25  23580907.259 1 123918482.575 2  23580901.063 1  96559818.527 2
G10  22552880.918 1 118516110.148 1  22552874.323 1  92350245.174 1
G31  21441745.753 1 112677113.431 1  21441735.319 1  87800306.774 1
G16  22825023.642 1 119946293.067 1                                
C32  23121188.025 1 120398085.087 1
R08  20795196.586 1 111357312.134 1  20795187.492 1  86611197.384 1
R12  19979702.371 1 106727936.084 1  19979696.118 1  83010684.045 1
E19  25735626.241 1 135241707.812 2  25735621.787 1 103626838.248 2
E31  23725396.884 1 124677774.518 1  23725393.320 1  95532326.008 1
E01  24669668.202 1 129639993.985 1  24669663.187 1  99334515.443 1
E10  28543116.927 2 149995103.213 6  28543118.197 1 114931242.245 3
E20  28210248.941 2 148245844.531 6                                
E18  29820592.326 1 156708225.192 2  29820588.365 1 120075112.412 1
E24  27178649.329 1 142824726.429 2  27178645.039 1 109437154.500 1
E09  25065046.986 1 131717678.606 2  25065044.027 1 100926534.725 1
E04  24105144.500 1 126673383.369 1  24105138.828 1  97061406.973 1
E11                                  27278139.157 4               9
> 2022 02 25 13 10 45.0000000  0 33                     
G03  25005730.523 1 131406025.345 5  25005726.469 1 102394251.885 3
E12  27065180.561 1 142228385.976 4  27065177.979 1 108980174.611 2
G23  25437087.050 1 133672696.162 2  25437081.435 1 104160488.133 3
G29  24290032.209 1 127644992.092 1  24290024.655 1  99463601.978 3
G26  20336199.041 1 106867452.612 1  20336192.857 1  83273320.141 1
G22  21313265.796 1 112001956.850 1                                
C19  24866982.410 1 129488904.181 2
C37  23332938.782 1 121500721.959 1
C20  22113047.311 1 115148494.785 1
C27  26073336.225 1 135770692.389 2
C30  27046409.926 1 140837752.49714
C36  26265884.263 1 136773353.117 2
R13  22875826.893 2 122155677.668 5  22875821.377 2  95009927.417 4
R11  21166811.969 1 113109020.534 1  21166803.730 1  87973610.348 1
R01  19386793.214 1 103633615.461 1  19386786.619 1  80603828.610 1
R02  22652386.305 1 120877572.892 1  22652381.368 1  94015812.333 1
G32  21042491.509 1 110579024.516 1  21042484.698 1  86165507.754 1
G25  23595385.274 1 123994565.890 2  23595379.381 1  96619104.168 1
G10  22567007.705 1 118590344.715 1  22567000.271 1  92408090.271 1
G31  21448932.050 1 112714878.516 1  21448921.471 1  87829734.108 1
G16  22819679.769 1 119918210.674 1                                
C32  23131734.077 1 120453000.408 1
R08  20806282.231 1 111416673.938 1  20806272.759 1  86657367.648 1
R12  19984240.608 1 106752177.277 1  19984234.037 1  83029538.309 1
E19  25743731.030 1 135284296.008 3  25743726.031 1 103659470.742 2
E31  23727862.466 1 124690730.575 1  23727858.772 1  95542253.384 1
E01  24679604.319 1 129692208.842 1  24679599.032 1  99374524.221 1
E10  28551325.472 2 150038218.443 5  28551322.867 1 114964278.614 3
E20  28219863.124 2 148296364.095 5                                
E18  29818436.619 1 156696899.791 2  29818433.208 1 120066434.505 1
E24  27176167.134 1 142811680.530 2  27176162.345 1 109427158.314 1
E09  25063152.242 1 131707723.450 2  25063149.739 1 100918906.769 1
E04  24106938.814 1 126682809.861 1  24106932.536 1  97068629.865 1
> 2022 02 25 13 11 00.0000000  0 33                     
G03  25001530.706 1 131383954.245 4  25001526.463 1 102377053.612 3
E12  27072351.544 1 142266068.078 4  27072348.747 1 109009047.875 2
G23  25452045.101 1 133751304.540 3  25452040.322 1 104221741.322 4
G29  24293092.973 1 127661075.198 1  24293085.372 1  99476134.246 3
G26  20337083.590 1 106872099.693 1  20337077.223 1  83276941.246 1
G22  21314400.259 1 112007918.804 1                                
C19  24863169.554 1 129469046.411 1
C37  23342928.298 1 121552739.575 1
C20  22114873.538 1 115158005.324 1
C27  26073841.140 1 135773320.121 2
C30  27048319.257 1 140847692.397 3
C36  26264810.782 1 136767765.197 2
R13  22872972.442 2 122140435.748 5  22872966.633 2  94998072.637 4
R11  21179913.130 1 113179028.644 1  21179904.806 1  88028061.078 1
R01  19388503.186 1 103642757.389 1  19388496.916 1  80610938.997 1
R02  22645906.388 1 120842995.353 1  22645901.523 1  93988918.718 1
G32  21046246.622 1 110598756.846 1  21046239.900 1  86180883.580 1
G25  23609871.518 1 124070692.379 2  23609865.987 1  96678423.486 1
G10  22581144.276 1 118664634.551 1  22581137.443 1  92465978.418 1
G31  21456122.269 1 112752664.797 1  21456112.196 1  87859177.959 1
G16  22814348.682 1 119890194.655 1                                
C32  23142297.292 1 120508005.818 1
R08  20817395.341 1 111476182.613 1  20817385.590 1  86703652.144 1
R12  19988803.959 1 106776556.509 1  19988797.653 1  83048499.931 1
E19  25751846.883 1 135326945.899 2  25751841.831 1 103692150.503 2
E31  23730345.196 1 124703778.000 1  23730341.665 1  95552250.759 1
E01  24689551.203 1 129744480.713 1  24689546.238 1  99414576.685 1
E10  28559508.148 2 150081278.420 7  28559517.747 1 114997272.583 3
E20  28229487.188 2 148346935.569 5                                
E18  29816263.352 1 156685481.260 2  29816260.429 1 120057685.242 1
E24  27173693.757 1 142798682.905 2  27173689.208 1 109417199.089 1
E09  25061255.433 1 131697755.195 1  25061252.900 1 100911268.757 1
E04  24108741.042 1 126692280.348 1  24108734.797 1  97075886.460 1
> 2022 02 25 13 11 15.0000000  0 34                     
G03  24997343.820 1 131361946.915 3  24997339.411 1 102359905.085 3
E12  27079508.116 1 142303677.072 4  27079505.426 1 109037865.091 2
G23  25466999.664 1 133829893.471 3  25466995.427 1 104282979.392 3
G29  24296170.957 1 127677250.295 1  24296163.308 1  99488738.244 2
G26  20337993.554 1 106876883.003 1  20337987.392 1  83280668.516 1
G22  21315542.032 1 112013918.847 1                                
C19  24859361.767 1 129449220.742 1
C37  23352921.349 1 121604776.210 1
C20  22116720.470 1 115167623.319 1
C27  26074336.182 1 135775898.965 2
C30  27050212.388 1 140857550.747 2
C36  26263748.016 1 136762230.881 2
R13  22870138.055 2 122125297.143 4  22870131.361 2  94986298.148 3
R11  21193021.024 1 113249073.438 1  21193012.984 1  88082540.362 1
R01  19390243.927 1 103652063.250 1  19390237.816 1  80618176.897 1
R02  22639429.155 1 120808431.651 1  22639424.356 1  93962035.883 1
G32  21050016.225 1 110618565.965 1  21050009.531 1  86196319.246 1
G25  23624366.027 1 124146862.659 2  23624360.817 1  96737776.897 1
G10  22595291.415 1 118738980.240 1  22595284.895 1  92523910.106 1
G31  21463317.090 1 112790473.005 1  21463306.735 1  87888638.899 1
G16  22809030.171 1 119862246.187 1                                
C32  23152877.936 1 120563102.123 1
R08  20828535.852 1 111535838.921 1  20828526.028 1  86750051.482 1
R12  19993393.716 1 106801074.647 1  19993387.695 1  83067569.603 1
E19  25759975.302 1 135369658.431 2  25759969.917 1 103724878.272 2
E31  23732845.484 1 124716917.757 1  23732841.968 1  95562318.895 1
E01  24699508.630 1 129796810.390 1  24699504.226 1  99454673.442 1
E10  28567702.836 2 150124284.119 7  28567701.076 1 115030224.899 3
E20  28239122.370 2 148397559.892 5                                
E18  29814073.391 1 156673970.703 2  29814069.975 1 120048865.461 1
E24  27171229.649 1 142785734.621 2  27171225.382 1 109407277.691 1
E09  25059356.804 1 131687774.901 2  25059353.877 1 100903621.532 1
E04  24110551.449 1 126701795.950 1  24110545.415 1  97083177.636 1
E11                                  27303992.805 8               9
> 2022 02 25 13 11 30.0000000  0 32                     
G03  24993167.802 1 131340004.237 3  24993164.012 1 102342806.874 3
E12  27086651.986 1 142341213.204 3  27086648.494 1 109066626.461 2
G23  25481951.123 1 133908463.120 3  25481946.637 1 104344202.420 4
G29  24299266.148 1 127693518.192 2  24299259.254 1  99501414.541 2
G26  20338929.722 1 106881803.075 1  20338923.649 1  83284502.344 1
G22  21316691.270 1 112019957.549 1                                
C19  24855560.729 1 129429427.879 1
C37  23362917.557 1 121656832.075 1
C20  22118588.112 1 115177349.377 1
C27  26074821.738 1 135778429.470 2
C36  26262695.882 1 136756750.546 2
R13  22867323.689 2 122110262.443 4  22867315.143 2  94974604.478 3
R11  21206135.662 1 113319154.776 1  21206127.806 1  88137048.037 1
R01  19392015.460 1 103661533.843 1  19392009.285 1  80625542.897 1
R02  22632954.646 1 120773882.153 1  22632949.109 1  93935164.060 1
G32  21053800.419 1 110638452.499 1  21053793.755 1  86211815.243 1
G25  23638869.513 1 124223076.792 2  23638863.744 1  96797164.474 1
G10  22609449.607 1 118813381.827 1  22609443.411 1  92581885.307 1
G31  21470516.233 1 112828303.399 1  21470505.646 1  87918117.113 1
G16  22803725.074 1 119834366.106 1                                
C32  23163476.080 1 120618289.580 1
R08  20839703.800 1 111595643.084 1  20839694.279 1  86796565.789 1
R12  19998009.934 1 106825732.036 1  19998003.604 1  83086747.552 1
E19  25768114.804 1 135412434.056 2  25768109.761 1 103757654.389 2
E31  23735363.602 1 124730150.240 1  23735360.059 1  95572458.069 1
E01  24709478.033 1 129849198.024 1  24709473.475 1  99494814.596 1
E10  28575865.450 2 150167235.537 7  28575874.036 1 115063135.649 4
E20  28248766.130 4 148448237.317 6                                
E18  29811865.011 1 156662368.649 2  29811862.227 1 120039975.584 1
E24  27168774.916 1 142772836.240 2  27168770.785 1 109397394.529 1
E09  25057454.850 1 131677783.164 2  25057452.249 1 100895965.542 1
E04  24112371.268 1 126711357.287 1  24112364.902 1  97090503.842 1
> 2022 02 25 13 11 45.0000000  0 33                     
G03  24989004.558 1 131318123.746 3  24988999.961 1 102325757.200 3
E12  27093780.064 1 142378673.650 3  27093776.832 1 109095329.864 2
G23  25496898.278 1 133987010.616 2  25496893.744 1 104405408.144 3
G29  24302379.119 1 127709876.418 2  24302372.268 1  99514161.200 2
G26  20339891.447 1 106886857.308 1  20339885.433 1  83288440.719 1
G22  21317847.310 1 112026032.561 1                                
C19  24851766.354 1 129409665.420 1
C37  23372916.975 1 121708904.280 1
C20  22120476.325 1 115187181.016 1
C27  26075297.894 1 135780909.229 2
C30  27053953.499 9 140877035.16736
C36  26261653.279 1 136751321.572 2
R13  22864527.183 2 122095329.270 5  22864518.134 2  94962989.760 3
R11  21219256.758 1 113389269.521 1  21219248.777 1  88191581.693 1
R01  19393817.452 1 103671166.764 1  19393811.044 1  80633035.172 1
R02  22626482.187 1 120739344.697 1  22626476.735 1  93908301.616 1
G32  21057598.778 1 110658414.010 1  21057592.368 1  86227369.673 1
G25  23653380.518 1 124299331.727 2  23653374.516 1  96856583.865 1
G10  22623618.120 1 118887836.224 1  22623611.797 1  92639901.682 1
G31  21477718.948 1 112866153.067 1  21477707.997 1  87947610.352 1
G16  22798432.351 1 119806552.026 1                                
C32  23174091.505 1 120673565.363 1
R08  20850898.728 1 111655592.090 1  20850889.448 1  86843192.765 1
R12  20002651.452 1 106850525.501 1  20002645.225 1  83106031.367 1
E19  25776265.654 1 135455270.077 2  25776261.229 1 103790476.770 2
E31  23737898.830 1 124743472.752 1  23737895.289 1  95582666.239 1
E01  24719457.896 1 129901640.746 1  24719452.840 1  99534997.969 1
E10  28584045.432 4 150210129.867 6  28584036.103 1 115096002.789 4
E20  28258417.087 4 148498965.378 6                                
E18  29809639.521 1 156650672.558 2  29809636.504 1 120031013.633 1
E24  27166329.183 1 142759985.276 2  27166325.385 1 109387547.702 1
E09  25055551.082 1 131667777.449 1  25055548.035 1 100888298.835 1
E04  24114198.596 1 126720961.876 1  24114192.489 1  97097863.196 1
> 2022 02 25 13 12 00.0000000  0 32                     
G03  24984851.912 1 131296308.714 3  24984848.418 1 102308758.515 3
E12  27100895.255 1 142416061.490 4  27100891.478 1 109123977.618 3
G23  25511841.889 1 134065538.580 2  25511837.192 1 104466598.646 4
G29  24305509.555 1 127726328.160 2  24305502.653 1  99526980.734 2
G26  20340879.282 1 106892048.821 1  20340873.483 1  83292486.056 1
G22  21319010.500 1 112032147.237 1                                
C19  24847977.901 1 129389936.637 1
C37  23382920.571 1 121760995.624 1
C20  22122384.874 1 115197121.424 1
C27  26075765.545 1 135783341.370 2
C30  27055797.900 2 140886647.45418
C36  26260621.084 1 136745946.992 2
R13  22861749.644 2 122080500.401 5  22861742.196 2  94951456.273 3
R11  21232384.194 1 113459420.475 1  21232376.245 1  88246143.513 1
R01  19395650.358 1 103680965.416 1  19395644.028 1  80640656.334 1
R02  22620012.918 1 120704822.730 1  22620007.868 1  93881451.209 1
G32  21061412.453 1 110678453.736 1  21061405.580 1  86242985.036 1
G25  23667899.906 1 124375630.144 2  23667893.752 1  96916037.123 1
G10  22637796.742 1 118962346.072 1  22637790.560 1  92697961.266 1
G31  21484925.716 1 112904025.005 1  21484914.741 1  87977120.933 1
G16  22793152.312 1 119778807.225 1                                
C32  23184723.423 1 120728932.305 1
R08  20862121.360 1 111715688.933 1  20862112.133 1  86889934.726 1
R12  20007318.755 1 106875457.842 1  20007312.515 1  83125423.188 1
E19  25784429.274 1 135498169.656 3  25784424.659 1 103823347.856 2
E31  23740452.106 1 124756888.301 1  23740448.141 1  95592945.685 1
E01  24729448.562 1 129954141.318 1  24729443.435 1  99575225.674 1
E10  28592180.603 2 150252970.102 5  28592188.653 1 115128828.302 4
E18  29807396.104 1 156638885.522 2  29807393.329 1 120021982.004 1
E24  27163893.226 1 142747184.809 2  27163889.424 1 109377739.555 1
E09  25053645.529 1 131657760.878 1  25053641.435 1 100880623.786 1
E04  24116034.685 1 126730612.905 1  24116029.103 1  97105258.138 1
> 2022 02 25 13 12 15.0000000  0 32                     
G03  24980713.197 1 131274557.482 2  24980708.703 1 102291809.500 3
E12  27107995.415 1 142453374.390 3  27107991.888 1 109152567.969 3
G23  25526780.962 1 134144044.553 3  25526776.484 1 104527772.079 4
G29  24308657.658 1 127742871.717 2  24308650.420 1  99539871.821 2
G26  20341893.216 1 106897375.565 1  20341887.143 1  83296636.765 1
G22  21320181.276 1 112038299.621 1                                
C19  24844194.790 1 129370239.702 1
C37  23392927.548 1 121813103.785 1
C20  22124314.719 1 115207168.592 1
C27  26076223.165 1 135785724.067 2
C30  27057627.767 2 140896180.75232
C36  26259598.726 1 136740624.693 2
R13  22858991.811 2 122065773.983 4  22858985.144 2  94940002.366 3
R11  21245518.317 1 113529604.858 1  21245510.211 1  88300731.348 1
R01  19397513.809 1 103690927.816 1  19397507.601 1  80648404.855 1
R02  22613546.462 1 120670314.278 1  22613541.256 1  93854611.342 1
G32  21065240.545 1 110698569.747 1  21065233.610 1  86258659.842 1
G25  23682426.579 1 124451969.550 2  23682420.503 1  96975522.327 1
G10  22651985.649 1 119036908.849 1  22651979.606 1  92756062.078 1
G31  21492136.231 1 112941916.901 1  21492125.347 1  88006647.082 1
G16  22787885.496 1 119751130.002 1                                
C32  23195373.485 1 120784388.135 1
R08  20873371.328 1 111775931.231 1  20873361.894 1  86936789.823 1
R12  20012011.729 1 106900526.781 1  20012005.929 1  83144921.246 1
E19  25792604.435 1 135541130.608 2  25792599.984 1 103856265.957 2
E31  23743022.080 1 124770394.743 1  23743018.336 1  95603294.784 1
E01  24739449.822 1 130006697.406 1  24739444.698 1  99615495.916 1
E10  28600335.725 4 150295753.911 5  28600330.361 1 115161610.647 4
E18  29805135.729 1 156627005.575 2  29805132.670 1 120012879.174 1
E24  27161466.299 1 142734432.929 2  27161462.677 1 109367968.654 1
E09  25051736.914 1 131647731.504 1  25051732.744 1 100872938.944 1
E04  24117879.310 1 126740308.460 1  24117874.051 1  97112687.194 1
> 2022 02 25 13 12 30.0000000  0 32                     
G03  24976587.903 1 131252871.607 2  24976582.743 1 102274911.412 2
E12  27115081.957 1 142490613.504 3  27115078.264 1 109181101.787 2
G23  25541716.339 1 134222529.540 3  25541711.658 1 104588929.083 3
G29  24311823.584 1 127759508.414 2  24311816.103 1  99552835.485 2
G26  20342932.844 1 106902838.877 1  20342926.831 1  83300893.909 1
G22  21321359.268 1 112044491.243 1                                
C19  24840418.622 1 129350576.056 1
C37  23402937.786 1 121865229.808 1
C20  22126265.230 1 115217323.989 1
C27  26076670.994 1 135788058.713 2
C30  27059442.469 1 140905628.555 2
C36  26258586.717 1 136735355.945 2
R13  22856253.029 2 122051151.766 5  22856247.910 2  94928629.553 3
R11  21258658.615 1 113599823.439 1  21258650.226 1  88355345.766 1
R01  19399408.531 1 103701055.743 1  19399402.483 1  80656282.135 1
R02  22607082.114 1 120635821.463 1  22607077.364 1  93827783.605 1
G32  21069083.431 1 110718763.588 1  21069076.072 1  86274395.296 1
G25  23696961.650 1 124528350.840 2  23696955.570 1  97035040.161 1
G10  22666184.841 1 119111525.440 1  22666178.309 1  92814204.851 1
G31  21499350.605 1 112979829.738 1  21499339.727 1  88036189.566 1
G16  22782631.827 1 119723521.936 1                                
C32  23206040.500 1 120839933.903 1
R08  20884648.375 1 111836320.106 1  20884638.916 1  86983758.931 1
R12  20016730.361 1 106925733.212 1  20016724.664 1  83164526.241 1
E19  25800791.363 1 135584154.300 3  25800787.135 1 103889232.153 2
E31  23745609.578 1 124783993.310 1  23745606.140 1  95613714.472 1
E01  24749461.532 1 130059310.043 1  24749456.459 1  99655809.482 1
E10  28608458.182 4 150338482.239 7  28608461.818 1 115194350.508 4
E18  29802857.121 1 156615034.082 2  29802854.492 1 120003706.211 1
E24  27159049.575 1 142721731.040 2  27159045.868 1 109358236.043 1
E09  25049825.995 1 131637690.688 1  25049822.092 1 100865245.341 1
E04  24119732.742 1 126750049.962 1  24119727.814 1  97120151.468 1
> 2022 02 25 13 12 45.0000000  0 32                     
G03  24972473.625 1 131231248.519 2  24972468.769 1 102258062.299 3
E12  27122153.154 1 142527776.050 4  27122150.564 1 109209576.899 3
G23  25556647.121 1 134300990.397 3  25556642.610 1 104650067.287 3
G29  24315006.934 1 127776235.732 1  24314998.926 1  99565869.759 2
G26  20343997.845 1 106908436.074 1  20343991.630 1  83305255.373 1
G22  21322544.359 1 112050719.551 1                                
C19  24836648.291 1 129330943.311 1
C37  23412950.820 1 121917370.715 1
C20  22128235.623 1 115227585.013 1
C27  26077109.662 1 135790342.761 2
C30  27061240.208 8               9
C36  26257584.896 1 136730137.991 2
R13  22853534.467 2 122036630.638 5  22853529.391 2  94917335.341 3
R11  21271804.613 1 113670073.050 1  21271796.240 1  88409984.330 1
R01  19401333.621 1 103711346.657 1  19401327.404 1  80664286.165 1
R02  22600620.426 1 120601342.005 1  22600615.655 1  93800966.285 1
G32  21072940.385 1 110739032.636 1  21072933.157 1  86290189.353 1
G25  23711503.811 1 124604770.857 2  23711497.973 1  97094588.170 2
G10  22680393.568 1 119186192.655 1  22680387.414 1  92872387.059 1
G31  21506568.843 1 113017760.599 1  21506557.977 1  88065746.063 1
G16  22777390.885 1 119695980.622 1                                
C32  23216724.334 1 120895566.732 1
R08  20895952.145 1 111896852.528 1  20895942.668 1  87030839.680 1
R12  20021474.295 1 106951074.031 1  20021468.702 1  83184235.764 1
E19  25808990.308 1 135627237.892 2  25808985.668 1 103922244.236 2
E31  23748214.515 1 124797681.210 1  23748210.870 1  95624202.600 1
E01  24759483.714 1 130111976.218 1  24759478.705 1  99696164.075 1
E10  28616583.066 2 150381152.247 6  28616581.764 1 115227045.704 3
E18  29800561.148 1 156602968.338 2  29800558.387 1 119994461.034 1
E24  27156641.005 1 142709076.444 2  27156637.903 1 109348539.688 1
E09  25047913.331 1 131627635.848 1  25047908.820 1 100857540.979 1
E04  24121594.733 1 126759834.807 1  24121590.031 1  97127648.942 1
> 2022 02 25 13 13 00.0000000  0 32                     
G03  24968371.466 1 131209692.043 2  24968366.155 1 102241265.060 2
E12  27129211.669 1 142564865.351 3  27129208.238 1 109237995.932 2
G23  25571573.646 1 134379430.486 3  25571569.486 1 104711189.337 3
G29  24318208.154 1 127793057.360 2  24318200.114 1  99578977.545 2
G26  20345088.922 1 106914170.715 1  20345082.927 1  83309723.921 1
G22  21323737.441 1 112056988.335 1                                
C19  24832884.477 1 129311345.144 1
C37  23422967.887 1 121969529.772 1
C20  22130227.117 1 115237955.297 1
C27  26077539.212 1 135792579.878 2
C30  27063023.025 1 140924255.01312
C36  26256593.332 1 136724974.307 2
R13  22850834.770 4 122022214.497 5  22850830.083 2  94906122.810 3
R11  21284957.175 1 113740356.694 1  21284948.831 1  88464649.364 1
R01  19403289.737 1 103721804.478 1  19403283.715 1  80672420.006 1
R02  22594162.282 1 120566879.653 1  22594157.097 1  93774162.278 1
G32  21076812.345 1 110759380.628 1  21076805.349 1  86306044.934 1
G25  23726053.685 1 124681232.789 2  23726048.305 1  97154168.842 1
G10  22694612.256 1 119260913.617 1  22694606.251 1  92930611.146 1
G31  21513790.713 1 113055712.702 1  21513780.131 1  88095319.116 1
G16  22772162.976 1 119668509.958 1                                
C32  23227425.640 1 120951289.864 1
R08  20907283.890 1 111957531.433 1  20907273.827 1  87078034.361 1
R12  20026243.891 1 106976552.612 1  20026238.331 1  83204052.440 1
E19  25817201.022 1 135670385.025 2  25817195.950 1 103955305.013 2
E31  23750837.101 1 124811461.902 1  23750833.159 1  95634761.846 1
E01  24769516.466 1 130164699.205 1  24769511.483 1  99736562.206 1
E10  28624687.291 2 150423767.366 7  28624691.187 1 115259698.767 3
E18  29798247.675 1 156590811.988 2  29798245.013 1 119985146.433 1
E24  27154242.558 1 142696472.822 2  27154239.253 1 109338882.384 1
E09  25045997.288 1 131617570.565 2  25045993.640 1 100849828.614 1
E04  24123465.623 1 126769666.702 1  24123460.970 1  97135182.468 1
> 2022 02 25 13 13 15.0000000  0 32                     
G03  24964281.298 1 131188199.224 2  24964276.073 1 102224517.428 3
E12  27136254.927 1 142601878.101 4  27136251.599 1 109266356.312 2
G23  25586495.759 1 134457846.249 3  25586491.458 1 104772292.387 3
G29  24321426.680 1 127809970.415 1  24321419.063 1  99592156.537 2
G26  20346205.721 1 106920039.542 1  20346199.812 1  83314297.052 1
G22  21324937.482 1 112063294.530 1                                
C19  24829126.891 1 129291778.574 1
C37  23432987.146 1 122021703.503 1
C20  22132239.014 1 115248431.765 1
C27  26077959.528 1 135794767.035 2
C30  27064789.751 1 140933453.991 3
C36  26255611.397 1 136719861.655 2
R13  22848153.496 2 122007900.137 4  22848149.288 2  94894989.478 3
R11  21298115.257 1 113810670.829 1  21298107.041 1  88519338.122 1
R01  19405276.564 1 103732426.201 1  19405270.869 1  80680681.345 1
R02  22587706.942 1 120532431.261 1  22587701.302 1  93747369.106 1
G32  21080698.795 1 110779804.534 1  21080692.012 1  86321959.647 1
G25  23740611.450 1 124757732.948 2  23740605.923 1  97213779.297 2
G10  22708841.135 1 119335684.655 1  22708834.837 1  92988874.262 1
G31  21521016.424 1 113093682.671 1  21521005.919 1  88124906.103 1
G16  22766948.196 1 119641106.985 1                                
C32  23238143.735 1 121007099.926 1
R08  20918642.286 1 112018353.740 1  20918631.980 1  87125340.573 1
R12  20031038.857 1 107002165.309 1  20031032.755 1  83223973.424 1
E19  25825423.603 1 135713592.291 2  25825417.912 1 103988411.847 2
E31  23753476.826 1 124825332.085 1  23753472.603 1  95645389.649 1
E01  24779559.437 1 130217475.512 1  24779554.431 1  99777001.185 1
E10  28632792.496 4 150466324.036 5  28632789.290 1 115292307.054 3
E18  29795917.408 1 156578561.884 2  29795913.855 1 119975759.969 1
E24  27151853.412 1 142683917.047 2  27151849.845 1 109329261.727 1
E09  25044079.273 1 131607491.700 2  25044076.080 1 100842105.872 1
E04  24125345.213 1 126779542.533 1  24125340.330 1  97142749.659 1
> 2022 02 25 13 13 30.0000000  0 33                     
G03  24960204.295 1 131166772.560 3  24960198.420 1 102207821.327 3
E12  27143283.958 1 142638816.337 4  27143280.804 1 109294659.578 2
G23  25601413.611 1 134536239.411 3  25601409.361 1 104833377.870 3
G29  24324662.931 1 127826977.218 2  24324655.522 1  99605408.619 2
G26  20347348.755 1 106926044.922 1  20347342.609 1  83318976.563 1
G22  21326145.171 1 112069640.360 2                                
C19  24825375.669 1 129272245.964 1
C37  23443009.498 1 122073893.840 1
C20  22134272.133 1 115259016.686 1
C27  26078370.240 1 135796906.594 2
C30  27066540.445 1 140942570.525 1
C36  26254640.109 1 136714802.213 2
R13  22845492.781 2 121993689.666 4  22845488.387 2  94883936.905 3
R11  21311279.675 1 113881017.029 1  21311271.292 1  88574051.808 1
R01  19407294.830 1 103743214.250 1  19407289.088 1  80689072.036 1
R02  22581254.506 1 120497999.798 1  22581248.744 1  93720589.068 1
G32  21084600.231 1 110800306.672 1  21084593.659 1  86337935.338 1
G25  23755176.604 1 124834273.134 2  23755170.668 1  97273420.954 2
G10  22723078.982 1 119410507.539 1  22723073.057 1  93047177.758 1
G31  21528245.523 1 113131672.416 1  21528234.975 1  88154508.497 1
G16  22761747.095 1 119613774.086 1                                
C32  23248878.692 1 121062998.845 1
R08  20930027.763 1 112079321.086 1  20930016.814 1  87172759.596 1
R12  20035858.707 1 107027914.084 1  20035852.804 1  83244000.255 1
E19  25833657.105 1 135756861.975 3  25833652.166 1 104021566.516 2
E31  23756133.345 1 124839293.897 1  23756129.230 1  95656087.663 1
G21  25842623.287 8 135803901.50337                                
E01  24789612.953 1 130270307.048 1  24789607.937 1  99817482.475 1
E10  28640878.958 2 150508824.220 6  28640876.541 1 115324872.095 3
E18  29793568.299 1 156566220.254 2  29793565.378 1 119966303.404 1
E24  27149473.709 1 142671411.358 2  27149470.081 1 109319679.469 1
E09  25042159.437 1 131597401.577 1  25042156.042 1 100834374.487 1
E04  24127233.234 1 126789464.609 1  24127228.389 1  97150352.287 1
> 2022 02 25 13 13 45.0000000  0 32                     
G03  24956139.586 1 131145410.667 2  24956133.836 1 102191175.709 2
E12  27150298.392 1 142675678.274 4  27150295.408 1 109322904.372 2
G23  25616326.989 1 134614608.148 3  25616322.667 1 104894444.310 3
G29  24327916.130 1 127844076.311 2  24327909.905 1  99618732.556 2
G26  20348517.367 1 106932185.167 1  20348511.008 1  83323761.179 1
G22  21327359.928 1 112076024.778 1                                
C19  24821630.291 1 129252745.973 2
C37  23453035.398 1 122126098.882 1
C20  22136325.262 1 115269708.566 1
C27  26078771.925 1 135798997.017 1
C30  27068275.159 1 140951603.886 1
C36  26253678.427 1 136709794.289 2
R13  22842851.168 2 121979581.707 4  22842846.704 2  94872964.020 3
R11  21324449.884 1 113951393.110 1  21324441.465 1  88628788.753 1
R01  19409344.234 1 103754167.201 1  19409338.105 1  80697590.996 1
R02  22574804.913 1 120463583.678 1  22574799.155 1  93693821.000 1
G32  21088516.565 1 110820885.613 1  21088509.797 1  86353970.878 1
G25  23769749.262 1 124910851.323 2  23769742.945 1  97333092.227 2
G10  22737326.179 1 119485380.166 1  22737320.490 1  93105520.049 2
G31  21535478.193 1 113169680.020 1  21535467.503 1  88184124.793 1
G16  22756559.046 1 119586509.974 1                                
C32  23259630.074 1 121118984.795 1
R08  20941439.630 1 112140431.914 1  20941428.762 1  87220290.227 1
R12  20040704.045 1 107053796.858 1  20040698.096 1  83264131.295 1
E19  25841902.711 1 135800192.400 3  25841897.658 1 104054767.739 2
E31  23758807.068 1 124853345.618 1  23758803.259 1  95666854.581 1
E01  24799676.942 1 130323191.906 1  24799671.699 1  99858004.634 1
E10  28648951.479 4 150551266.114 6  28648953.174 1 115357392.471 3
E18  29791203.075 1 156553785.580 1  29791199.032 1 119956775.545 1
E24  27147102.597 1 142658954.260 2  27147099.463 1 109310134.433 1
E09  25040236.829 1 131587298.627 1  25040233.375 1 100826633.276 1
E04  24129130.327 1 126799431.466 1  24129125.035 1  97157989.225 1
> 2022 02 25 13 14 00.0000000  0 33                     
G03  24952086.811 1 131124114.541 4  24952081.261 1 102174581.341 3
E12  27157298.721 1 142712464.595 4  27157295.707 1 109351091.257 3
G23  25631235.902 1 134692952.725 2  25631231.461 1 104955491.900 2
G29  24331187.967 1 127861268.719 2  24331181.221 1  99632129.249 2
G26  20349711.684 1 106938461.132 1  20349705.055 1  83328651.547 1
G22  21328582.411 1 112082448.718 1                                
C19  24817892.516 1 129233279.602 1
C37  23463063.688 1 122178319.212 1
C20  22138399.365 1 115280508.354 1
C27  26079164.129 1 135801039.285 2
C30  27069993.752 1 140960554.935 3
C36  26252726.370 1 136704838.635 1
R13  22840228.769 2 121965577.041 4  22840224.366 2  94862071.527 3
R11  21337625.207 1 114021799.500 1  21337617.254 1  88683549.224 1
R01  19411424.499 1 103765286.196 1  19411417.979 1  80706239.102 1
R02  22568358.286 1 120429184.643 1  22568353.184 1  93667066.221 1
G32  21092447.520 1 110841542.318 1  21092440.590 1  86370067.011 1
G25  23784328.974 1 124987467.929 2  23784322.382 1  97392793.433 2
G10  22751583.785 1 119560302.979 1  22751578.194 1  93163901.390 1
G31  21542714.026 1 113207706.281 1  21542703.635 1  88213755.628 1
G16  22751384.307 1 119559315.732 1                                
C32  23270398.327 1 121175058.364 1
R08  20952878.361 1 112201686.434 1  20952867.443 1  87267932.603 1
R12  20045574.793 1 107079814.171 1  20045568.614 1  83284366.990 1
E19  25850160.619 1 135843584.455 2  25850155.214 1 104088016.177 2
E31  23761497.999 1 124867487.994 1  23761494.340 1  95677690.945 1
G21  25855612.975 8               9                                
E01  24809750.415 1 130376130.627 1  24809745.677 1  99898568.058 1
E10  28657023.229 2 150593650.307 6  28657018.780 1 115389868.645 3
E18  29788818.664 1 156541258.709 2  29788815.276 1 119947177.035 1
E24  27144742.161 1 142646546.641 2  27144738.458 1 109300627.292 1
E09  25038311.959 1 131577183.771 2  25038308.670 1 100818882.934 1
E04  24131036.466 1 126809444.035 1  24131030.442 1  97165661.175 1
> 2022 02 25 13 14 15.0000000  0 33                     
G03  24948046.069 1 131102882.922 3  24948040.377 1 102158037.256 3
E12  27164284.671 1 142749173.648 3  27164281.577 1 109379218.916 3
G23  25646140.800 2 134771271.430 4  25646135.534 1 105016519.344 4
G29  24334477.160 1 127878553.006 2  24334470.088 1  99645597.517 2
G26  20350931.412 1 106944871.262 1  20350924.741 1  83333646.459 1
G22  21329812.195 1 112088910.856 1                                
C19  24814161.249 1 129213845.530 1
C37  23473094.734 1 122230553.019 1
C20  22140493.503 1 115291414.587 1
C27  26079546.600 1 135803032.086 2
C30  27071696.436 1 140969421.361 3
C36  26251785.054 1 136699933.713 2
R13  22837624.645 2 121951674.228 4  22837620.539 2  94851258.223 3
R11  21350806.264 1 114092234.120 1  21350798.144 1  88738331.681 1
R01  19413535.274 1 103776569.904 1  19413528.851 1  80715015.317 1
R02  22561915.130 1 120394801.283 1  22561909.889 1  93640323.625 1
G32  21096392.957 1 110862275.426 1  21096386.010 1  86386222.669 1
G25  23798915.347 1 125064120.916 2  23798908.659 1  97452523.003 2
G10  22765850.816 1 119635273.896 1  22765844.224 1  93222320.250 2
G31  21549953.213 1 113245749.363 1  21549943.017 1  88243399.593 1
G16  22746222.246 1 119532190.109 1                                
C32  23281182.801 1 121231217.799 1
R08  20964343.587 1 112263083.109 1  20964332.303 1  87315685.550 1
R12  20050470.322 1 107105964.211 1  20050463.816 1  83304705.903 1
E19  25858428.664 1 135887036.432 2  25858423.898 1 104121310.535 2
E31  23764206.291 1 124881719.414 1  23764202.458 1  95688595.550 1
G21  25862099.535 9               9                                
E01  24819833.781 1 130429121.392 1  24819829.495 1  99939171.360 1
E10  28665079.250 2 150635975.094 5  28665072.974 1 115422299.260 3
E18  29786417.467 1 156528638.183 2  29786413.738 1 119937506.753 1
E24  27142390.445 1 142634187.062 2  27142386.525 1 109291156.977 1
E09  25036384.222 1 131567055.518 2  25036381.354 1 100811122.345 1
E04  24132950.530 1 126819500.907 1  24132944.233 1  97173367.082 1
> 2022 02 25 13 14 30.0000000  0 33                     
G03  24944019.166 1 131081720.666 3  24944013.134 1 102141547.165 2
E12  27171255.907 1 142785809.770 4  27171253.422 1 109407290.711 2
G23  25661039.100 1 134849568.498 2  25661034.906 1 105077529.933 2
G29  24337785.083 1 127895933.971 2  24337777.309 1  99659141.142 2
G26  20352177.516 1 106951420.111 1  20352170.792 1  83338749.466 1
G22  21331050.174 1 112095415.812 1                                
C19  24810436.338 1 129194448.449 1
C37  23483129.236 1 122282804.523 1
C20  22142609.136 1 115302431.871 1
C27  26079920.296 1 135804979.984 2
C30  27073383.704 1 140978208.106 3
C36  26250853.636 1 136695083.912 1
R13  22835040.376 4 121937877.919 5  22835035.969 2  94840527.754 3
R11  21363993.667 1 114162701.042 1  21363984.660 1  88793139.282 1
R01  19415678.032 1 103788023.154 1  19415671.353 1  80723923.393 1
R02  22555475.106 1 120360438.438 1  22555470.334 1  93613596.990 1
G32  21100353.760 1 110883089.591 1  21100346.913 1  86402441.485 1
G25  23813509.659 1 125140814.467 2  23813503.073 1  97512284.194 3
G10  22780127.091 1 119710297.050 1  22780120.698 1  93280779.813 1
G31  21557196.674 1 113283813.472 1  21557186.413 1  88273059.934 1
G16  22741074.449 1 119505137.983 1                                
C32  23291985.232 1 121287467.322 1
R08  20975835.981 1 112324626.289 1  20975825.023 1  87363552.453 1
R12  20055390.810 1 107132251.170 1  20055384.760 1  83325151.316 1
E19  25866709.708 1 135930552.794 2  25866704.855 1 104154654.206 2
E31  23766932.306 1 124896044.288 1  23766928.510 1  95699571.746 1
G21  25868589.757 9               9                                
E01  24829928.209 1 130482168.435 1  24829924.036 1  99979817.786 1
E10  28673121.238 4 150678244.686 6  28673117.476 1 115454687.613 3
E18  29783998.860 1 156515928.549 2  29783995.154 1 119927768.208 1
E24  27140048.197 1 142621880.070 2  27140044.633 1 109281726.945 1
E09  25034455.674 1 131556918.504 2  25034452.094 1 100803355.029 1
E04  24134873.200 1 126829606.709 1  24134867.475 1  97181110.476 1
> 2022 02 25 13 14 45.0000000  0 33                     
G03  24940004.569 1 131060622.731 2  24939999.146 1 102125107.239 2
E12  27178213.230 1 142822367.625 3  27178210.321 1 109435302.483 2
G23  25675933.348 1 134927838.071 2  25675929.088 1 105138519.082 2
G29  24341110.015 1 127913406.430 2  24341102.082 1  99672756.014 2
G26  20353449.097 1 106958102.451 1  20353442.417 1  83343956.496 1
G22  21332295.381 1 112101958.473 1                                
C19  24806717.185 1 129175083.355 1
C37  23493165.756 1 122335068.246 1
C20  22144745.396 1 115313555.089 1
C27  26080284.941 1 135806877.913 2
C30  27075054.913 1 140986909.680 4
C36  26249931.596 1 136690283.999 2
R13  22832475.082 2 121924182.692 5  22832470.889 2  94829875.913 3
R11  21377185.250 1 114233194.453 1  21377176.353 1  88847967.484 1
R01  19417851.709 1 103799640.903 1  19417844.943 1  80732959.414 1
R02  22549038.727 1 120326091.361 1  22549033.479 1  93586882.618 1
G32  21104328.691 1 110903979.737 1  21104322.220 1  86418719.516 1
G25  23828110.241 1 125217542.935 1  23828104.429 1  97572072.576 3
G10  22794412.591 1 119785366.725 1  22794406.292 1  93339275.615 1
G31  21564442.966 1 113321893.211 1  21564433.021 1  88302732.437 1
G16  22735939.729 1 119478154.274 1                                
C32  23302803.670 1 121343801.510 1
R08  20987354.770 1 112386309.886 1  20987344.454 1  87411528.563 1
R12  20060336.292 1 107158669.245 1  20060330.289 1  83345698.698 1
E19  25875001.643 1 135974128.247 3  25874997.045 1 104188043.158 2
E31  23769675.124 1 124910457.268 1  23769671.123 1  95710615.472 1
G21  25875077.521 9               9                                
E01  24840032.913 1 130535266.210 1  24840028.269 1 100020503.084 1
E10  28681145.040 4 150720453.659 6  28681149.214 1 115487029.512 3
E18  29781562.226 1 156503124.661 2  29781558.786 1 119917957.418 1
E24  27137715.067 1 142609620.533 2  27137711.900 1 109272333.295 1
E09  25032523.734 1 131546767.547 2  25032520.590 1 100795577.055 1
E04  24136804.480 1 126839756.357 1  24136798.980 1  97188887.475 1
> 2022 02 25 13 15 00.0000000  0 32                     
G03  24936002.559 1 131039593.174 2  24935997.568 1 102108720.598 2
E12  27185155.409 1 142858850.851 3  27185152.749 1 109463257.114 2
G23  25690823.276 1 135006083.641 3  25690818.677 1 105199489.570 3
G29  24344452.698 1 127930974.509 2  24344444.904 1  99686445.464 2
G26  20354746.763 1 106964922.115 1  20354740.209 1  83349270.520 1
G22  21333548.293 1 112108542.979 1                                
C19  24803005.331 1 129155754.282 1
C37  23503205.724 1 122387347.742 1
C20  22146902.675 1 115324788.152 1
C27  26080640.524 1 135808729.861 2
C30  27076710.392 1 140995529.986 2
C36  26249020.153 1 136685537.768 2
R13  22829928.942 2 121910592.768 4  22829926.131 2  94819306.004 4
R11  21390382.834 1 114303717.798 1  21390373.457 1  88902818.983 1
R01  19420056.373 1 103811427.244 1  19420050.209 1  80742126.561 1
R02  22542605.724 1 120291764.445 1  22542600.734 1  93560183.941 1
G32  21108319.036 1 110924949.865 1  21108312.861 1  86435059.867 1
G25  23842718.318 1 125294309.671 2  23842713.174 1  97631890.802 2
G10  22808707.430 1 119860486.342 1  22808701.027 1  93397810.342 1
G31  21571692.832 1 113359992.131 1  21571683.129 1  88332419.881 1
G16  22730818.605 1 119451243.063 1                                
C32  23313638.665 1 121400223.953 1
R08  20998900.765 1 112448137.847 1  20998890.849 1  87459616.955 1
R12  20065307.242 1 107185222.136 1  20065301.366 1  83366350.947 1
E19  25883305.552 1 136017766.566 3  25883301.057 1 104221480.301 2
E31  23772435.090 1 124924962.142 1  23772431.375 1  95721729.596 1
E01  24850147.339 1 130588418.281 1  24850142.997 1 100061229.993 1
E10  28689173.440 2 150762605.643 6  28689170.480 1 115519327.715 4
E18  29779108.857 1 156490230.407 2  29779104.891 1 119908077.393 1
E24  27135392.463 1 142597412.393 2  27135388.619 1 109262979.016 1
E09  25030590.183 1 131536606.621 2  25030587.080 1 100787791.411 1
E04  24138744.740 1 126849953.788 1  24138739.427 1  97196701.078 1
> 2022 02 25 13 15 15.0000000  0 34                     
G03  24932013.019 1 131018630.222 3  24932008.199 1 102092385.863 2
E12  27192083.407 1 142895257.256 3  27192080.697 1 109491152.889 2
G23  25705707.364 1 135084303.152 3  25705703.651 1 105260439.679 3
G29  24347813.585 1 127948636.242 2  24347805.858 1  99700207.872 2
G26  20356070.261 1 106971877.074 1  20356063.761 1  83354689.975 1
G22  21334809.199 1 112115167.497 1                                
C19  24799299.994 1 129136459.389 1
C37  23513247.858 1 122439640.706 1
C20  22149080.566 1 115336129.148 1
C27  26080986.716 1 135810533.929 2
C30  27078349.770 1 141004067.168 3
C36  26248118.038 1 136680843.068 1
R13  22827403.185 2 121897105.815 4  22827400.462 2  94808816.125 4
R11  21403585.781 1 114374268.422 1  21403576.836 1  88957691.665 1
R01  19422292.492 1 103823380.502 1  19422286.278 1  80751423.549 1
R02  22536176.511 1 120257455.431 1  22536171.003 1  93533499.152 1
G32  21112324.437 1 110945998.089 1  21112317.942 1  86451461.072 1
G25  23857333.771 1 125371112.237 2  23857327.951 1  97691736.912 3
G10  22823011.323 1 119935653.346 1  22823005.524 1  93456382.002 1
G31  21578946.077 1 113398107.879 1  21578936.336 1  88362120.446 1
G16  22725710.769 1 119424402.480 1                                
C32  23324490.165 1 121456732.374 1
C23  27313360.816 9               9
R08  21010472.753 1 112510107.970 1  21010463.500 1  87507815.919 1
R12  20070302.696 1 107211907.387 1  20070296.962 1  83387106.146 1
E19  25891621.039 1 136061465.746 3  25891616.869 1 104254964.054 2
E31  23775212.501 1 124939556.770 1  23775208.720 1  95732912.493 1
G21  25888021.863 9               9                                
E01  24860271.792 1 130641622.321 1  24860267.510 1 100101996.713 1
E10  28697180.913 2 150804698.348 6  28697180.135 1 115551580.576 4
E18  29776637.790 1 156477243.781 2  29776633.752 1 119898126.597 1
E24  27133078.433 1 142585253.646 1  27133074.739 1 109253662.581 1
E09  25028654.672 1 131526433.702 1  25028651.202 1 100779996.597 1
E04  24140693.491 1 126860197.042 1  24140688.540 1  97204549.816 1
> 2022 02 25 13 15 30.0000000  0 33                     
G03  24928036.297 1 130997731.743 2  24928031.215 1 102076101.344 3
E12  27198996.439 1 142931584.317 3  27198993.079 1 109518987.863 2
G23  25720586.932 1 135162493.744 3  25720582.724 1 105321367.278 3
G29  24351191.933 1 127966389.344 2  24351184.579 1  99714041.460 2
G26  20357419.058 1 106978964.950 1  20357412.719 1  83360212.996 1
G22  21336076.830 1 112121829.773 1                                
C19  24795600.752 1 129117196.521 1
C37  23523292.014 1 122491944.543 1
C20  22151278.532 1 115347575.782 1
C27  26081323.383 1 135812287.953 2
C30  27079973.221 2               9
C36  26247226.939 1 136676197.510 1
R13  22824897.357 2 121883719.802 4  22824892.721 2  94798404.830 3
R11  21416793.515 1 114444843.505 1  21416784.105 1  89012583.384 1
R01  19424559.153 1 103835498.250 1  19424553.019 1  80760848.467 1
R02  22529749.599 1 120223162.765 1  22529744.855 1  93506827.077 1
G32  21116344.088 1 110967122.200 1  21116337.694 1  86467921.409 1
G25  23871955.433 1 125447947.878 1  23871949.493 1  97751608.822 2
G10  22837323.628 1 120010864.983 1  22837317.683 1  93514988.421 1
G31  21586201.982 1 113436237.875 1  21586191.885 1  88391832.120 1
G16  22720616.424 1 119397630.768 1                                
C32  23335358.308 1 121513324.184 1
R08  21022071.342 1 112572217.257 1  21022061.680 1  87556123.119 1
R12  20075322.447 1 107238722.281 1  20075316.480 1  83407962.178 1
E19  25899948.202 1 136105223.396 3  25899943.905 1 104288492.629 2
E31  23778006.075 1 124954238.672 1  23778002.611 1  95744162.260 1
G21  25894547.813 9               9                                
E01  24870405.595 1 130694875.658 1  24870401.483 1 100142801.208 1
E10  28705183.572 2 150846729.219 7  28705177.290 1 115583785.999 5
E18  29774148.596 1 156464162.479 2  29774144.407 1 119888103.243 1
E24  27130773.919 1 142573142.012 2  27130769.875 1 109244382.226 1
E09  25026716.366 1 131516246.540 1  25026712.707 1 100772190.873 1
E04  24142650.873 1 126870483.926 1  24142646.104 1  97212431.972 1
> 2022 02 25 13 15 45.0000000  0 32                     
G03  24624279.936 1 129401479.255 2  24624274.341 1 100832268.223 2
E12  26906102.468 1 141392417.009 3  26906099.365 1 108339625.804 2
G23  25435669.556 1 133665243.033 2  25435665.751 1 104154678.285 2
G29  24054796.167 1 126408817.952 2  24054788.665 1  98500349.479 2
G26  20059001.378 1 105410768.877 1  20058994.802 1  82138242.025 1
G22  21037560.103 1 110553113.152 1                                
C19  24492114.751 1 127536869.234 2
C37  23233547.319 1 120983167.032 1
C20  21853705.579 1 113798033.580 1
C27  25781858.607 1 134252896.731 2
C30  26781787.989 1 139459800.64413
C36  25946551.982 1 135110505.401 1
R13  22522617.964 2 120269561.447 4  22522612.549 2  93542948.343 3
R11  21130213.777 1 112913449.749 1  21130205.287 1  87821499.352 1
R01  19127064.972 1 102245221.952 1  19127058.395 1  79523966.884 1
R02  22223533.650 1 118589137.162 1  22223528.507 1  92235918.292 1
G32  20820586.637 1 109412906.355 1  20820580.576 1  85256844.125 1
G25  23586791.715 1 123949403.921 1  23586786.446 1  96583912.212 2
G10  22551853.771 1 118510708.408 1  22551847.658 1  92346035.214 1
G31  21293669.313 1 111898967.082 1  21293658.568 1  87193958.768 1
G16  22415742.518 1 117795509.007 1                                
C32  23046450.861 1 120008907.541 1
R08  20733904.782 1 111029097.526 1  20733895.342 1  86355918.845 1
R12  19780575.043 1 105664233.470 1  19780569.053 1  82183359.785 1
E19  25608494.823 1 134573625.002 3  25608490.416 1 103114930.205 2
E31  23481024.919 1 123393591.397 1  23481021.365 1  94548341.628 1
E01  24580757.846 1 129172764.212 1  24580753.315 1  98976508.003 1
E10  28413354.202 8               9  28413372.141 1 114408808.025 5
E18  29471849.073 1 154875568.297 1  29471845.040 1 118670868.735 1
E24  26828685.704 1 140985659.363 2  26828682.098 1 108027999.452 1
E09  24724982.776 1 129930627.164 2  24724979.415 1  99557235.779 1
E04  23844825.093 1 125305397.885 1  23844819.853 1  96013210.188 1
> 2022 02 25 13 16 00.0000000  0 32                     
G03  24620328.661 1 129380716.699 2  24620323.479 1 100816089.623 2
E12  26912986.273 1 141428591.161 4  26912983.107 1 108367343.618 2
G23  25450538.919 1 133743380.752 4  25450534.556 1 104215564.751 4
G29  24058210.607 1 126426760.757 2  24058203.229 1  98514330.888 2
G26  20060401.923 1 105418128.816 1  20060395.328 1  82143977.049 1
G22  21038843.525 1 110559857.731 1                                
C19  24488429.040 1 127517677.214 1
C37  23243596.977 1 121035497.896 1
C20  21855945.245 1 113809698.010 1
C27  25782177.928 1 134254557.174 2
C30  26783379.243 2 139468087.144 6
C36  25945679.955 1 135105964.145 2
R13  22520149.856 2 120256383.421 4  22520145.687 2  93532698.785 3
R11  21143431.277 1 112984078.284 1  21143422.651 1  87876432.636 1
R01  19129394.640 1 102257676.092 1  19129388.218 1  79533653.427 1
R02  22217115.009 1 118554884.399 1  22217109.606 1  92209277.257 1
G32  20824636.604 1 109434188.863 1  20824630.517 1  85273427.884 1
G25  23601426.908 1 124026310.624 1  23601421.415 1  96643839.471 2
G10  22566183.917 1 118586014.097 1  22566177.787 1  92404714.915 1
G31  21300931.574 1 111937131.101 1  21300921.175 1  87223696.963 1
G16  22410675.736 1 117768881.840 1                                
C32  23057352.059 1 120065671.542 1
R08  20745556.655 1 111091490.813 1  20745546.755 1  86404446.933 1
R12  19785644.570 1 105691312.909 1  19785638.704 1  82204421.564 1
E19  25616844.954 1 134617505.711 2  25616840.609 1 103148553.024 2
E31  23483853.131 1 123408453.802 1  23483849.417 1  94559729.705 1
E01  24590911.315 1 129226121.504 1  24590906.849 1  99017392.145 1
E10  28421368.123 4 149355206.25417  28421349.060 1 114440922.930 5
E18  29469324.945 1 154862304.008 2  29469321.053 1 118660705.173 1
E24  26826400.396 1 140973648.408 2  26826396.459 1 108018796.250 1
E09  24723039.814 1 129920417.925 2  24723036.570 1  99549413.152 1
E04  23846800.851 1 125315778.569 1  23846795.236 1  96021164.208 1
> 2022 02 25 13 16 15.0000000  0 33                     
G03  24616390.181 1 129360022.057 3  24616385.617 1 100799963.963 2
E12  26919855.334 1 141464688.310 4  26919851.922 1 108395002.413 2
G23  25465403.307 2 133821491.202 5  25465399.628 4 104276429.841 5
G29  24061642.814 1 126444798.224 2  24061635.521 1  98528386.069 2
G26  20061828.100 1 105425624.405 1  20061821.659 1  82149817.776 1
G22  21040134.927 1 110566643.370 1                                
C19  24484750.536 1 127498520.576 1
C37  23253649.412 1 121087841.512 1
C20  21858206.111 1 113821471.070 1
C27  25782488.010 1 134256170.675 2
C30  26784954.556 1 139476290.652 2
C36  25944817.653 1 135101474.589 1
R13  22517701.600 2 120243308.983 4  22517696.579 2  93522529.794 3
R11  21156653.664 1 113054732.558 1  21156644.834 1  87931385.963 1
R01  19131755.756 1 102270298.353 1  19131749.488 1  79543470.728 1
R02  22210699.834 1 118520652.013 1  22210694.684 1  92182652.064 1
G32  20828701.666 1 109455550.432 1  20828695.405 1  85290073.255 1
G25  23616068.372 1 124103251.863 1  23616062.838 1  96703793.642 2
G10  22580523.094 1 118661365.741 1  22580516.478 1  92463430.450 1
G31  21308197.016 1 111975311.413 1  21308186.917 1  87253447.842 1
G16  22405622.727 1 117742326.882 1                                
C32  23068269.527 1 120122520.945 1
R08  20757234.981 1 111154025.102 1  20757224.920 1  86453084.692 1
R12  19790738.789 1 105718523.627 1  19790732.867 1  82225585.462 1
E19  25625206.478 1 134661447.362 3  25625202.529 1 103182222.601 2
E31  23486698.602 1 123423405.928 1  23486694.746 1  94571186.533 1
G27  25754794.715 2 135342389.01214  25754792.858 4 105461549.00313
E01  24601074.612 1 129279529.959 1  24601070.185 1  99058315.495 1
E10  28429303.931 4 149397059.190 7  28429313.505 1 114472991.996 3
E18  29466782.686 1 154848947.937 1  29466779.421 1 118650471.294 1
E24  26824124.191 1 140961687.489 2  26824120.219 1 108009631.402 1
E09  24721095.656 1 129910197.391 1  24721091.294 1  99541581.855 1
E04  23848785.054 1 125326205.960 1  23848779.323 1  96029154.021 1
> 2022 02 25 13 16 30.0000000  0 33                     
G03  24612465.571 1 129339397.648 2  24612460.534 1 100783893.005 2
E12  26926709.528 1 141500710.344 3  26926706.922 1 108422603.647 2
G23  25480261.712 1 133899576.093 3  25480259.754 1 104337275.154 4
G29  24065093.442 1 126462932.624 2  24065086.664 1  98542516.780 2
G26  20063280.751 1 105433257.668 1  20063274.342 1  82155765.787 1
G22  21041434.551 1 110573472.458 2                                
C19  24481078.943 1 127479401.520 1
C37  23263704.162 1 121140199.615 1
C20  21860488.107 1 113833354.886 1
C27  25782789.065 1 134257739.421 2
C30  26786514.354 1 139484413.091 2
C36  25943965.358 1 135097038.691 2
R13  22515272.422 2 120230340.476 4  22515268.035 2  93512443.162 3
R11  21169880.500 1 113125414.142 1  21169871.830 1  87986360.493 1
R01  19134148.908 1 102283091.034 1  19134142.551 1  79553420.583 1
R02  22204289.031 1 118486442.163 1  22204283.768 1  92156044.420 1
G32  20832782.547 1 109476993.259 1  20832775.793 1  85306781.937 1
G25  23630716.603 1 124180229.237 1  23630711.115 1  96763775.969 2
G10  22594870.855 1 118736764.950 1  22594864.996 1  92522183.015 1
G31  21315466.148 1 112013509.802 1  21315456.108 1  87283212.815 1
G16  22400583.674 1 117715846.369 1                                
C32  23079203.459 1 120179457.477 1
R08  20768940.064 1 111216702.585 1  20768929.480 1  86501833.821 1
R12  19795857.677 1 105745867.312 1  19795851.577 1  82246852.762 1
E19  25633580.480 1 134705452.082 3  25633576.295 1 103215940.490 2
E31  23489561.384 1 123438449.732 1  23489557.534 1  94582713.600 1
E01  24611248.079 1 129332991.312 1  24611243.472 1  99099279.381 1
E10  28437277.024 4 149438854.087 5  28437266.831 1 114505016.651 4
E18  29464224.220 1 154835502.200 2  29464220.857 1 118640168.711 1
E24  26821858.684 1 140949778.758 2  26821854.043 1 108000506.522 1
E09  24719147.976 1 129899967.688 2  24719144.403 1  99533743.532 1
E04  23850778.876 1 125336682.193 1  23850772.728 1  96037181.256 1
G27                                  25751945.000 9               9
> 2022 02 25 13 16 45.0000000  0 33                     
G03  24608554.554 1 129318843.282 3  24608549.240 1 100767876.622 2
E12  26933550.093 1 141536656.680 3  26933547.390 1 108450146.882 2
G23  25495116.373 1 133977634.616 3  25495113.039 2 104398099.882 5
G29  24068562.747 1 126481163.675 2  24068555.783 1  98556722.787 2
G26  20064759.383 1 105441028.194 1  20064753.185 1  82161820.732 1
G22  21042741.812 1 110580344.661 1                                
C19  24477414.665 1 127460319.845 1
C37  23273761.940 1 121192571.550 1
C20  21862791.708 1 113845349.122 1
C27  25783081.652 1 134259263.079 2
C30  26788058.471 1 139492454.042 4
C36  25943123.154 1 135092655.944 1
R13  22512864.320 2 120217477.454 4  22512859.107 2  93502438.601 3
R11  21183112.141 1 113196122.119 1  21183103.778 1  88041355.556 1
R01  19136574.018 1 102296053.957 1  19136567.788 1  79563502.858 1
R02  22197882.439 1 118452254.974 1  22197877.309 1  92129454.388 1
G32  20836878.440 1 109498517.021 1  20836871.384 1  85323553.688 1
G25  23645371.742 1 124257241.961 1  23645366.176 1  96823785.826 1
G10  22609227.842 1 118812210.827 1  22609221.526 1  92580971.971 1
G31  21322738.409 1 112051725.522 1  21322728.092 1  87312991.293 1
G16  22395558.649 1 117689440.299 1                                
C32  23090154.098 1 120236480.486 1
R08  20780670.935 1 111279522.387 1  20780660.813 1  86550693.642 1
R12  19801001.119 1 105773343.412 1  19800994.752 1  82268223.050 1
E19  25641965.961 1 134749519.363 3  25641962.270 1 103249706.309 2
E31  23492441.496 1 123453584.670 1  23492437.603 1  94594310.504 1
G27  25749086.250 2 135312412.67017  25749081.343 4               9
E01  24621431.196 1 129386504.871 1  24621426.778 1  99140283.259 1
E10  28445198.259 4 149480590.475 7  28445209.157 1 114536996.395 3
E18  29461648.435 1 154821966.430 2  29461645.337 1 118629797.126 1
E24  26819602.099 1 140937921.824 2  26819597.932 1 107991421.342 1
E09  24717199.942 1 129889728.485 1  24717196.107 1  99525897.927 1
E04  23852781.907 1 125347207.004 1  23852775.731 1  96045245.711 1
> 2022 02 25 13 17 00.0000000  0 32                     
G03  24604656.971 1 129298362.058 3  24604651.564 1 100751917.226 3
E12  26940376.664 1 141572529.978 3  26940374.069 1 108477634.180 2
G23  25509965.760 1 134055669.348 5  25509962.060 2 104458906.051 7
G29  24072050.775 1 126499494.354 1  24072043.918 1  98571006.432 2
G26  20066264.800 1 105448938.844 1  20066258.155 1  82167984.882 1
G22  21044058.542 1 110587263.129 1                                
C19  24473758.184 1 127441278.595 1
C37  23283822.273 1 121244959.912 1
C20  21865117.055 1 113857456.716 1
C27  25783366.224 1 134260744.707 3
C30  26789588.269 1 139500416.475 4
C36  25942292.867 1 135088329.146 1
R13  22510475.868 2 120204722.613 4  22510470.620 2  93492518.195 4
R11  21196349.195 1 113266858.747 1  21196341.432 1  88096372.915 1
R01  19139031.789 1 102309190.300 1  19139025.002 1  79573720.008 1
R02  22191480.316 1 118418094.033 1  22191475.637 1  92102884.786 1
G32  20840990.037 1 109520124.793 1  20840983.299 1  85340390.911 1
G25  23660033.896 1 124334292.422 2  23660028.553 1  96883825.109 1
G10  22623593.963 1 118887705.822 1  22623587.787 1  92639799.196 1
G31  21330014.597 1 112089961.388 1  21330004.283 1  87342785.459 1
G16  22390548.448 1 117663111.707 1                                
C32  23101122.010 1 120293592.598 1
R08  20792428.784 1 111342487.057 1  20792419.056 1  86599666.143 1
R12  19806169.605 1 105800954.378 1  19806163.483 1  82289698.255 1
E19  25650364.183 1 134793652.073 3  25650360.370 1 103283522.227 2
E31  23495339.668 1 123468813.541 1  23495335.553 1  94605979.372 1
E01  24631624.717 1 129440073.208 1  24631620.303 1  99181329.121 1
E10  28453155.322 4 149522270.888 7  28453140.829 1 114568933.265 3
E18  29459055.935 1 154808343.512 2  29459053.030 1 118619358.796 1
E24  26817356.394 1 140926119.663 1  26817352.224 1 107982378.144 1
E09  24715250.551 1 129879482.732 1  24715246.376 1  99518047.324 1
E04  23854795.024 1 125357783.344 1  23854788.354 1  96053349.650 1
> 2022 02 25 13 17 15.0000000  0 32                     
G03  24600772.597 1 129277950.449 2  24600767.534 1 100736012.067 3
E12  26947188.261 1 141608326.332 4  26947185.867 1 108505062.499 2
G23  25524809.268 2 134133676.338 5  25524803.852 8               9
G29  24075557.631 1 126517920.977 1  24075550.241 1  98585364.860 2
G26  20067796.207 1 105456985.798 1  20067789.517 1  82174255.241 1
G22  21045382.876 1 110594224.208 2                                
C19  24470108.566 1 127422274.199 1
C37  23293885.314 1 121297360.624 1
C20  21867463.217 1 113869674.000 1
C27  25783641.861 1 134262180.689 2
C30  26791101.021 1 139508296.470 4
C36  25941471.926 1 135084054.474 1
R13  22508106.896 2 120192072.403 4  22508101.220 2  93482679.119 4
R11  21209591.222 1 113337619.866 1  21209583.236 1  88151409.313 1
R01  19141520.997 1 102322496.402 1  19141514.474 1  79584069.196 1
R02  22185083.093 1 118383955.699 1  22185077.710 1  92076332.762 1
G32  20845117.198 1 109541812.905 1  20845110.217 1  85357290.725 1
G25  23674702.253 1 124411376.435 2  23674697.067 1  96943890.520 2
G10  22637968.972 1 118963245.660 1  22637962.661 1  92698661.355 1
G31  21337293.830 1 112128213.376 1  21337283.220 1  87372592.190 1
G16  22385552.539 1 117636857.199 1                                
C32  23112106.046 1 120350789.791 1
R08  20804212.728 1 111405592.432 1  20804203.920 1  86648748.081 1
R12  19811362.873 1 105828695.901 1  19811356.694 1  82311275.003 1
E19  25658774.032 1 134837846.295 3  25658770.274 1 103317385.310 2
E31  23498254.733 1 123484132.433 1  23498250.607 1  94617717.232 1
E01  24641827.552 1 129493692.230 1  24641823.540 1  99222413.820 1
E10  28461048.827 8               9  28461060.782 1 114600824.158 4
E18  29456446.410 1 154794629.759 2  29456443.291 1 118608850.852 1
E24  26815119.804 1 140914368.537 2  26815115.905 1 107973374.053 1
E09  24713298.400 1 129869226.718 1  24713294.353 1  99510188.833 1
E04  23856816.576 1 125368407.551 1  23856810.121 1  96061490.262 1
> 2022 02 25 13 17 30.0000000  0 32                     
G03  24596902.472 1 129257612.014 2  24596897.473 1 100720163.913 3
E12  26953986.276 1 141644048.999 4  26953983.649 1 108532434.350 2
G23  25539648.799 1 134211658.557 4  25539640.681 2 104580550.70516
G29  24079083.095 1 126536447.208 2  24079075.765 1  98599800.874 2
G26  20069354.116 1 105465172.413 1  20069347.080 1  82180634.421 1
G22  21046716.154 1 110601231.456 1                                
C19  24466466.252 1 127403310.202 1
C37  23303951.127 1 121349776.765 1
C20  21869831.271 1 113882004.354 1
C27  25783909.279 1 134263574.469 3
C30  26792599.129 1 139516097.430 3
C36  25940662.267 1 135079835.171 1
R13  22505758.275 2 120179530.281 3  22505752.102 2  93472924.147 3
R11  21222838.298 1 113408408.285 1  21222830.642 1  88206466.945 1
R01  19144042.412 1 102335975.800 1  19144036.001 1  79594553.152 1
R02  22178690.423 1 118349843.275 1  22178685.102 1  92049800.897 1
G32  20849260.221 1 109563584.865 1  20849253.009 1  85374255.879 1
G25  23689377.800 1 124488496.948 2  23689372.647 1  97003984.373 1
G10  22652352.738 1 119038833.262 1  22652346.444 1  92757560.750 1
G31  21344576.498 1 112166484.516 1  21344565.921 1  87402413.843 1
G16  22380571.096 1 117610680.354 1                                
C32  23123106.901 1 120408075.112 1
R08  20816023.858 1 111468841.423 1  20816015.280 1  86697941.691 1
R12  19816581.100 1 105856571.056 1  19816574.915 1  82332955.667 1
E19  25667195.998 1 134882105.334 3  25667192.336 1 103351298.030 2
E31  23501187.342 1 123499544.590 1  23501183.449 1  94629526.555 1
E01  24652041.319 1 129547365.016 1  24652037.147 1  99263539.700 1
E10  28468961.624 8               9  28468970.517 1 114632671.471 4
E18  29453820.206 1 154780828.538 1  29453817.436 1 118598275.888 1
E24  26812894.498 1 140902671.879 2  26812889.873 1 107964411.683 1
E09  24711345.816 1 129858963.864 1  24711341.484 1  99502325.101 1
E04  23858848.019 1 125379083.093 1  23858841.574 1  96069670.215 1
> 2022 02 25 13 17 45.0000000  0 34                     
G03  24593045.704 1 129237343.718 3  24593040.661 1 100704370.458 2
E12  26960769.690 1 141679694.482 4  26960766.906 1 108559747.075 2
G23  25554483.147 1 134289612.099 4  25554475.686 2 104641293.711 8
G29  24082627.084 1 126555069.681 1  24082619.094 1  98614311.906 2
G26  20070937.981 1 105473495.335 1  20070930.922 1  82187119.820 1
G22  21048057.620 1 110608281.684 1                                
C19  24462831.660 1 127384383.480 1
C37  23314019.254 1 121402204.760 1
C20  21872220.628 1 113894444.600 1
C27  25784168.187 1 134264922.946 2
C30  26794081.618 1 139523816.171 2
C36  25939861.738 1 135075667.924 1
R13  22503428.484 2 120167092.770 4  22503423.871 2  93463250.559 3
R11  21236089.612 1 113479220.099 1  21236082.424 1  88261542.753 1
R01  19146595.817 1 102349625.273 1  19146589.663 1  79605169.399 1
R02  22172302.440 1 118315754.453 1  22172296.301 1  92023287.381 1
G21  25653160.383 8 134808271.51037                                
G32  20853418.666 1 109585437.487 1  20853411.601 1  85391283.888 1
G25  23704059.993 1 124565650.201 2  23704054.436 1  97064103.737 1
G10  22666745.157 1 119114464.814 1  22666738.900 1  92816494.384 1
G31  21351862.186 1 112204771.235 1  21351851.823 1  87432247.650 1
G16  22375603.960 1 117584578.042 1                                
C32  23134124.596 1 120465445.039 1
R08  20827861.974 1 111532230.541 1  20827853.263 1  86747244.308 1
R12  19821823.758 1 105884576.136 1  19821817.821 1  82354737.402 1
E19  25675630.035 1 134926425.846 3  25675626.281 1 103385257.900 2
E31  23504137.100 1 123515046.602 1  23504133.536 1  94641404.725 1
G27  25737484.990 8               9  25737479.929 9               9
E01  24662264.201 1 129601087.910 1  24662260.363 1  99304703.998 1
E10  28476861.252 9               9  28476867.531 1 114664472.596 3
E18  29451176.885 1 154766936.631 2  29451173.698 1 118587631.439 1
E24  26810677.918 1 140891026.423 2  26810673.974 1 107955488.530 1
E09  24709390.216 1 129848690.932 2  24709386.755 1  99494453.654 1
E04  23860888.414 1 125389806.768 1  23860882.220 1  96077887.051 1
> 2022 02 25 13 18 00.0000000  0 34                     
G03  24589202.325 1 129217148.419 2  24589197.537 1 100688633.895 3
E12  26967538.944 1 141715265.253 3  26967535.871 1 108587002.542 2
G23  25569313.344 2 134367539.518 6  25569307.974 2 104702016.138 7
G29  24086189.229 1 126573791.241 1  24086181.041 1  98628900.154 2
G26  20072548.218 1 105481957.170 1  20072541.364 1  82193713.472 1
G22  21049408.480 1 110615377.767 1                                
C19  24459204.831 1 127365496.890 1
C37  23324090.018 1 121454646.940 1
C20  21874631.181 1 113906997.408 1
C27  25784419.068 1 134266228.849 2
C30  26795548.750 1 139531455.161 3
C36  25939071.859 1 135071555.246 1
R13  22501119.305 2 120154762.748 4  22501114.631 2  93453660.512 3
R11  21249345.618 1 113550057.699 1  21249338.879 1  88316638.635 1
R01  19149181.461 1 102363448.009 1  19149175.610 1  79615920.416 1
R02  22165919.269 1 118281691.996 1  22165913.459 1  91996794.367 1
G21  25659646.298 8 134842348.48415                                
G32  20857592.961 1 109607373.542 1  20857586.176 1  85408376.909 1
G25  23718748.551 1 124642838.388 2  23718743.176 1  97124250.323 1
G10  22681145.882 1 119190142.526 1  22681139.860 1  92875463.979 1
G31  21359151.347 1 112243075.971 1  21359141.150 1  87462095.492 1
G16  22370651.336 1 117558553.213 1                                
C32  23145158.294 1 120522901.913 1
R08  20839726.333 1 111595762.142 1  20839717.538 1  86796657.751 1
R12  19827090.921 1 105912713.395 1  19827085.172 1  82376621.924 1
E19  25684076.309 1 134970810.352 3  25684072.402 1 103419266.773 2
E31  23507104.747 1 123530640.982 1  23507101.050 1  94653353.664 1
G27  25734547.640 1 135235964.33712  25734548.285 8 105378658.71316
E01  24672497.485 1 129654863.299 1  24672493.717 1  99345908.499 1
E10  28484754.620 8               9  28484754.602 1 114696229.186 3
E18  29448516.656 1 154752956.699 1  29448513.497 1 118576919.535 1
E24  26808471.503 1 140879434.833 2  26808468.186 1 107946606.687 1
E09  24707433.369 1 129838410.577 2  24707430.835 1  99486576.542 1
E04  23862938.550 1 125400581.281 1  23862932.671 1  96086142.843 1
> 2022 02 25 13 18 15.0000000  0 34                     
G03  24585373.298 1 129197026.414 2  24585367.676 1 100672954.397 2
E12  26974293.234 1 141750761.289 4  26974290.783 1 108614200.744 2
G23  25584137.985 1 134445440.839 4  25584138.390 9               9
G29  24089770.350 1 126592612.108 1  24089762.978 1  98643565.774 3
G26  20074184.630 1 105490558.023 1  20074178.199 1  82200415.441 1
G22  21050767.678 1 110622519.829 1                                
C19  24455585.966 1 127346650.696 1
C37  23334163.919 1 121507103.154 1
C20  21877063.203 1 113919662.967 1
C27  25784661.725 1 134267492.347 2
C30  26797000.210 1 139539014.548 3
C36  25938292.057 1 135067497.198 1
R13  22498829.969 2 120142540.124 4  22498825.832 2  93444154.074 3
R11  21262606.733 1 113620920.403 1  21262600.124 1  88371754.039 1
R01  19151799.647 1 102377444.128 1  19151794.050 1  79626806.283 1
R02  22159541.099 1 118247656.344 1  22159535.601 1  91970322.219 1
G21  25666128.176 2 134876422.395 7                                
G32  20861783.118 1 109629393.290 1  20861776.363 1  85425535.140 1
G25  23733443.883 1 124720061.231 2  23733437.978 1  97184423.907 1
G10  22695555.656 1 119265866.007 1  22695549.427 1  92934469.266 1
G31  21366443.863 1 112281398.607 1  21366433.208 1  87491957.273 1
G16  22365713.668 1 117532606.185 1                                
C32  23156208.680 1 120580445.604 1
R08  20851617.424 1 111659435.834 1  20851608.238 1  86846181.688 1
R12  19832382.797 1 105940982.657 1  19832377.069 1  82398609.129 1
E19  25692534.637 1 135015258.986 2  25692530.697 1 103453324.821 2
E31  23510089.818 1 123546327.727 1  23510086.112 1  94665373.373 1
G27  25731598.627 1 135220457.185 2  25731596.688 1 105366575.199 4
E01  24682740.743 1 129708690.957 1  24682736.825 1  99387153.051 1
E10  28492618.855 8               9  28492630.490 1 114727941.280 3
E18  29445839.652 1 154738888.877 2  29445836.451 1 118566140.296 1
E24  26806275.979 1 140867897.332 2  26806272.798 1 107937766.279 1
E09  24705476.026 1 129828123.067 2  24705472.883 1  99478693.925 1
E04  23864998.381 1 125411406.871 1  23864992.855 1  96094437.774 1
> 2022 02 25 13 18 30.0000000  0 34                     
G03  24581558.082 1 129176975.388 2  24581551.841 1 100657330.231 2
E12  26981033.643 1 141786179.802 4  26981030.614 1 108641339.541 2
G23  25598956.610 2 134523312.581 5  25598957.139 9               9
G29  24093370.603 1 126611530.011 1  24093362.730 1  98658306.994 3
G26  20075847.349 1 105499295.263 1  20075840.800 1  82207223.679 1
G22  21052135.122 1 110629705.658 1                                
C19  24451973.985 1 127327842.544 1
C37  23344239.954 1 121559570.550 1
C20  21879516.400 1 113932438.759 1
C27  25784895.372 1 134268711.096 2
C30  26798435.871 1 139546491.621 2
C36  25937522.823 1 135063491.102 1
R13  22496560.968 2 120130422.384 4  22496555.444 2  93434729.164 4
R11  21275871.294 1 113691805.233 1  21275865.058 1  88426886.669 1
R01  19154450.003 1 102391611.088 1  19154444.084 1  79637825.034 1
R02  22153167.360 1 118213645.381 1  22153161.870 1  91943869.273 1
G21  25672611.579 2 134910490.078 5                                
G32  20865988.689 1 109651494.275 1  20865982.184 1  85442756.675 1
G25  23748144.769 1 124797315.670 2  23748139.184 1  97244622.116 1
G10  22709973.521 1 119341632.258 1  22709967.800 1  92993507.840 1
G31  21373739.488 1 112319736.271 1  21373728.877 1  87521830.764 1
G16  22360790.200 1 117506734.748 1                                
C32  23167275.890 1 120638073.261 1
R08  20863534.133 1 111723248.889 1  20863524.425 1  86895814.046 1
R12  19837699.209 1 105969380.896 1  19837693.225 1  82420696.659 1
E19  25701004.934 1 135059769.019 3  25701000.684 1 103487429.897 2
E31  23513091.847 1 123562104.124 1  23513088.365 1  94677461.786 1
G27  25728633.517 1 135204872.859 2  25728627.292 9               9
E01  24692993.184 1 129762568.003 1  24692989.387 1  99428435.444 1
E10  28500499.774 4 149771124.24817  28500495.252 1 114759606.699 3
E18  29443145.492 1 154724730.654 2  29443142.027 1 118555291.774 1
E24  26804090.281 1 140856411.354 2  26804087.265 1 107928965.337 1
E09  24703517.072 1 129817825.847 1  24703513.232 1  99470803.870 1
E04  23867067.229 1 125422281.076 1  23867062.231 1  96102769.952 1
> 2022 02 25 13 18 45.0000000  0 34                     
G03  24577756.238 1 129156994.384 2  24577750.454 1 100641760.615 2
E12  26987758.564 1 141821519.577 4  26987755.704 1 108668418.006 2
G23  25613769.292 9               9  25613766.675 9               9
G29  24096988.805 1 126630543.744 2  24096980.712 1  98673122.885 3
G26  20077535.757 1 105508167.722 1  20077528.936 1  82214137.290 1
G22  21053510.884 1 110636934.275 1                                
C19  24448369.241 1 127309071.436 1
C37  23354317.499 1 121612047.726 1
C20  21881990.943 1 113945323.723 1
C27  25785120.497 1 134269884.121 2
C30  26799855.569 1 139553885.292 2
C36  25936763.468 1 135059535.752 1
R13  22494311.728 2 120118408.527 4  22494305.013 2  93425385.042 3
R11  21289141.139 1 113762710.530 1  21289134.241 1  88482035.174 1
R01  19157131.904 1 102405948.118 1  19157125.853 1  79648976.041 1
R02  22146797.968 1 118179658.670 1  22146792.594 1  91917435.226 1
G21  25679092.666 1 134944550.031 4                                
G32  20870209.896 1 109673675.459 1  20870203.011 1  85460040.707 1
G25  23762851.606 1 124874600.182 2  23762846.029 1  97304843.756 1
G10  22724399.367 1 119417439.603 1  22724393.040 1  93052578.476 1
G31  21381037.373 1 112358087.531 1  21381026.518 1  87551714.845 1
G16  22355881.016 1 117480937.807 1                                
C32  23178358.795 1 120695783.499 1
R08  20875476.191 1 111787199.622 1  20875466.384 1  86945553.471 1
R12  19843039.212 1 105997906.513 1  19843033.404 1  82442883.255 1
E19  25709485.972 1 135104339.200 3  25709482.214 1 103521581.045 2
E31  23516110.788 1 123577968.919 1  23516107.359 1  94689617.936 1
G27  25725653.264 2               9  25725649.750 4 105342237.20117
E01  24703254.641 1 129816492.985 1  24703250.701 1  99469754.569 1
E10  28508350.904 4 149812388.082 6  28508346.992 1 114791224.390 4
E18  29440433.577 1 154710480.912 1  29440430.174 1 118544373.140 1
E24  26801914.322 1 140844975.816 2  26801911.067 1 107920203.049 1
E09  24701556.439 1 129807517.873 1  24701551.798 1  99462905.555 1
E04  23869145.587 1 125433202.844 1  23869140.762 1  96111138.575 1
> 2022 02 25 13 19 00.0000000  0 34                     
G03  24573966.830 1 129137084.279 3  24573962.389 1 100626246.291 2
E12  26994468.859 1 141856781.017 4  26994465.859 1 108695436.463 2
G29  24100625.840 1 126649654.204 2  24100617.645 1  98688014.182 2
G26  20079249.902 1 105517175.986 1  20079243.046 1  82221156.716 1
G22  21054894.676 1 110644206.318 1                                
C19  24444771.517 1 127290338.289 1
C37  23364397.034 1 121664535.043 1
C20  21884486.563 1 113958318.563 1
C27  25785337.137 1 134271012.112 2
C30  26801259.992 1 139561196.242 3
C36  25936013.789 1 135055631.668 1
R13  22492081.408 2 120106499.066 4  22492074.720 2  93416122.128 3
R11  21302413.621 1 113833636.420 1  21302407.006 1  88537199.747 1
R01  19159846.169 1 102420455.990 1  19159840.018 1  79660259.930 1
R02  22140432.998 1 118145696.784 1  22140428.220 1  91891020.440 1
G21  25685573.255 1 134978602.440 3                                
G32  20874446.099 1 109695937.642 1  20874439.498 1  85477387.862 1
G25  23777564.176 1 124951914.917 2  23777558.608 1  97365088.957 1
G10  22738832.248 1 119493288.290 1  22738826.739 1  93111681.295 1
G31  21388338.030 1 112396452.766 1  21388327.355 1  87581609.827 1
G16  22350986.594 1 117455216.383 1                                
C32  23189457.876 1 120753576.690 1
R08  20887444.152 1 111851288.772 1  20887434.341 1  86995400.555 1
R12  19848403.410 1 106026559.713 1  19848397.557 1  82465169.069 1
E19  25717979.670 1 135148970.224 2  25717975.278 1 103555778.810 2
E31  23519146.857 1 123593922.635 1  23519143.025 1  94701842.209 1
G27  25722656.937 2               9  25722652.953 8 105329967.48016
E01  24713525.498 1 129870466.225 1  24713521.448 1  99511110.674 1
E10  28516191.423 2 149853589.990 7  28516187.158 1 114822794.651 4
E18  29437704.739 1 154696140.353 1  29437701.423 1 118533384.909 1
E24  26799747.779 1 140833591.414 1  26799744.725 1 107911479.955 1
E09  24699592.835 1 129797199.826 1  24699588.265 1  99454999.519 1
E04  23871233.010 1 125444172.896 1  23871228.177 1  96119544.197 1
G23                                  25628574.216 9               9
> 2022 02 25 13 19 15.0000000  0 34                     
G03  24570191.174 1 129117244.692 3  24570186.328 1 100610786.883 3
E12  27001163.163 1 141891963.353 4  27001160.817 1 108722394.330 2
G23  25643377.638 9               9  25643373.047 8               9
G29  24104280.599 1 126668860.852 2  24104273.141 1  98702980.391 2
G26  20080989.918 1 105526319.404 1  20080983.112 1  82228281.478 1
G22  21056286.841 1 110651521.578 1                                
C19  24441181.428 1 127271642.586 1
C37  23374478.436 1 121717031.588 1
C20  21887002.762 1 113971422.747 1
C27  25785545.757 1 134272094.609 2
C30  26802647.898 1 139568423.509 3
C36  25935273.837 1 135051778.231 1
R13  22489870.861 2 120094693.262 4  22489863.675 2  93406939.843 3
R11  21315690.228 1 113904581.715 1  21315683.166 1  88592379.398 1
R01  19162591.981 1 102435134.209 1  19162586.197 1  79671676.330 1
R02  22134073.284 1 118111759.472 1  22134068.270 1  91864624.818 1
G21  25692051.853 1 135012646.346 3                                
G32  20878697.828 1 109718280.298 1  20878690.956 1  85494797.716 1
G25  23792282.172 1 125029258.885 2  23792276.617 1  97425356.914 1
G10  22753274.082 1 119569177.148 1  22753268.113 1  93170815.419 1
G31  21395641.218 1 112434831.086 1  21395630.623 1  87611514.999 1
G16  22346106.546 1 117429570.040 1                                
C32  23200572.197 1 120811451.929 1
R08  20899437.820 1 111915514.836 1  20899428.231 1  87045354.137 1
R12  19853791.357 1 106055339.732 1  19853785.110 1  82487553.531 1
E19  25726484.235 1 135193661.491 3  25726479.751 1 103590022.750 2
E31  23522199.583 1 123609964.520 1  23522195.702 1  94714134.040 1
G27  25719645.960 1 135157645.069 2  25719640.990 4 105317626.74212
E01  24723805.912 1 129924486.802 1  24723801.155 1  99552503.046 1
E10  28524023.270 2 149894729.205 7  28524015.496 1 114854316.846 4
E18  29434958.411 1 154681708.373 2  29434955.181 1 118522326.632 1
E24  26797591.547 1 140822257.578 1  26797587.903 1 107902795.574 1
E09  24697626.262 1 129786871.143 2  24697622.856 1  99447085.341 1
E04  23873329.662 1 125455190.710 1  23873324.783 1  96127986.423 1
> 2022 02 25 13 19 30.0000000  0 34                     
G03  24566430.581 1 129097478.644 3  24566424.508 1 100595384.814 3
E12  27007844.190 1 141927069.302 4  27007841.452 1 108749293.612 2
G29  24107954.327 1 126688166.655 2  24107947.007 1  98718023.900 2
G26  20082755.982 1 105535600.795 1  20082749.528 1  82235513.728 1
G22  21057687.841 1 110658883.110 1                                
C19  24437598.354 1 127252987.376 1
C37  23384562.351 1 121769539.900 1
C20  21889540.746 1 113984639.118 1
C27  25785745.930 1 134273134.642 2
C30  26804020.452 1 139575570.154 2
C36  25934543.796 1 135047978.110 1
R13  22487680.363 2 120082994.209 4  22487673.696 2  93397840.616 3
R11  21328970.831 1 113975548.814 1  21328963.596 1  88647575.981 1
R01  19165370.716 1 102449985.984 1  19165364.739 1  79683227.709 1
R02  22127718.638 1 118077849.834 1  22127713.774 1  91838250.688 1
G21  25698529.020 1 135046684.274 3                                
G32  20882965.195 1 109740706.422 1  20882958.435 1  85512272.601 1
G25  23807006.130 1 125106634.424 2  23807000.848 1  97485649.495 1
G10  22767723.045 1 119645108.618 1  22767717.266 1  93229982.770 1
G31  21402947.287 1 112473225.238 1  21402936.607 1  87641432.514 1
G16  22341241.408 1 117404001.829 1                                
C32  23211702.659 1 120869411.791 1
R08  20911457.420 1 111979880.689 1  20911447.818 1  87095416.436 1
R12  19859203.267 1 106084248.826 1  19859196.803 1  82510038.376 1
E19  25735000.411 1 135238415.518 3  25734996.197 1 103624314.769 2
E31  23525269.944 1 123626097.295 1  23525265.806 1  94726495.522 1
G27  25716621.098 2 135141747.517 6  25716617.586 2 105305239.095 5
E01  24734094.812 1 129978557.241 1  24734090.206 1  99593933.634 1
E10  28531833.897 2 149935808.159 6  28531832.901 1 114885792.929 4
E18  29432194.962 1 154667187.866 2  29432191.867 1 118511200.539 1
E24  26795444.836 1 140810977.183 1  26795441.300 1 107894152.167 1
E09  24695659.587 1 129776534.734 2  24695656.024 1  99439165.261 1
E04  23875436.166 1 125466259.263 1  23875431.068 1  96136467.506 1
G23                                  25658166.531 9               9
> 2022 02 25 13 19 45.0000000  0 34                     
G03  24562682.965 1 129077785.453 2  24562677.394 1 100580039.483 2
E12  27014509.433 1 141962097.722 4  27014506.829 1 108776133.519 2
G29  24111646.729 1 126707570.840 2  24111639.623 1  98733144.000 2
G26  20084548.425 1 105545019.139 1  20084541.742 1  82242852.701 1
G22  21059097.557 1 110666290.088 1                                
C19  24434023.200 1 127234371.908 1
C37  23394648.160 1 121822058.755 1
C20  21892100.332 1 113997966.787 1
C27  25785937.176 1 134274131.313 2
C30  26805377.097 1 139582635.115 2
C36  25933823.637 1 135044230.296 2
R13  22485509.079 2 120071400.894 4  22485503.298 2  93388823.550 3
R11  21342255.784 1 114046536.232 1  21342247.445 1  88702788.430 1
R01  19168181.239 1 102465010.473 1  19168175.256 1  79694913.415 1
R02  22121369.946 1 118043967.795 1  22121364.316 1  91811898.018 1
G21  25705004.673 1 135080714.812 4                                
G32  20887248.536 1 109763215.170 1  20887241.569 1  85529811.869 1
G25  23821736.035 1 125184040.214 2  23821730.701 1  97545965.636 1
G10  22782180.726 1 119721081.209 1  22782174.728 1  93289182.151 1
G31  21410256.126 1 112511633.902 1  21410245.530 1  87671361.346 1
G16  22336390.976 1 117378511.168 1                                
C32  23222848.625 1 120927455.043 1
R08  20923503.052 1 112044384.786 1  20923493.398 1  87145586.286 1
R12  19864638.719 1 106113285.733 1  19864631.847 1  82532622.639 1
E19  25743528.538 1 135283231.349 2  25743524.299 1 103658654.151 2
E31  23528356.797 1 123642319.890 1  23528352.729 1  94738925.819 1
G27  25713581.176 1 135125772.993 3  25713578.096 2 105292791.296 6
E01  24744393.111 1 130032676.284 1  24744388.609 1  99635401.466 1
E10  28539645.923 4 149976848.87915  28539638.437 1 114917222.030 4
E18  29429414.964 1 154652577.950 2  29429411.549 1 118500005.920 1
E24  26793308.228 1 140799749.359 2  26793304.603 1 107885549.030 1
E09  24693691.607 1 129766189.770 1  24693687.512 1  99431238.586 1
E04  23877552.339 1 125477377.680 1  23877546.841 1  96144986.812 1
G23                                  25672944.049 8 105126412.91818
> 2022 02 25 13 20 00.0000000  0 33                     
G03  24558949.936 1 129058165.472 2  24558943.862 1 100564751.215 3
E12  27021160.071 1 141997048.636 4  27021157.761 1 108802914.011 2
G29  24115358.249 1 126727073.628 2  24115351.003 1  98748340.989 2
G26  20086366.725 1 105554574.563 1  20086360.186 1  82250298.478 1
G22  21060515.479 1 110673742.721 1                                
C19  24430456.408 1 127215796.530 1
C37  23404735.972 1 121874588.045 1
C20  21894681.318 1 114011405.991 1
C27  25786120.357 1 134275084.956 2
C30  26806718.408 1 139589618.561 2
C36  25933114.390 1 135040534.842 1
R13  22483357.594 2 120059913.439 4  22483351.764 2  93379888.887 3
R11  21355543.663 1 114117543.752 1  21355535.089 1  88758016.475 1
R01  19171024.185 1 102480207.789 1  19171018.015 1  79706733.527 1
R02  22115025.182 1 118010113.511 1  22115019.758 1  91785566.957 1
G21  25711479.062 1 135114737.936 4                                
G32  20891547.686 1 109785806.847 1  20891540.556 1  85547415.758 1
G25  23836471.750 1 125261475.941 2  23836466.404 1  97606305.119 2
G10  22796644.871 1 119797094.670 1  22796639.912 1  93348413.357 1
G31  21417567.646 1 112550057.004 1  21417557.463 1  87701301.423 1
G16  22331554.960 1 117353098.423 1                                
C32  23234011.549 1 120985581.573 1
R08  20935574.592 1 112109027.012 1  20935564.787 1  87195863.538 1
R12  19870098.205 1 106142450.290 1  19870091.628 1  82555306.187 1
E19  25752068.485 1 135328109.116 3  25752064.358 1 103693040.989 2
E31  23531460.920 1 123658632.321 1  23531456.959 1  94751424.956 1
G27  25710526.878 1 135109721.884 4  25710523.478 1 105280283.944 4
E01  24754700.862 1 130086843.779 1  24754696.265 1  99676906.422 1
E10  28547439.149 2 150017805.159 7  28547431.703 1 114948604.052 4
E18  29426617.256 1 154637878.788 2  29426614.557 1 118488742.925 1
E24  26791181.883 1 140788574.291 1  26791177.939 1 107876986.318 1
E09  24691720.879 1 129755836.414 1  24691717.437 1  99423305.505 1
E04  23879677.793 1 125488546.235 1  23879672.126 1  96153544.527 1
> 2022 02 25 13 20 15.0000000  0 34                     
G03  24555229.430 1 129038613.022 3  24555222.454 1 100549515.583 2
E12  27027795.612 1 142031915.980 5  27027793.070 1 108829630.461 2
G29  24119087.208 1 126746669.245 1  24119079.977 1  98763610.305 2
G26  20088210.014 1 105564261.089 1  20088203.426 1  82257846.429 1
G22  21061940.809 1 110681235.275 1                                
C19  24426895.039 1 127197255.523 1
C37  23414824.475 1 121927121.615 1
C20  21897282.557 1 114024950.928 1
C27  25786294.115 1 134275989.859 2
C30  26808043.144 1 139596514.626 4
C36  25932414.305 1 135036885.829 2
R13  22481224.610 2 120048526.005 4  22481219.446 2  93371031.998 3
R11  21368834.471 1 114188564.715 1  21368826.047 1  88813254.972 1
R01  19173898.354 1 102495572.435 1  19173892.370 1  79718683.812 1
R02  22108684.741 1 117976281.828 1  22108679.659 1  91759253.459 1
G21  25717950.942 1 135148746.882 5                                
G32  20895861.568 1 109808475.649 1  20895854.140 1  85565079.747 1
G25  23851211.933 1 125338935.283 1  23851206.244 1  97666663.015 2
G10  22811116.547 1 119873142.594 1  22811110.910 1  93407671.449 1
G31  21424880.635 1 112588488.472 1  21424870.862 1  87731248.012 1
G16  22326732.464 1 117327757.983 1                                
C32  23245189.059 1 121043785.254 1
R08  20947670.647 1 112173801.072 1  20947660.676 1  87246243.342 1
R12  19875580.634 1 106171735.923 1  19875573.857 1  82578083.903 1
E19  25760619.353 1 135373042.855 3  25760615.090 1 103727470.710 2
E31  23534581.109 1 123675028.545 1  23534577.084 1  94763988.301 1
G27  25707456.434 2 135093588.321 4  25707453.178 2 105267712.476 4
E01  24765016.923 1 130141053.519 1  24765011.919 1  99718443.745 1
E10  28555216.137 2 150058693.896 7  28555213.312 1 114979934.354 3
E18  29423802.142 1 154623084.552 2  29423799.357 1 118477407.073 1
E24  26789064.433 1 140777446.102 1  26789060.286 1 107868459.527 1
E09  24689748.278 1 129745468.859 2  24689744.453 1  99415361.551 1
E04  23881811.852 1 125499759.076 1  23881805.752 1  96162136.186 1
G23                                  25702509.587 8               9
> 2022 02 25 13 20 30.0000000  0 34                     
G03  24551522.298 1 129019134.800 2  24551515.587 1 100534337.756 3
E12  27034416.609 1 142066706.041 5  27034413.246 1 108856287.735 2
G29  24122834.557 1 126766364.440 1  24122827.054 1  98778957.240 2
G26  20090079.479 1 105574085.189 1  20090072.600 1  82265501.578 1
G22  21063375.155 1 110688774.437 1                                
C19  24423342.618 1 127178755.546 1
C37  23424914.596 1 121979665.627 1
C20  21899905.166 1 114038608.081 1
C27  25786459.415 1 134276852.555 2
C30  26809351.467 1 139603329.775 2
C36  25931723.588 1 135033289.607 1
R13  22479111.757 2 120037244.967 4  22479107.801 2  93362257.920 3
R11  21382129.101 1 114259605.309 1  21382119.926 1  88868508.755 1
R01  19176805.352 1 102511110.986 1  19176799.048 1  79730769.326 1
R02  22102350.089 1 117942479.437 1  22102345.352 1  91732962.755 1
G21  25724421.183 1 135182748.273 3                                
G32  20900191.559 1 109831228.202 1  20900184.202 1  85582809.002 1
G25  23865957.661 1 125416424.304 1  23865952.173 1  97727044.023 2
G10  22825595.745 1 119949230.985 1  22825590.510 1  93466961.049 1
G31  21432196.668 1 112626934.489 1  21432186.965 1  87761205.932 1
G16  22321925.468 1 117302496.525 1                                
C32  23256382.315 1 121102072.250 1
R08  20959792.707 1 112238713.501 1  20959782.522 1  87296730.748 1
R12  19881087.110 1 106201148.972 1  19881079.973 1  82600960.710 1
E19  25769181.714 1 135418039.015 3  25769177.504 1 103761948.261 2
E31  23537718.347 1 123691514.945 1  23537714.251 1  94776620.735 1
G27  25704366.975 4 135077359.63233  25704372.203 4 105255078.67014
E01  24775341.868 1 130195311.681 1  24775337.160 1  99760018.169 1
E10  28562981.793 2 150099521.426 8  28562982.578 1 115011217.709 3
E18  29420970.445 1 154608201.741 2  29420967.390 1 118466003.362 1
E24  26786956.651 1 140766371.347 2  26786953.000 1 107859973.697 1
E09  24687773.480 1 129735093.651 1  24687769.911 1  99407411.720 1
E04  23883955.596 1 125511022.831 1  23883949.168 1  96170766.843 1
G23                                  25717279.868 9               9
> 2022 02 25 13 20 45.0000000  0 35                     
G03  24547829.956 1 128999732.994 2  24547824.571 1 100519219.481 2
E12  27041020.266 2 142101420.676 5  27041019.368 1 108882887.179 3
G29  24126601.411 1 126786161.109 1  24126594.239 1  98794383.237 2
G26  20091975.315 1 105584048.755 1  20091968.723 1  82273265.398 1
G22  21064819.176 1 110696362.519 1                                
C19  24419799.054 1 127160298.749 1
C37  23435007.598 1 122032221.728 1
C20  21902549.925 1 114052379.434 1
C27  25786617.886 1 134277675.132 2
C30  26810645.312 1 139610065.734 2
C36  25931043.330 1 135029747.983 1
R13  22477019.535 2 120026072.492 4  22477016.025 2  93353568.199 3
R11  21395427.169 1 114330666.933 1  21395417.939 1  88923778.885 1
R01  19179744.764 1 102526825.756 1  19179738.639 1  79742991.911 1
R02  22096021.160 1 117908708.201 1  22096017.070 1  91706696.293 1
G21  25730890.543 2 135216743.799 5                                
G32  20904537.672 1 109854066.573 1  20904530.288 1  85600605.133 1
G25  23880709.547 1 125493944.515 1  23880703.700 1  97787449.343 2
G10  22840083.320 1 120025361.355 1  22840077.353 1  93526283.371 1
G31  21439515.923 1 112665396.705 1  21439506.021 1  87791176.485 1
G16  22317133.536 1 117277316.173 1                                
C32  23267591.915 1 121160444.190 1
R08  20971941.171 1 112303765.645 1  20971930.223 1  87347326.823 1
R12  19886617.196 1 106230690.990 1  19886610.216 1  82623937.826 1
E19  25777756.389 1 135463099.231 3  25777752.199 1 103796474.911 2
E31  23540873.000 1 123708093.329 1  23540868.902 1  94789323.647 1
G27  25701272.738 1 135061079.99813  25701271.525 1 105242390.506 4
E01  24785676.105 1 130249619.891 1  24785671.589 1  99801630.935 1
E10  28570740.280 2 150140289.251 7  28570740.789 1 115042455.384 3
E18  29418121.304 1 154593232.355 2  29418118.685 1 118454533.330 1
E24  26784860.043 1 140755352.029 2  26784856.007 1 107851530.319 1
E09  24685797.359 1 129724712.818 1  24685794.412 1  99399457.582 1
E04  23886109.229 1 125522339.536 1  23886102.606 1  96179438.071 1
E11                                  27327588.392 8               9
G23                                  25732051.224 9               9
> 2022 02 25 13 21 00.0000000  0 35                     
G03  24544152.060 1 128980405.883 3  24544147.319 1 100504159.456 2
E12  27047613.674 2 142136057.785 5  27047610.834 1 108909427.294 2
G23  25746820.063 2 135300453.43515  25746818.943 8 105428884.13816
G29  24130387.924 1 126806057.544 1  24130380.336 1  98809886.940 2
G26  20093897.411 1 105594149.815 1  20093890.978 1  82281136.367 1
G22  21066272.267 1 110703997.669 1                                
C19  24416262.216 1 127141883.390 1
C37  23445102.039 1 122084787.740 1
C20  21905216.345 1 114066263.157 1
C27  25786767.438 1 134278455.872 2
C30  26811923.186 1 139616720.675 2
C36  25930372.990 1 135026259.013 1
R13  22474947.426 2 120015006.394 4  22474944.678 2  93344961.240 3
R11  21408728.920 1 114401747.200 1  21408719.417 1  88979063.522 1
R01  19182717.116 1 102542714.978 1  19182711.142 1  79755350.204 1
R02  22089698.456 1 117874966.926 1  22089693.246 1  91680453.130 1
G21  25737357.660 2 135250730.886 7                                
G32  20908899.403 1 109876988.971 1  20908891.907 1  85618466.735 1
G25  23895466.444 1 125571493.582 1  23895461.042 1  97847877.150 2
G10  22854577.526 1 120101531.304 1  22854571.995 1  93585636.532 1
G31  21446837.843 1 112703873.070 1  21446827.831 1  87821158.063 1
G16  22312357.197 1 117252215.384 1                                
C32  23278818.001 1 121218898.942 1
R08  20984115.094 1 112368955.146 1  20984104.083 1  87398029.744 1
R12  19892171.092 1 106260359.662 1  19892164.132 1  82647013.460 1
E19  25786343.334 1 135508221.957 3  25786338.741 1 103831049.425 2
E31  23544044.796 1 123724761.664 1  23544040.859 1  94802095.497 1
G27  25698161.034 1 135044720.954 3  25698157.402 1 105229643.295 4
E01  24796019.616 1 130303975.935 1  24796015.240 1  99843280.360 1
E10  28578479.490 2 150180995.457 6  28578487.040 1 115073645.756 3
E18  29415256.058 1 154578174.540 2  29415253.417 1 118442995.522 1
E24  26782773.722 1 140744386.279 2  26782769.376 1 107843127.987 1
E09  24683820.006 1 129714324.536 1  24683817.517 1  99391497.751 1
E04  23888272.509 1 125533707.366 1  23888265.662 1  96188148.486 1
E11                                  27335982.479 8               9
> 2022 02 25 13 21 15.0000000  0 35                     
G03  24540487.831 1 128961150.350 2  24540482.646 1 100489155.163 2
E12  27054188.452 2 142170613.933 5  27054186.459 1 108935905.315 3
G29  24134192.617 1 126826050.335 1  24134184.990 1  98825465.767 2
G26  20095845.145 1 105604384.992 1  20095838.861 1  82289111.832 1
G22  21067733.407 1 110711676.674 1                                
C19  24412733.147 1 127123506.334 1
C37  23455198.073 1 122137360.069 1
C20  21907903.606 1 114080255.958 1
C27  25786908.653 1 134279191.526 2
C30  26813185.523 1 139623291.376 3
C36  25929712.595 1 135022819.253 2
R13  22472894.838 2 120004043.532 3  22472891.720 2  93336434.584 2
R11  21422033.583 1 114472842.235 1  21422023.867 1  89034359.656 1
R01  19185721.798 1 102558775.314 1  19185715.477 1  79767841.575 1
R02  22083380.751 1 117841252.814 1  22083374.553 1  91654231.042 1
G21  25743823.276 2 135284706.006 7                                
G32  20913276.786 1 109899992.163 1  20913268.868 1  85636391.285 1
G25  23910228.238 1 125649067.738 1  23910223.017 1  97908324.486 2
G10  22869079.155 1 120177737.017 1  22869073.820 1  93645017.553 1
G31  21454161.765 1 112742359.889 1  21454151.332 1  87851147.780 1
G16  22307594.854 1 117227191.021 1                                
C32  23290058.574 1 121277432.892 1
R08  20996313.413 1 112434278.411 1  20996302.849 1  87448836.708 1
R12  19897747.904 1 106290151.211 1  19897740.851 1  82670184.661 1
E19  25794940.887 1 135553403.460 3  25794936.605 1 103865668.977 2
E31  23547232.836 1 123741516.460 1  23547229.236 1  94814933.587 1
G27  25695032.911 2 135028283.025 4  25695030.665 2 105216834.383 5
E01  24806371.718 1 130358376.152 1  24806367.304 1  99884963.622 1
E10  28586218.875 2 150221636.365 5  28586220.826 1 115104786.131 3
E18  29412373.699 1 154563024.986 2  29412370.279 1 118431387.428 1
E24  26780696.096 1 140733470.769 2  26780692.045 1 107834764.171 1
E09  24681841.947 1 129703925.497 1  24681838.640 1  99383529.663 1
E04  23890444.597 1 125545123.078 1  23890438.010 1  96196895.582 1
E11                                  27344373.623 8               9
G23                                  25761573.385 9               9
> 2022 02 25 13 21 30.0000000  0 34                     
G03  24536838.052 1 128941969.318 2  24536831.999 1 100474208.912 2
E12  27060750.741 2 142205091.573 4  27060747.415 1 108962323.171 3
G29  24138016.359 1 126846142.540 1  24138008.644 1  98841122.033 2
G26  20097819.052 1 105614756.920 1  20097812.464 1  82297193.840 1
G22  21069203.870 1 110719402.498 1                                
C19  24409212.438 1 127105170.464 1
C37  23465295.496 1 122189941.140 1
C20  21910612.095 1 114094360.608 1
C27  25787042.238 1 134279884.957 2
C30  26814431.697 2 139629780.337 5
C36  25929061.927 1 135019431.323 2
R13  22470861.643 2 119993186.455 4  22470858.114 2  93327990.199 3
R11  21435341.195 1 114543954.309 1  21435331.459 1  89089669.042 1
R01  19188758.641 1 102575009.741 1  19188752.062 1  79780468.336 1
R02  22077068.082 1 117807569.096 1  22077062.668 1  91628032.602 1
G21  25750286.596 2 135318671.562 5                                
G32  20917669.724 1 109923079.002 1  20917662.221 1  85654381.027 1
G25  23924995.384 1 125726669.219 1  23924989.874 1  97968793.138 2
G10  22883587.432 1 120253980.729 1  22883582.076 1  93704428.185 1
G31  21461487.920 1 112780859.713 1  21461477.702 1  87881147.642 1
G16  22302848.195 1 117202246.051 1                                
C32  23301314.621 1 121336048.451 1
R08  21008537.782 1 112499737.854 1  21008527.619 1  87499749.597 1
R12  19903348.409 1 106320067.899 1  19903341.598 1  82693453.198 1
E19  25803550.400 1 135598646.413 3  25803545.992 1 103900335.634 2
E31  23550438.215 1 123758360.297 1  23550434.433 1  94827839.899 1
G27  25691890.169 1 135011769.075 2  25691889.995 2 105203966.358 4
E01  24816733.136 1 130412822.949 1  24816728.200 1  99926682.570 1
E10  28593934.910 2 150262214.440 5  28593942.725 1 115135878.399 3
E18  29409473.756 1 154547786.462 2  29409470.545 1 118419711.147 1
E24  26778629.101 1 140722608.272 1  26778625.069 1 107826440.960 1
E09  24679861.873 1 129693518.518 2  24679858.524 1  99375555.475 1
E04  23892626.064 1 125556589.473 1  23892620.156 1  96205681.521 1
E11                                  27352752.923 8               9
> 2022 02 25 13 21 45.0000000  0 34                     
G03  24533203.467 1 128922867.496 2  24533197.240 1 100459324.394 2
E12  27067294.934 2 142239495.076 5  27067294.060 1 108988684.259 3
G29  24141859.331 1 126866338.841 1  24141851.917 1  98856859.410 2
G26  20099819.636 1 105625270.040 1  20099812.971 1  82305385.895 1
G22  21070683.823 1 110727179.828 1                                
C19  24405699.520 1 127086880.428 1
C37  23475395.843 1 122242535.125 1
C20  21913343.207 1 114108581.609 1
C27  25787167.714 1 134280540.723 2
C30  26815662.809 2 139636192.104 6
C36  25928421.966 1 135016099.604 2
R13  22468849.271 2 119982440.170 4  22468844.968 2  93319632.000 3
R11  21448652.349 1 114615087.512 1  21448642.422 1  89144994.821 1
R01  19191828.761 1 102591422.958 1  19191822.795 1  79793234.159 1
R02  22070762.417 1 117773921.029 1  22070757.841 1  91601861.928 1
G21  25756749.122 2 135352631.610 6                                
G32  20922079.999 1 109946254.087 1  20922072.421 1  85672439.527 1
G25  23939768.578 1 125804302.136 1  23939763.011 1  98029286.274 1
G10  22898104.596 1 120330266.523 1  22898098.743 1  93763871.594 1
G31  21468817.264 1 112819376.752 1  21468806.878 1  87911160.933 1
G16  22298117.283 1 117177385.143 1                                
C32  23312587.551 1 121394749.813 1
R08  21020788.548 1 112565337.673 1  21020778.389 1  87550771.662 1
R12  19908973.020 1 106350113.959 1  19908966.506 1  82716822.354 1
E19  25812171.892 1 135643955.230 2  25812167.866 1 103935052.760 2
E31  23553661.481 1 123775297.549 1  23553657.600 1  94840817.805 1
G27  25688733.569 1 134995183.922 3  25688732.159 1 105191042.842 3
E01  24827103.609 1 130467320.489 1  24827098.777 1  99968440.420 1
E18  29406558.209 1 154532463.487 1  29406554.424 1 118407970.177 1
E24  26776572.431 1 140711803.347 2  26776568.790 1 107818161.856 1
E09  24677880.310 1 129683108.140 2  24677877.491 1  99367578.706 1
E04  23894818.372 1 125568111.153 1  23894812.647 1  96214509.815 1
E11  27361143.525 9               9  27361130.801 4 110171933.23918
E10                                  28601652.794 1 115166925.784 3
> 2022 02 25 13 22 00.0000000  0 35                     
G03  24529582.643 1 128903839.194 3  24529576.225 1 100444497.181 3
E12  27073825.761 2 142273818.373 5  27073825.809 1 109014983.887 3
G29  24145720.882 1 126886633.427 2  24145713.998 1  98872673.361 2
G26  20101846.089 1 105635918.406 1  20101839.468 1  82313683.317 1
G22  21072172.678 1 110735002.960 1                                
C19  24402194.455 1 127068630.587 1
C37  23485497.473 1 122295135.897 1
C20  21916095.448 1 114122913.144 1
C27  25787285.222 1 134281153.169 2
C30  26816878.156 1 139642520.765 3
C36  25927792.057 1 135012818.129 2
R13  22466856.374 2 119971798.012 4  22466851.566 2  93311354.750 3
R11  21461966.992 1 114686235.305 1  21461956.605 1  89200331.975 1
R01  19194931.575 1 102608008.998 1  19194925.537 1  79806134.404 1
R02  22064462.460 1 117740302.046 1  22064457.600 1  91575713.871 1
G21  25763209.019 2 135386579.974 5                                
G32  20926505.715 1 109969511.657 1  20926498.154 1  85690562.302 1
G25  23954546.327 1 125881960.155 2  23954540.838 1  98089798.976 1
G10  22912628.159 1 120406587.915 1  22912622.784 1  93823342.757 1
G31  21476149.197 1 112857904.893 1  21476138.640 1  87941182.828 1
G16  22293401.472 1 117152602.665 1                                
C32  23323876.093 1 121453530.820 1
C28  26536289.619 8 138181447.80116
R08  21033064.090 1 112631071.140 1  21033053.569 1  87601897.647 1
R12  19914620.635 1 106380282.949 1  19914614.883 1  82740287.126 1
E19  25820805.422 1 135689323.987 3  25820801.453 1 103969815.808 2
E31  23556900.843 1 123792322.179 1  23556897.092 1  94853862.647 1
G27  25685562.946 1 134978521.113 2  25685560.428 1 105178058.825 3
E01  24837482.765 1 130521862.599 1  24837477.744 1 100010232.391 1
E18  29403625.420 1 154517050.231 1  29403621.397 1 118396160.000 1
E24  26774526.594 1 140701050.092 2  26774522.544 1 107809922.360 1
E09  24675898.734 1 129672688.554 1  24675894.700 1  99359594.871 1
E04  23897019.949 1 125579682.296 1  23897014.525 1  96223376.012 1
E11                                  27369497.426 8               9
E10                                  28609351.386 1 115197923.613 3
> 2022 02 25 13 22 15.0000000  0 35                     
G03  24525974.637 1 128884883.676 3  24525968.912 1 100429726.722 2
E12  27080341.713 2 142308060.512 5  27080342.037 1 109041221.308 2
G29  24149601.508 1 126907025.356 2  24149594.235 1  98888563.196 2
G26  20103897.642 1 105646701.030 1  20103891.423 1  82322085.380 1
G22  21073670.110 1 110742871.057 1                                
C19  24398697.862 1 127050420.230 1
C37  23495600.495 1 122347742.286 1
C20  21918868.898 1 114137354.388 1
C27  25787394.737 1 134281721.535 2
C30  26818077.697 1 139648765.445 2
C36  25927171.333 1 135009585.938 2
R13  22464883.527 2 119961259.475 4  22464877.882 2  93303158.154 3
R11  21475283.903 1 114757396.219 1  21475273.622 1  89255679.383 1
R01  19198066.812 1 102624767.459 1  19198060.757 1  79819168.762 1
R02  22058167.525 1 117706712.026 1  22058162.464 1  91549588.321 1
G21  25769666.642 2 135420515.227 5                                
G32  20930947.222 1 109992850.903 1  20930939.494 1  85708748.717 1
G25  23969328.948 1 125959641.950 1  23969323.278 1  98150330.195 2
G10  22927157.574 1 120482943.632 1  22927152.325 1  93882840.671 1
G31  21483482.635 1 112896442.984 1  21483472.681 1  87971212.512 1
G16  22288700.394 1 117127897.901 1                                
C32  23335179.501 1 121512390.331 1
C28  26537701.153 4 138188812.554 6
R08  21045364.298 1 112696937.370 1  21045353.905 1  87653126.915 1
R12  19920291.330 1 106410573.566 1  19920285.393 1  82763846.487 1
E19  25829450.104 1 135734751.588 3  25829446.090 1 104004623.961 2
E31  23560156.808 1 123809433.140 1  23560153.363 1  94866973.654 1
G27  25682376.856 1 134961780.128 5  25682374.281 2 105165013.910 4
E01  24847870.175 1 130576448.036 1  24847864.820 1 100052057.590 1
E18  29400674.628 1 154501545.804 2  29400670.903 1 118384279.998 1
E24  26772490.012 1 140690347.692 2  26772485.986 1 107801721.827 1
E09  24673914.152 1 129662258.936 1  24673910.310 1  99351603.347 1
E04  23899230.749 1 125591302.130 1  23899225.788 1  96232279.525 1
E11                                  27377863.119 9               9
E10                                  28617037.133 1 115228871.010 3
> 2022 02 25 13 22 30.0000000  0 35                     
G03  24522382.228 1 128866006.857 3  24522376.164 1 100415017.519 3
E12  27086846.988 2 142342226.838 4  27086843.380 1 109067400.646 2
G29  24153501.462 1 126927520.265 1  24153494.772 1  98904533.243 3
G26  20105976.049 1 105657623.448 1  20105969.750 1  82330596.348 1
G22  21075177.000 1 110750789.777 1                                
C19  24395208.475 1 127032255.034 2
C37  23505705.397 1 122400359.526 1
C20  21921664.071 1 114151910.858 1
C27  25787496.279 1 134282251.437 2
C30  26819261.626 1 139654931.596 2
C36  25926561.079 1 135006408.410 1
R13  22462930.860 2 119950830.100 4  22462924.672 2  93295046.432 3
R11  21488603.256 1 114828575.493 1  21488594.512 1  89311040.991 1
R01  19201235.116 1 102641703.823 1  19201229.009 1  79832341.479 1
R02  22051879.173 1 117673156.754 1  22051874.466 1  91523489.806 1
G21  25776123.051 2 135454442.519 5                                
G32  20935405.169 1 110016277.533 1  20935397.508 1  85727003.219 1
G25  23984116.646 1 126037352.656 1  23984111.037 1  98210883.963 2
G10  22941695.854 1 120559338.709 1  22941690.336 1  93942369.265 1
G31  21490819.234 1 112934996.385 1  21490809.342 1  88001254.094 1
G16  22284015.193 1 117103276.711 1                                
C32  23346498.599 1 121571333.553 1
C28  26539122.815 2 138196207.665 7
R08  21057689.638 1 112762941.693 1  21057679.970 1  87704463.575 1
R12  19925985.783 1 106440991.056 1  19925979.439 1  82787504.538 1
E19  25838107.007 1 135780243.659 2  25838102.864 1 104039481.488 2
E31  23563430.283 1 123826635.867 1  23563426.815 1  94880154.968 1
G27  25679177.717 1 134944966.697 3  25679175.350 1 105151912.443 4
E01  24858266.517 1 130631082.061 1  24858261.482 1 100093920.010 1
E18  29397707.791 1 154485955.821 2  29397704.230 1 118372334.429 1
E24  26770464.048 1 140679701.728 1  26770460.106 1 107793564.530 1
E09  24671928.194 1 129651824.878 1  24671925.023 1  99343608.432 1
E04  23901451.942 1 125602976.289 1  23901447.243 1  96241224.663 1
E11                                  27386217.769 9               9
E10                                  28624711.198 1 115259772.096 3
> 2022 02 25 13 22 45.0000000  0 35                     
G03  24518805.617 1 128847209.155 3  24518798.979 1 100400369.940 2
E12  27093334.561 1 142376317.506 4  27093330.956 1 109093521.994 2
G29  24157421.325 1 126948118.668 1  24157414.254 1  98920583.925 2
G26  20108081.237 1 105668685.889 1  20108074.877 1  82339216.437 1
G22  21076693.837 1 110758759.886 1                                
C19  24391728.946 1 127014135.434 1
C37  23515811.569 1 122452987.658 1
C20  21924481.704 1 114166582.953 1
C27  25787591.100 1 134282743.370 2
C30  26820430.645 1 139661019.447 3
C36  25925961.697 1 135003285.757 2
R13  22460998.172 2 119940510.290 4  22460991.882 2  93287019.905 3
R11  21501927.210 1 114899772.988 1  21501918.825 1  89366416.788 1
R01  19204436.836 1 102658818.875 1  19204430.748 1  79845653.175 1
R02  22045597.597 1 117639637.740 1  22045593.114 1  91497419.478 1
G21  25782577.633 2 135488362.285 4                                
G32  20939879.993 1 110039791.943 1  20939872.237 1  85745326.126 1
G25  23998909.804 1 126115092.130 1  23998904.371 1  98271460.131 2
G10  22956240.535 1 120635773.035 1  22956235.403 1  94001928.406 1
G31  21498158.666 1 112973565.025 1  21498148.884 1  88031307.569 1
G16  22279345.866 1 117078739.690 1                                
C32  23357834.560 1 121630360.521 1
C28  26540547.868 2 138203601.83517
R08  21070040.675 1 112829083.906 1  21070031.786 1  87755907.487 1
R12  19931703.821 1 106471535.355 1  19931697.069 1  82811261.224 1
E19  25846776.706 1 135825800.378 3  25846772.011 1 104074388.563 2
E31  23566721.319 1 123843930.541 1  23566717.886 1  94893406.735 1
G27  25675964.554 1 134928081.193 3  25675962.192 1 105138754.859 4
E01  24868672.242 1 130685764.676 1  24868667.117 1 100135819.673 1
E18  29394725.098 1 154470280.668 2  29394721.275 1 118360323.582 1
E24  26768449.026 1 140669112.576 2  26768444.904 1 107785450.775 1
E09  24669941.832 1 129641386.789 1  24669938.527 1  99335610.440 1
E04  23903683.903 1 125614705.191 1  23903679.256 1  96250211.745 1
E11                                  27394569.684 9               9
E10                                  28632374.125 1 115290626.887 4
> 2022 02 25 13 23 00.0000000  0 35                     
G03  24515242.936 1 128828488.307 3  24515237.433 1 100385782.256 3
E12  27099806.430 2 142410329.756 4  27099803.384 1 109119583.269 2
G29  24161360.239 1 126968818.137 1  24161353.316 1  98936713.403 2
G26  20110212.477 1 105679885.723 1  20110205.987 1  82347943.592 1
G22  21078219.845 1 110766778.974 1                                
C19  24388257.755 1 126996059.205 1
C37  23525919.526 1 122505623.834 1
C20  21927320.914 1 114181368.142 1
C27  25787677.433 1 134283194.910 2
C30  26821583.923 1 139667026.469 3
C36  25925371.930 1 135000215.420 2
R13  22459085.278 2 119930297.286 4  22459078.878 2  93279076.461 3
R11  21515253.711 1 114970985.641 1  21515245.398 1  89421804.384 1
R01  19207671.565 1 102676109.851 1  19207665.686 1  79859101.704 1
R02  22039322.640 1 117606152.236 1  22039318.183 1  91471375.244 1
G21  25789030.062 2 135522271.383 6                                
G32  20944370.771 1 110063391.720 1  20944362.789 1  85763715.552 1
G25  24013708.104 1 126192857.425 1  24013702.881 1  98332056.399 1
G10  22970793.069 1 120712243.521 1  22970786.718 1  94061515.767 1
G31  21505500.660 1 113012146.123 1  21505490.318 1  88061370.753 1
G16  22274692.093 1 117054284.494 1                                
C32  23369185.470 1 121689468.441 1
C28  26541979.387 2 138211056.660 6
R08  21082417.106 1 112895361.336 1  21082408.672 1  87807456.564 1
R12  19937444.846 1 106502203.445 1  19937438.233 1  82835114.189 1
E19  25855457.836 1 135871418.960 2  25855452.716 1 104109343.033 2
E31  23570029.585 1 123861314.447 1  23570026.071 1  94906726.871 1
G27  25672736.478 1 134911121.108 3  25672735.087 1 105125539.199 4
E01  24879086.951 1 130740493.004 1  24879081.622 1 100177754.346 1
E10  28640033.947 9 150504346.65017  28640025.143 1 115321433.281 3
E18  29391724.618 1 154454517.780 2  29391721.746 1 118348245.535 1
E24  26766443.902 1 140658577.667 2  26766440.399 1 107777378.594 1
E09  24667953.850 1 129630942.180 1  24667950.526 1  99327607.432 1
E04  23905926.158 1 125626486.365 1  23905921.108 1  96259238.875 1
E11                                  27402909.317 9               9
> 2022 02 25 13 23 15.0000000  0 34                     
G03  24511694.422 1 128809841.360 2  24511689.736 1 100371252.203 2
E12  27106261.940 2 142444260.408 5  27106260.371 1 109145582.037 2
G29  24165318.091 1 126989615.639 2  24165310.935 1  98952919.275 2
G26  20112369.445 1 105691219.840 1  20112362.635 1  82356775.367 1
G22  21079754.243 1 110774844.009 1                                
C19  24384794.636 1 126978023.430 1
C37  23536028.232 1 122558264.816 1
C20  21930181.450 1 114196263.461 1
C27  25787756.033 1 134283603.128 2
C30  26822721.747 1 139672949.572 2
C36  25924791.229 1 134997194.199 2
R13  22457191.617 2 119920187.975 4  22457184.801 2  93271213.703 3
R11  21528582.039 1 115042209.626 1  21528574.121 1  89477200.788 1
R01  19210938.725 1 102693573.899 1  19210932.439 1  79872684.837 1
R02  22033052.985 1 117572697.621 1  22033048.371 1  91445355.004 1
G21  25795480.009 2 135556166.318 7                                
G32  20948877.346 1 110087073.898 1  20948869.556 1  85782169.189 1
G25  24028510.891 1 126270644.970 1  24028505.657 1  98392670.022 2
G10  22985350.897 1 120788746.681 1  22985344.775 1  94121128.580 1
G31  21512843.810 1 113050736.431 1  21512833.570 1  88091441.128 1
G16  22270053.396 1 117029908.216 1                                
C32  23380551.374 1 121748653.955 1
R08  21094818.802 1 112961770.074 1  21094809.673 1  87859107.769 1
R12  19943208.329 1 106532991.707 1  19943201.933 1  82859060.624 1
E19  25864149.340 1 135917096.450 3  25864144.720 1 104144342.651 2
E31  23573354.150 1 123878784.389 1  23573350.407 1  94920112.938 1
G27  25669495.014 1 134894083.677 3  25669492.579 2 105112263.220 5
E01  24889509.347 1 130795263.676 1  24889504.126 1 100219721.479 1
E10  28647679.996 4 150544485.208 6  28647663.112 1 115352188.721 3
E18  29388708.247 1 154438664.190 2  29388704.779 1 118336097.978 1
E24  26764449.002 1 140648094.019 2  26764445.382 1 107769345.685 1
E09  24665964.158 1 129620488.053 2  24665960.993 1  99319597.141 1
E04  23908177.824 1 125638316.851 1  23908172.506 1  96268303.786 1
E11                                  27411246.228 2 110373727.21315
> 2022 02 25 13 23 30.0000000  0 34                     
G03  24508161.237 1 128791273.821 2  24508156.706 1 100356784.043 2
E12  27112704.758 2 142478114.519 4  27112702.481 1 109171522.191 2
G29  24169295.015 1 127010516.638 2  24169288.102 1  98969205.752 2
G26  20114552.677 1 105702693.386 1  20114545.927 1  82365715.795 1
G22  21081298.551 1 110782960.485 1                                
C19  24381340.449 1 126960033.503 1
C37  23546139.114 1 122610915.457 1
C20  21933064.193 1 114211274.141 1
C27  25787827.045 1 134283973.399 2
C30  26823844.033 1 139678794.117 2
C36  25924221.245 1 134994227.212 2
R13  22455318.553 2 119910187.877 4  22455312.274 2  93263435.857 3
R11  21541913.419 1 115113449.983 1  21541906.655 1  89532609.934 1
R01  19214239.209 1 102711216.601 1  19214233.170 1  79886406.938 1
R02  22026790.467 1 117539279.663 1  22026785.485 1  91419363.264 1
G21  25801930.233 9               9                                
G32  20953400.662 1 110110843.817 1  20953393.153 1  85800691.185 1
G25  24043318.375 1 126348459.668 1  24043313.340 1  98453304.804 2
G10  22999915.974 1 120865287.249 1  22999910.237 1  94180770.521 1
G31  21520189.874 1 113089340.999 1  21520179.816 1  88121522.598 1
G16  22265430.821 1 117005616.242 1                                
C32  23391933.854 1 121807921.968 1
R08  21107245.808 1 113028315.218 1  21107236.653 1  87910865.060 1
R12  19948994.938 1 106563905.234 1  19948989.336 1  82883104.473 1
E19  25872853.875 1 135962838.068 3  25872849.160 1 104179391.390 2
E31  23576695.851 1 123896345.463 1  23576692.148 1  94933568.815 1
G27  25666239.383 1 134876974.195 2  25666236.655 1 105098931.125 4
E01  24899940.988 1 130850081.607 1  24899935.756 1 100261724.810 1
E10  28655296.301 2 150584562.316 6  28655290.012 1 115382897.082 3
E18  29385675.032 1 154422725.131 1  29385671.850 1 118323884.940 1
E24  26762465.187 1 140637666.912 2  26762461.069 1 107761356.068 1
E09  24663973.786 1 129610029.719 2  24663970.630 1  99311583.612 1
E04  23910439.561 1 125650201.946 1  23910434.252 1  96277410.543 1
E11  27419578.683 9               9  27419574.273 1 110407265.434 5
> 2022 02 25 13 23 45.0000000  0 33                     
G03  24504642.639 1 128772783.414 2  24504636.616 1 100342375.922 2
E12  27119133.634 2 142511889.499 4  27119129.622 1 109197401.684 2
G29  24173291.921 1 127031518.746 1  24173284.543 1  98985571.006 2
G26  20116762.038 1 105714303.774 1  20116755.299 1  82374762.876 1
G22  21082852.195 1 110791125.949 1                                
C19  24377893.618 1 126942087.098 1
C37  23556251.648 1 122663572.980 1
C20  21935967.957 1 114226397.706 1
C27  25787890.679 1 134284303.349 2
C30  26824950.934 1 139684557.382 2
C36  25923661.340 1 134991311.821 2
R13  22453465.926 2 119900294.151 4  22453460.374 2  93255740.739 3
R11  21555247.599 1 115184703.303 1  21555241.045 1  89588029.159 1
R01  19217572.315 1 102729035.402 1  19217566.509 1  79900265.998 1
R02  22020534.485 1 117505896.105 1  22020529.273 1  91393398.289 1
G32  20957940.049 1 110134699.061 1  20957932.776 1  85819279.691 1
G25  24058130.514 1 126426298.510 1  24058125.317 1  98513958.397 1
G10  23014487.551 1 120941862.238 1  23014481.447 1  94240439.316 2
G31  21527538.113 1 113127956.944 1  21527528.095 1  88151612.936 1
G16  22260823.665 1 116981406.361 1                                
C32  23403331.068 1 121867269.703 1
R08  21119698.232 1 113094993.910 1  21119688.313 1  87962726.230 1
R12  19954805.011 1 106594940.891 1  19954799.235 1  82907243.328 1
E19  25881569.566 1 136008640.943 3  25881565.037 1 104214487.085 2
E31  23580054.728 1 123913994.993 1  23580050.730 1  94947092.488 1
G27  25662969.711 1 134859790.094 2  25662966.505 1 105085540.933 3
E01  24910381.044 1 130904943.951 1  24910375.799 1 100303762.182 1
E10  28662917.969 4 150624575.111 6  28662904.108 1 115413556.232 3
E18  29382625.339 1 154406698.158 2  29382621.923 1 118311604.535 1
E24  26760491.023 1 140627293.811 2  26760487.024 1 107753407.868 1
E09  24661982.463 1 129599564.737 2  24661979.268 1  99303564.985 1
E04  23912711.299 1 125662139.264 1  23912706.012 1  96286557.318 1
E11                                  27427897.373 2               9
> 2022 02 25 13 24 00.0000000  0 33                     
G03  24501139.029 1 128754371.378 2  24501132.419 1 100328028.874 2
E12  27125544.468 2 142545586.248 5  27125541.990 1 109223221.211 3
G29  24177307.832 1 127052623.049 2  24177300.371 1  99002015.912 3
G26  20118997.457 1 105726052.025 1  20118991.205 1  82383917.356 1
G22  21084415.729 1 110799341.835 1                                
C19  24374455.270 1 126924185.488 1
C37  23566365.385 1 122716238.197 1
C20  21938894.203 1 114241635.269 1
C27  25787946.536 1 134284594.226 2
C30  26826042.238 1 139690240.442 2
C36  25923111.218 1 134988449.092 2
R13  22451633.494 2 119890507.849 4  22451628.063 2  93248129.204 3
R11  21568584.200 1 115255970.587 1  21568577.785 1  89643459.237 1
R01  19220938.769 1 102747031.665 1  19220932.658 1  79914263.080 1
R02  22014285.114 1 117472548.473 1  22014279.949 1  91367461.271 1
G32  20962495.862 1 110158640.894 1  20962488.653 1  85837935.641 1
G25  24072947.570 1 126504162.205 2  24072942.413 1  98574631.332 1
G10  23029066.270 1 121018472.289 1  23029060.443 1  94300135.404 1
G31  21534889.084 1 113166585.168 1  21534878.963 1  88181712.840 1
G16  22256232.590 1 116957280.038 1                                
C32  23414742.823 1 121926697.982 1
R08  21132175.223 1 113161806.903 1  21132165.479 1  88014691.863 1
R12  19960638.365 1 106626099.482 1  19960632.111 1  82931477.784 1
E19  25890297.067 1 136054506.267 3  25890293.127 1 104249630.634 2
E31  23583430.362 1 123931733.940 1  23583426.359 1  94960684.668 1
G27  25659685.509 1 134842532.551 3  25659682.791 1 105072093.463 3
E01  24920829.230 1 130959851.495 1  24920824.532 1 100345834.182 1
E10  28670509.089 2 150664524.686 6  28670506.023 1 115444166.825 3
E18  29379559.921 1 154390584.409 1  29379555.629 1 118299257.620 1
E24  26758527.972 1 140616975.903 1  26758523.626 1 107745501.942 1
E09  24659989.322 1 129589094.219 2  24659986.893 1  99295542.151 1
E04  23914993.515 1 125674129.943 1  23914987.828 1  96295744.984 1
E11                                  27436211.682 9               9
> 2022 02 25 13 24 15.0000000  0 34                     
G03  24497649.983 1 128736038.848 2  24497644.141 1 100313743.805 2
E12  27131940.942 2 142579205.566 5  27131939.657 1 109248981.415 2
G29  24181343.307 1 127073830.592 2  24181336.053 1  99018541.264 2
G26  20121259.689 1 105737939.008 1  20121253.076 1  82393179.937 1
G22  21085988.781 1 110807609.136 1                                
C19  24371026.220 1 126906329.762 1
C37  23576481.261 1 122768911.771 1
C20  21941842.484 1 114256987.813 1
C27  25787994.154 1 134284847.078 3
C30  26827118.657 1 139695844.333 2
C36  25922571.628 1 134985639.768 2
R13  22449820.962 2 119880830.140 4  22449815.386 2  93240602.106 3
R11  21581923.623 1 115327252.293 1  21581916.861 1  89698900.549 1
R01  19224338.508 1 102765206.309 1  19224332.630 1  79928398.912 1
R02  22008043.134 1 117439238.265 1  22008037.685 1  91341553.325 1
G32  20967068.697 1 110182670.314 1  20967061.382 1  85856659.849 1
G25  24087769.294 1 126582051.260 2  24087764.251 1  98635324.044 1
G10  23043651.797 1 121095117.825 1  23043645.783 1  94359859.164 1
G31  21542242.090 1 113205226.490 1  21542232.691 1  88211822.961 1
G16  22251657.772 1 116933238.461 1                                
C32  23426171.095 1 121986207.431 1
C28  26549218.956 4 138248778.62116
R08  21144677.147 1 113228755.074 1  21144667.703 1  88066762.637 1
R12  19966494.441 1 106657381.523 1  19966487.929 1  82955808.267 1
E19  25899037.212 1 136100434.938 3  25899032.860 1 104284822.692 2
E31  23586823.038 1 123949563.108 1  23586819.027 1  94974345.973 1
G27  25656387.730 1 134825202.518 3  25656385.068 1 105058589.516 3
E01  24931286.444 1 131014804.859 1  24931281.891 1 100387941.301 1
E10  28678101.016 2 150704411.470 7  28678096.560 1 115474729.404 3
E18  29376476.839 1 154374384.831 1  29376472.813 1 118286844.963 1
E24  26756575.406 1 140606714.126 2  26756570.947 1 107737639.028 1
E09  24657996.628 1 129578619.272 2  24657993.570 1  99287515.884 1
E04  23917286.188 1 125686175.056 1  23917279.820 1  96304974.346 1
E11                                  27444521.519 4               9
> 2022 02 25 13 24 30.0000000  0 33                     
G03  24494176.885 1 128717784.621 3  24494170.542 1 100299519.717 2
E12  27138322.808 4 142612745.755 6  27138321.976 1 109274681.014 3
G29  24185398.510 1 127095140.134 2  24185391.114 1  99035146.131 2
G26  20123547.749 1 105749963.159 1  20123541.375 1  82402549.412 1
G22  21087571.417 1 110815926.689 1                                
C19  24367606.142 1 126888518.712 1
C37  23586598.173 1 122821591.973 1
C20  21944812.717 1 114272453.897 1
C27  25788034.573 1 134285060.564 2
C30  26828179.077 1 139701367.484 2
C36  25922042.303 1 134982882.346 2
R13  22448028.425 2 119871259.269 4  22448023.486 2  93233158.091 2
R11  21595265.808 1 115398546.363 1  21595258.611 1  89754351.455 1
R01  19227771.701 1 102783558.042 1  19227765.704 1  79942672.473 1
R02  22001807.261 1 117405963.981 1  22001802.118 1  91315673.345 1
G32  20971657.758 1 110206785.974 1  20971650.583 1  85875451.265 1
G25  24102595.513 1 126659963.712 1  24102590.454 1  98696035.015 1
G10  23058243.075 1 121171796.967 1  23058237.028 1  94419609.099 2
G31  21549597.598 1 113243879.046 1  21549588.061 1  88241941.823 1
G16  22247098.762 1 116909280.258 1                                
C32  23437614.794 1 122045796.277 1
R08  21157203.819 1 113295835.898 1  21157194.657 1  88118936.582 1
R12  19972373.288 1 106688785.124 1  19972366.714 1  82980233.286 1
E19  25907788.396 1 136146425.025 3  25907784.432 1 104320061.829 2
E31  23590232.468 1 123967480.859 1  23590228.663 1  94988075.167 1
G27  25653075.696 1 134807798.817 3  25653073.044 1 105045028.161 3
E01  24941751.780 1 131069802.282 1  24941747.474 1 100430082.159 1
E18  29373377.435 1 154358098.048 2  29373373.694 1 118274365.482 1
E24  26754633.328 1 140596507.066 1  26754628.673 1 107729818.038 1
E09  24656002.879 1 129568138.458 2  24655999.383 1  99279485.114 1
E04  23919588.422 1 125698273.200 1  23919582.051 1  96314244.349 1
E11                                  27452822.926 4 110541145.61617
E10                                  28685674.708 1 115505242.677 4
> 2022 02 25 13 24 45.0000000  0 34                     
G03  24490718.428 1 128699610.279 3  24490712.106 1 100285357.928 2
E12  27144689.658 4 142646295.16517  27144690.084 1 109300321.022 3
G29  24189473.052 1 127116553.128 2  24189466.328 1  99051831.577 2
G26  20125862.158 1 105762125.857 1  20125855.728 1  82412026.843 1
G22  21089163.824 1 110824295.999 1                                
C19  24364193.743 1 126870753.891 1
C37  23596716.395 1 122874279.928 1
C20  21947805.063 1 114288034.998 1
C27  25788068.998 1 134285236.279 2
C30  26829225.066 1 139706811.315 2
C36  25921523.034 1 134980178.174 2
R13  22446256.257 2 119861796.691 5  22446252.213 2  93225798.351 3
R11  21608610.411 1 115469853.588 1  21608602.806 1  89809812.612 1
R01  19231238.112 1 102802088.608 1  19231232.405 1  79957085.126 1
R02  21995578.567 1 117372727.787 1  21995573.368 1  91289822.999 1
G21  25834079.213 9               9                                
G32  20976263.619 1 110230989.424 1  20976256.259 1  85894311.087 1
G25  24117426.653 1 126737900.651 2  24117421.552 1  98756765.025 2
G10  23072841.425 1 121248510.635 1  23072835.499 1  94479385.944 2
G31  21556955.797 1 113282544.133 1  21556945.672 1  88272070.448 1
G16  22242555.974 1 116885407.147 1                                
C32  23449073.300 1 122105465.688 1
R08  21169755.696 1 113363050.774 1  21169746.453 1  88171214.789 1
R12  19978275.110 1 106720311.226 1  19978268.664 1  83004753.587 1
E19  25916552.212 1 136192478.428 3  25916548.237 1 104355349.486 2
E31  23593659.238 1 123985488.502 1  23593655.427 1  95001873.226 1
G27  25649750.154 1 134790322.918 4  25649747.494 1 105031410.536 4
E01  24952226.496 1 131124844.858 1  24952221.687 1 100472257.631 1
E18  29370262.540 1 154341725.540 2  29370258.296 1 118261820.299 1
E24  26752702.201 1 140586356.196 2  26752696.947 1 107722040.102 1
E09  24654006.978 1 129557653.233 1  24654004.348 1  99271451.005 1
E04  23921900.870 1 125710425.917 1  23921894.552 1  96323556.162 1
E11                                  27461118.232 2 110574546.208 5
E10                                  28693240.747 1 115535707.649 3
> 2022 02 25 13 25 00.0000000  0 35                     
G03  24487273.889 1 128681511.343 3  24487268.737 1 100271254.872 2
E12  27151043.101 4 142679675.046 6  27151041.863 1 109325897.684 3
G29  24193566.780 1 127138064.831 2  24193559.749 1  99068593.945 2
G26  20128202.425 1 105774422.264 1  20128195.912 1  82421608.468 1
G22  21090765.642 1 110832712.604 1                                
C19  24360790.589 1 126853030.787 1
C37  23606835.410 1 122926970.677 1
C20  21950818.162 1 114303726.430 1
C27  25788095.507 1 134285369.669 2
C30  26830254.114 1 139712171.079 2
C36  25921012.341 1 134977522.338 2
R13  22444503.223 2 119852437.862 4  22444499.220 2  93218519.262 4
R11  21621955.958 1 115541169.032 1  21621948.598 1  89865280.162 1
R01  19234737.225 1 102820793.260 1  19234731.506 1  79971633.179 1
R02  21989356.594 1 117339525.399 1  21989351.569 1  91263998.940 1
G21  25840566.871 9               9                                
G32  20980885.179 1 110255276.023 1  20980878.224 1  85913235.701 1
G25  24132261.185 1 126815856.862 2  24132255.860 1  98817510.100 1
G10  23087444.694 1 121325253.627 1  23087439.139 1  94539185.628 1
G31  21564315.216 1 113321216.752 1  21564304.680 1  88302204.940 1
G16  22238028.535 1 116861614.691 1                                
C32  23460546.436 1 122165210.657 1
C28  26553633.105 2 138271734.81416
R08  21182331.173 1 113430394.724 1  21182322.004 1  88223593.387 1
R12  19984198.694 1 106751954.679 1  19984192.200 1  83029365.166 1
E19  25925326.777 1 136238589.922 3  25925323.244 1 104390681.651 2
E31  23597102.099 1 124003581.138 1  23597098.429 1  95015736.419 1
G27  25646410.076 1 134772770.370 3  25646407.363 1 105017733.207 3
E01  24962708.308 1 131179927.532 1  24962703.828 1 100514463.827 1
E18  29367128.670 1 154325262.563 1  29367125.277 1 118249205.821 1
E24  26750779.689 1 140576256.766 2  26750775.143 1 107714301.596 1
E09  24652009.732 1 129547158.969 1  24652007.348 1  99263409.948 1
E04  23924222.865 1 125722628.541 1  23924216.651 1  96332906.229 1
E11                                  27469404.958 4 110607915.591 6
E10                                  28700794.054 1 115566120.386 3
> 2022 02 25 13 25 15.0000000  0 34                     
G03  24483845.556 1 128663492.656 3  24483840.507 1 100257214.369 2
E12  27157382.194 2 142712976.685 6  27157379.030 1 109351414.477 3
G29  24197679.978 1 127159680.047 1  24197672.947 1  99085436.947 2
G26  20130568.483 1 105786856.982 1  20130561.979 1  82431297.851 1
G22  21092377.482 1 110841181.290 1                                
C19  24357396.025 1 126835354.239 1
C37  23616955.198 1 122979668.588 1
C20  21953853.924 1 114319532.868 1
C27  25788113.911 1 134285465.509 2
C30  26831268.107 1 139717451.362 1
C36  25920512.639 1 134974919.492 2
R13  22442770.659 2 119843187.245 4  22442766.691 2  93211324.367 3
R11  21635303.832 1 115612496.603 1  21635296.398 1  89920757.098 1
R01  19238269.854 1 102839676.839 1  19238264.348 1  79986320.407 1
R02  21983141.372 1 117306361.555 1  21983137.183 1  91238204.843 1
G32  20985523.557 1 110279650.538 1  20985516.303 1  85932228.819 1
G25  24147100.123 1 126893836.610 1  24147095.241 1  98878273.495 2
G10  23102055.174 1 121402030.107 1  23102048.865 1  94599011.407 1
G31  21571676.507 1 113359901.328 1  21571665.840 1  88332348.753 1
G16  22233517.085 1 116837907.588 1                                
C32  23472035.811 1 122225035.520 1
C28  26555116.298 2 138279456.894 6
R08  21194931.863 1 113497871.682 1  21194922.455 1  88276075.435 1
R12  19990144.978 1 106783719.830 1  19990138.760 1  83054071.378 1
E19  25934112.986 1 136284764.194 3  25934110.166 1 104426061.944 2
E31  23600561.921 1 124021763.305 1  23600558.311 1  95029668.211 1
G27  25643056.260 1 134755145.813 3  25643053.620 1 105003999.773 3
E01  24973198.349 1 131235054.665 1  24973194.287 1 100556704.083 1
E18  29363979.888 1 154308713.852 1  29363976.186 1 118236525.645 1
E24  26748867.813 1 140566213.520 2  26748863.880 1 107706606.133 1
E09  24650012.408 1 129536660.425 2  24650009.246 1  99255365.603 1
E04  23926555.444 1 125734885.836 1  23926548.983 1  96342298.170 1
E11                                  27477686.672 4 110641257.179 8
E10                                  28708334.952 1 115596484.346 3
> 2022 02 25 13 25 30.0000000  0 34                     
G03  24480431.226 1 128645552.659 3  24480426.778 1 100243235.172 2
E12  27163702.333 2 142746198.095 5  27163700.919 1 109376869.847 3
G29  24201812.381 1 127181397.126 2  24201805.734 1  99102359.344 2
G26  20132960.527 1 105799428.112 1  20132954.219 1  82441093.541 1
G22  21093998.601 1 110849700.378 1                                
C19  24354010.107 1 126817722.654 1
C37  23627076.140 1 123032371.607 1
C20  21956910.959 1 114335452.558 1
C27  25788124.300 1 134285522.156 2
C30  26832266.280 1 139722650.507 2
C36  25920022.943 1 134972367.679 2
R13  22441058.387 2 119834043.117 5  22441054.369 2  93204212.265 3
R11  21648653.659 1 115683834.184 1  21648646.507 1  89976241.879 1
R01  19241835.822 1 102858737.743 1  19241830.164 1  80001145.559 1
R02  21976933.830 1 117273235.141 1  21976929.028 1  91212439.881 1
G32  20990178.160 1 110304111.303 1  20990171.003 1  85951289.141 1
G25  24161943.349 1 126971837.670 1  24161938.663 1  98939053.486 1
G10  23116671.306 1 121478837.841 1  23116665.641 1  94658861.566 1
G31  21579039.433 1 113398595.664 1  21579029.099 1  88362500.186 1
G16  22229021.482 1 116814284.447 1                                
C32  23483539.349 1 122284938.219 1
C28  26556605.671 2 138287209.169 5
R08  21207557.677 1 113565479.935 1  21207547.615 1  88328659.592 1
R12  19996114.241 1 106815604.358 1  19996107.823 1  83078870.465 1
E19  25942911.756 1 136330999.303 3  25942908.422 1 104461488.791 2
E31  23604038.664 1 124040033.024 1  23604035.120 1  95043667.082 1
G27  25639688.772 1 134737447.527 3  25639685.615 1 104990208.866 3
E01  24983696.985 1 131290224.145 1  24983692.612 1 100598976.790 1
E18  29360814.827 1 154292077.671 1  29360810.353 1 118223778.435 1
E24  26746966.409 1 140556224.673 2  26746963.036 1 107698952.363 1
E09  24648013.613 1 129526155.853 1  24648010.590 1  99247316.634 1
E04  23928897.813 1 125747196.099 1  23928891.456 1  96351730.701 1
E11                                  27485958.351 4 110674569.416 8
E10                                  28715863.123 1 115626797.970 4
> 2022 02 25 13 25 45.0000000  0 34                     
G03  24477032.420 1 128627693.560 3  24477027.672 1 100229319.053 2
E12  27170008.985 2 142779341.334 5  27170007.839 1 109402265.270 3
G29  24205965.304 1 127203218.344 1  24205957.764 1  99119362.887 2
G26  20135378.982 1 105812137.619 1  20135372.550 1  82450997.067 1
G22  21095629.960 1 110858272.073 1                                
C19  24350633.757 1 126800138.158 1
C37  23637198.636 1 123085081.469 1
C20  21959990.573 1 114351487.564 1
C27  25788128.435 1 134285541.740 2
C30  26833249.415 1 139727770.427 2
C36  25919543.343 1 134969868.818 2
R13  22439365.911 2 119825007.400 4  22439362.035 2  93197184.511 3
R11  21662006.195 1 115755183.352 1  21661998.525 1  90031735.653 1
R01  19245435.250 1 102877978.006 1  19245429.207 1  80016110.191 1
R02  21970733.734 1 117240148.747 1  21970728.370 1  91186706.032 1
G32  20994849.627 1 110328660.396 1  20994842.401 1  85970418.302 1
G25  24176790.771 1 127049861.659 2  24176786.125 1  98999851.339 1
G10  23131293.692 1 121555678.418 1  23131288.206 1  94718737.260 1
G31  21586405.340 1 113437301.701 1  21586394.755 1  88392660.740 1
G16  22224542.422 1 116790747.471 1                                
C32  23495057.885 1 122344920.493 1
C28  26558100.868 1 138294993.926 4
R08  21220208.296 1 113633220.722 1  21220197.443 1  88381346.865 1
R12  20002105.604 1 106847609.926 1  20002099.225 1  83103763.676 1
E19  25951722.641 1 136377297.410 3  25951718.732 1 104496963.927 2
E31  23607532.122 1 124058392.213 1  23607528.662 1  95057734.512 1
G27  25636307.503 1 134719677.697 3  25636303.940 1 104976362.201 3
E01  24994203.346 1 131345437.706 1  24994199.440 1 100641283.272 1
E18  29357632.433 1 154275356.081 1  29357628.358 1 118210965.788 1
E24  26745076.706 1 140546292.312 2  26745073.052 1 107691341.869 1
E09  24646013.590 1 129515647.381 1  24646011.021 1  99239264.683 1
E04  23931249.891 1 125759561.441 1  23931244.373 1  96361205.444 1
E11                                  27494226.020 4               9
E10                                  28723379.223 1 115657062.674 4
> 2022 02 25 13 26 00.0000000  0 34                     
G03  24473649.032 1 128609913.699 2  24473643.883 1 100215464.640 2
E12  27176300.231 2 142812404.345 5  27176299.448 1 109427599.212 3
G29  24210137.275 1 127225141.706 2  24210129.195 1  99136446.020 2
G26  20137823.674 1 105824983.514 1  20137817.046 1  82461006.848 1
G22  21097270.949 1 110866894.666 1                                
C19  24347265.833 1 126782599.174 1
C37  23647321.723 1 123137796.008 1
C20  21963091.789 1 114367635.981 1
C27  25788125.210 1 134285522.528 2
C30  26834217.368 1 139732809.215 2
C36  25919073.725 1 134967420.951 2
R13  22437693.771 2 119816078.112 4  22437689.562 2  93190239.553 2
R11  21675359.567 1 115826541.568 1  21675351.890 1  90087236.453 1
R01  19249067.812 1 102897395.902 1  19249061.643 1  80031212.996 1
R02  21964540.400 1 117207100.104 1  21964534.724 1  91161001.544 1
G32  20999537.790 1 110353296.133 1  20999530.503 1  85989614.970 1
G25  24191641.976 1 127127906.235 1  24191637.718 1  99060665.255 1
G10  23145922.289 1 121632549.401 1  23145916.079 1  94778636.696 1
G31  21593772.801 1 113476017.290 1  21593762.066 1  88422828.704 1
G16  22220079.634 1 116767295.020 1                                
C32  23506591.781 1 122404980.130 1
C28  26559601.711 1 138302809.316 4
R08  21232883.007 1 113701092.218 1  21232871.727 1  88434135.795 1
R12  20008119.426 1 106879734.135 1  20008112.842 1  83128749.172 1
E19  25960544.632 1 136423656.325 3  25960540.390 1 104532485.666 2
E31  23611042.672 1 124076838.818 1  23611038.952 1  95071868.917 1
G27  25632912.440 1 134701834.457 3  25632908.751 1 104962458.405 3
E01  25004718.391 1 131400693.121 1  25004714.254 1 100683621.818 1
E18  29354434.036 1 154258547.254 2  29354429.854 1 118198086.292 1
E24  26743196.902 1 140536414.557 2  26743193.247 1 107683773.208 1
E09  24644012.522 1 129505133.161 2  24644010.157 1  99231208.332 1
E04  23933612.731 1 125771980.065 1  23933607.602 1  96370721.011 1
E11                                  27502484.336 4               9
E10                                  28730883.291 1 115687276.814 4
> 2022 02 25 13 26 15.0000000  0 34                     
G03  24470281.226 1 128592216.174 2  24470275.778 1 100201674.362 3
E12  27182576.149 2 142845389.834 4  27182576.714 1 109452873.749 3
G29  24214329.269 1 127247170.194 2  24214321.480 1  99153611.034 2
G26  20140294.723 1 105837968.614 1  20140287.937 1  82471125.118 1
G22  21098922.001 1 110875571.244 1                                
C19  24343906.988 1 126765108.700 1
C37  23657446.167 1 123190517.847 1
C20  21966215.376 1 114383900.752 1
C27  25788114.896 1 134285467.597 2
C30  26835169.923 1 139737769.805 2
C36  25918613.597 1 134965026.848 2
R13  22436042.192 2 119807258.389 5  22436038.547 2  93183379.757 3
R11  21688716.034 1 115897911.333 1  21688708.005 1  90142746.270 1
R01  19252734.080 1 102916994.441 1  19252727.795 1  80046456.295 1
R02  21958354.723 1 117174093.164 1  21958349.144 1  91135329.496 1
G32  21004242.535 1 110378021.487 1  21004235.516 1  86008881.463 1
G25  24206497.496 1 127205973.876 1  24206493.484 1  99121497.131 1
G10  23160556.026 1 121709453.297 1  23160550.607 1  94838561.762 1
G31  21601142.452 1 113514745.116 1  21601131.781 1  88453006.238 1
G16  22215633.278 1 116743930.266 1                                
C32  23518141.629 1 122465119.732 1
C28  26561108.778 2 138310658.536 4
R08  21245582.341 1 113769096.567 1  21245571.812 1  88487028.053 1
R12  20014155.677 1 106911979.703 1  20014149.229 1  83153829.059 1
E19  25969378.183 1 136470078.972 3  25969374.508 1 104568056.252 2
E31  23614569.938 1 124095375.567 1  23614566.469 1  95086072.404 1
G27  25629503.517 1 134683920.874 2  25629499.947 1 104948499.743 2
E01  25015241.768 1 131455992.987 1  25015237.347 1 100725994.435 1
E18  29351218.772 1 154241654.122 1  29351215.294 1 118185142.201 1
E24  26741328.237 1 140526594.373 2  26741324.567 1 107676248.657 1
E09  24642011.463 1 129494616.177 1  24642008.835 1  99223149.882 1
E04  23935986.557 1 125784454.968 1  23935981.443 1  96380279.693 1
E11                                  27510735.163 4               9
E10                                  28738374.836 1 115717442.448 4
> 2022 02 25 13 26 30.0000000  0 34                     
G03  24466928.347 1 128574596.214 3  24466922.386 1 100187944.536 2
E12  27188836.373 2 142878292.707 5  27188837.703 1 109478085.006 3
G29  24218540.421 1 127269298.939 2  24218532.621 1  99170854.243 2
G26  20142791.338 1 105851087.866 1  20142784.310 1  82481347.904 1
G22  21100582.548 1 110884297.096 1                                
C19  24340556.866 1 126747661.992 1
C37  23667571.444 1 123243241.768 1
C20  21969360.276 1 114400276.993 1
C27  25788096.364 1 134285372.112 2
C30  26836106.766 1 139742647.294 2
C36  25918163.506 1 134962681.466 1
R13  22434410.291 2 119798542.749 4  22434406.364 2  93176600.938 3
R11  21702072.848 1 115969287.227 1  21702064.626 1  90198260.821 1
R01  19256433.472 1 102936768.751 1  19256427.208 1  80061836.316 1
R02  21952175.703 1 117141123.165 1  21952170.832 1  91109686.188 1
G32  21008963.672 1 110402831.570 1  21008956.558 1  86028213.971 1
G25  24221357.006 1 127284059.194 2  24221352.705 1  99182342.762 2
G10  23175196.146 1 121786384.626 1  23175190.429 1  94898508.186 1
G31  21608513.326 1 113553479.969 1  21608502.601 1  88483189.218 1
G16  22211202.924 1 116720648.390 1                                
C32  23529705.013 1 122525334.075 1
C28  26562621.779 2 138318536.798 5
R08  21258305.573 1 113837228.318 1  21258295.309 1  88540019.383 1
R12  20020213.884 1 106944340.968 1  20020207.249 1  83178998.928 1
E19  25978223.451 1 136516560.067 3  25978219.594 1 104603671.607 2
E31  23618113.631 1 124113997.377 1  23618109.924 1  95100341.059 1
G27  25626080.419 1 134665932.048 2  25626076.828 1 104934482.491 3
E01  25025772.377 1 131511332.015 1  25025767.973 1 100768397.059 1
E18  29347987.208 1 154224671.768 2  29347983.627 1 118172129.760 1
E24  26739469.642 1 140516826.775 2  26739465.931 1 107668764.400 1
E09  24640008.314 1 129484091.567 1  24640006.270 1  99215085.543 1
E04  23938369.605 1 125796981.271 1  23938365.058 1  96389877.768 1
E11                                  27518977.586 8               9
E10                                  28745853.739 1 115747555.597 3
> 2022 02 25 13 26 45.0000000  0 34                     
G03  24463591.281 1 128557057.944 2  24463584.827 1 100174278.350 3
E12  27195087.094 2 142911116.728 5  27195083.939 1 109503235.827 2
G29  24222771.165 1 127291532.149 2  24222763.413 1  99188178.813 2
G26  20145314.202 1 105864345.096 1  20145307.214 1  82491678.219 1
G22  21102253.297 1 110893076.313 1                                
C19  24337215.180 1 126730263.178 1
C37  23677697.714 1 123295971.417 1
C20  21972527.246 1 114416768.608 1
C27  25788071.372 1 134285240.112 2
C30  26837028.187 1 139747445.469 2
C36  25917723.066 1 134960388.608 2
R13  22432799.235 2 119789935.401 4  22432794.066 2  93169906.356 3
R11  21715431.470 1 116040672.679 1  21715423.145 1  90253782.836 1
R01  19260166.245 1 102956722.852 1  19260160.232 1  80077356.163 1
R02  21946005.178 1 117108194.765 1  21945999.752 1  91084075.199 1
G32  21013701.821 1 110427730.436 1  21013694.653 1  86047615.688 1
G25  24236220.046 1 127362165.723 2  24236215.759 1  99243204.934 2
G10  23189841.212 1 121863346.854 1  23189835.695 1  94958478.703 1
G31  21615886.164 1 113592225.672 1  21615875.634 1  88513380.676 1
G16  22206789.227 1 116697453.478 1                                
C32  23541283.645 1 122585626.780 1
C28  26564141.403 1 138326448.117 4
R08  21271053.145 1 113905491.265 1  21271043.209 1  88593112.762 1
R12  20026294.322 1 106976821.459 1  20026287.627 1  83204261.536 1
E19  25987080.967 1 136563103.736 3  25987076.508 1 104639334.904 2
E31  23621673.803 1 124132708.013 1  23621670.376 1  95114677.776 1
G27  25622644.221 1 134647872.061 2  25622640.052 1 104920409.768 2
E01  25036311.525 1 131566713.832 1  25036306.789 1 100810832.463 1
E18  29344739.140 1 154207604.171 2  29344735.832 1 118159051.986 1
E24  26737621.494 1 140507115.769 2  26737617.931 1 107661323.512 1
E09  24638005.845 1 129473563.321 1  24638002.917 1  99207018.459 1
E04  23940764.013 1 125809563.004 1  23940759.360 1  96399518.305 1
E11                                  27527215.100 4               9
E10                                  28753319.786 1 115777619.113 3
> 2022 02 25 13 27 00.0000000  0 34                     
G03  24460268.512 1 128539597.453 2  24460262.480 1 100160672.778 2
E12  27201314.877 1 142943857.645 3  27201314.654 1 109528322.952 2
G29  24227020.944 1 127313865.708 1  24227013.046 1  99205581.596 2
G26  20147862.222 1 105877736.105 1  20147855.558 1  82502112.764 1
G22  21103933.420 1 110901904.914 1                                
C19  24333882.000 1 126712908.332 1
C37  23687824.004 1 123348702.435 1
C20  21975715.479 1 114433371.510 1
C27  25788037.759 1 134285067.717 2
C30  26837933.428 1 139752160.204 2
C36  25917291.450 1 134958144.072 2
R13  22431207.111 2 119781432.158 4  22431201.682 2  93163292.708 3
R11  21728791.272 1 116112062.990 1  21728782.666 1  90309308.584 1
R01  19263931.968 1 102976852.842 1  19263925.741 1  80093012.806 1
R02  21939841.496 1 117075303.854 1  21939836.184 1  91058493.421 1
G32  21018456.002 1 110452714.063 1  21018448.750 1  86067083.440 1
G25  24251086.679 1 127440288.866 2  24251082.094 1  99304080.064 2
G10  23204492.061 1 121940335.392 1  23204485.875 1  95018469.713 2
G31  21623260.526 1 113630977.750 1  21623249.908 1  88543577.088 1
G16  22202391.444 1 116674341.757 1                                
C32  23552876.916 1 122645993.443 1
C28  26565666.291 1 138334388.673 4
R08  21283824.477 1 113973880.678 1  21283814.444 1  88646304.504 1
R12  20032396.400 1 107009416.749 1  20032389.447 1  83229613.426 1
E19  25995948.970 1 136609705.656 3  25995944.934 1 104675042.851 2
E31  23625250.655 1 124151503.200 1  23625247.071 1  95129079.283 1
G27  25619192.604 1 134629736.892 2  25619188.778 1 104906278.477 3
E01  25046857.752 1 131622133.963 1  25046853.040 1 100853297.236 1
E18  29341474.714 1 154190447.250 2  29341471.170 1 118145905.782 1
E24  26735783.731 1 140497457.228 1  26735779.901 1 107653922.810 1
E09  24636001.311 1 129463027.387 1  24635997.587 1  99198945.457 1
E04  23943168.188 1 125822196.090 1  23943163.381 1  96409198.199 1
E11                                  27535446.028 8               9
E10                                  28760772.408 1 115807629.614 4
> 2022 02 25 13 27 15.0000000  0 34                     
G03  24456961.473 1 128522219.144 2  24456955.790 1 100147131.243 2
E12  27207531.742 1 142976519.463 3  27207529.682 1 109553349.527 2
G29  24231290.844 1 127336304.043 1  24231282.948 1  99223065.982 2
G26  20150436.915 1 105891264.998 1  20150429.915 1  82512654.753 1
G22  21105623.761 1 110910787.353 1                                
C19  24330558.175 1 126695601.796 1
C37  23697951.653 1 123401438.678 1
C20  21978926.366 1 114450089.908 1
C27  25787997.414 1 134284859.149 2
C30  26838823.662 1 139756795.752 2
C36  25916870.669 1 134955951.880 2
R13  22429634.928 2 119773037.219 4  22429629.712 2  93156763.324 3
R11  21742152.091 1 116183461.884 1  21742144.092 1  90364841.035 1
R01  19267731.220 1 102997162.984 1  19267725.156 1  80108809.576 1
R02  21933685.642 1 117042455.590 1  21933680.278 1  91032944.789 1
G32  21023227.255 1 110477786.735 1  21023220.196 1  86086620.577 1
G25  24265956.959 1 127518432.453 2  24265952.267 1  99364971.093 2
G10  23219148.463 1 122017353.900 1  23219141.900 1  95078484.113 2
G31  21630636.754 1 113669740.017 1  21630626.190 1  88573781.440 1
G16  22198009.981 1 116651317.617 1                                
C32  23564484.467 1 122706437.912 1
C28  26567197.227 1 138342362.767 4
R08  21296620.388 1 114042400.722 1  21296610.085 1  88699597.842 1
R12  20038520.714 1 107042130.565 1  20038513.532 1  83255057.506 1
E19  26004828.622 1 136656369.882 3  26004824.517 1 104710798.531 2
E31  23628844.037 1 124170386.971 1  23628840.509 1  95143548.670 1
G27  25615727.947 1 134611530.934 3  25615724.285 1 104892092.004 3
E01  25057411.568 1 131677596.345 1  25057407.090 1 100895794.374 1
E18  29338193.626 1 154173205.259 2  29338189.957 1 118132694.397 1
E24  26733956.972 1 140487855.401 2  26733952.668 1 107646565.575 1
E09  24633995.369 1 129452488.044 1  24633991.698 1  99190869.849 1
E04  23945582.918 1 125834884.874 1  23945578.083 1  96418920.773 1
E11                                  27543666.047 4               9
E10                                  28768213.018 1 115837590.193 4
> 2022 02 25 13 27 30.0000000  0 34                     
G03  24453670.537 1 128504924.853 2  24453665.349 1 100133655.180 2
E12  27213732.521 1 143009103.760 4  27213730.582 1 109578316.654 2
G29  24235581.156 1 127358848.755 1  24235573.252 1  99240633.290 2
G26  20153037.790 1 105904933.308 1  20153030.744 1  82523305.390 1
G22  21107324.240 1 110919725.446 1                                
C19  24327243.903 1 126678345.344 1
C37  23708080.497 1 123454181.538 1
C20  21982159.409 1 114466925.447 1
C27  25787951.005 1 134284616.278 2
C30  26839699.123 1 139761353.751 2
C36  25916460.353 1 134953813.588 1
R13  22428083.692 2 119764752.185 3  22428077.606 2  93150319.422 4
R11  21755515.424 1 116254870.757 1  21755506.957 1  90420381.247 1
R01  19271564.658 1 103017655.150 1  19271558.629 1  80124747.916 1
R02  21927538.772 1 117009651.790 1  21927532.684 1  91007430.721 1
G32  21028015.960 1 110502950.221 1  21028008.501 1  86106228.469 1
G25  24280831.649 1 127596597.666 2  24280826.684 1  99425879.034 2
G10  23233810.194 1 122094403.666 1  23233803.757 1  95138522.831 1
G31  21638015.352 1 113708514.082 1  21638004.494 1  88603994.983 1
G16  22193645.672 1 116628382.943 1                                
C32  23576106.730 1 122766961.583 1
C28  26568735.806 1 138350372.171 4
R08  21309440.449 1 114111052.273 1  21309430.652 1  88752993.454 1
R12  20044666.896 1 107074964.125 1  20044659.987 1  83280594.714 1
E19  26013720.695 1 136703098.112 3  26013716.657 1 104746603.262 2
E31  23632454.577 1 124189360.825 1  23632451.100 1  95158087.070 1
G27  25612250.380 1 134593255.877 3  25612246.961 1 104877851.718 3
E01  25067973.944 1 131733102.247 1  25067969.685 1 100938324.869 1
E18  29334896.538 1 154155879.882 2  29334893.225 1 118119419.115 1
E24  26732141.121 1 140478311.942 1  26732136.662 1 107639253.063 1
E09  24631988.813 1 129441946.992 1  24631985.642 1  99182792.941 1
E04  23948008.708 1 125847631.061 1  23948003.698 1  96428687.321 1
E11                                  27551881.869 4               9
E10                                  28775641.720 1 115867501.917 3
> 2022 02 25 13 27 45.0000000  0 34                     
G03  24450394.860 1 128487712.023 2  24450389.719 1 100120242.578 2
E12  27219918.017 1 143041607.550 4  27219915.919 1 109603222.111 2
G29  24239891.010 1 127381497.030 2  24239882.907 1  99258281.319 2
G26  20155664.656 1 105918738.147 1  20155657.652 1  82534062.413 1
G22  21109035.311 1 110928716.439 1                                
C19  24323939.113 1 126661136.447 1
C37  23718209.944 1 123506927.968 1
C20  21985414.273 1 114483875.379 1
C27  25787896.938 1 134284336.453 2
C30  26840559.152 1 139765831.239 2
C36  25916059.838 1 134951726.295 1
R13  22426552.474 2 119756574.136 3  22426545.171 2  93143958.699 3
R11  21768880.173 1 116326286.264 1  21768871.273 1  90475926.612 1
R01  19275431.533 1 103038326.503 1  19275425.785 1  80140825.617 1
R02  21921398.885 1 116976889.347 1  21921393.618 1  90981948.814 1
G32  21032821.171 1 110528201.812 1  21032813.868 1  86125905.018 1
G25  24295709.413 1 127674781.319 2  24295704.769 1  99486801.280 2
G10  23248477.567 1 122171481.374 1  23248471.083 1  95198583.343 1
G31  21645395.508 1 113747296.781 1  21645384.384 1  88634215.275 1
G16  22189297.874 1 116605535.109 1                                
C32  23587744.419 1 122827561.315 1
C28  26570279.923 1 138358414.368 4
R08  21322284.514 1 114179832.443 1  21322274.807 1  88806489.099 1
R12  20050835.078 1 107107914.251 1  20050828.229 1  83306222.585 1
E19  26022624.722 1 136749887.167 3  26022620.190 1 104782454.587 2
E31  23636081.920 1 124208421.805 1  23636078.357 1  95172692.234 1
G27  25608759.195 1 134574909.013 2  25608755.522 1 104863555.485 3
E01  25078543.604 1 131788648.598 1  25078539.737 1 100980886.350 1
E18  29331583.058 1 154138468.401 2  29331580.016 1 118106077.840 1
E24  26730335.458 1 140468824.103 2  26730331.196 1 107631983.172 1
E09  24629982.601 1 129431401.547 1  24629979.147 1  99174712.661 1
E04  23950445.353 1 125860431.931 1  23950439.632 1  96438495.766 1
E11                                  27560087.128 4               9
E10                                  28783058.224 1 115897362.438 3
> 2022 02 25 13 28 00.0000000  0 34                     
G03  24447135.097 1 128470583.291 2  24447130.312 1 100106895.582 2
E12  27226088.732 1 143074033.214 4  27226086.404 1 109628067.680 2
G29  24244220.829 1 127404251.544 2  24244213.276 1  99276012.106 2
G26  20158317.862 1 105932681.924 1  20158311.380 1  82544927.686 1
G22  21110756.887 1 110937763.177 1                                
C19  24320644.297 1 126643977.794 1
C37  23728340.133 1 123559680.204 1
C20  21988691.866 1 114500942.215 1
C27  25787836.437 1 134284022.226 2
C30  26841404.080 1 139770230.787 1
C36  25915669.282 1 134949692.410 1
R13  22425041.539 2 119748505.683 3  22425033.753 2  93137683.265 3
R11  21782246.345 1 116397710.246 1  21782237.177 1  90531478.596 1
R01  19279332.877 1 103059179.750 1  19279326.615 1  80157044.793 1
R02  21915267.745 1 116944172.047 1  21915262.350 1  90956502.039 1
G32  21037643.418 1 110553544.117 1  21037636.400 1  86145652.259 1
G25  24310591.199 1 127752985.465 2  24310586.281 1  99547739.533 2
G10  23263150.407 1 122248589.042 1  23263145.020 1  95258667.181 1
G31  21652777.285 1 113786090.434 1  21652766.766 1  88664444.106 1
G16  22184966.622 1 116582776.910 1                                
C32  23599397.785 1 122888239.333 1
C28  26571831.248 1 138366491.974 4
R08  21335152.954 1 114248743.148 1  21335143.673 1  88860086.281 1
R12  20057025.627 1 107140982.984 1  20057019.050 1  83331942.714 1
E19  26031540.276 1 136796739.697 3  26031536.024 1 104818354.558 2
E31  23639725.906 1 124227572.277 1  23639722.609 1  95187365.978 1
G27  25605254.750 1 134556493.009 2  25605251.415 1 104849205.322 2
E01  25089121.849 1 131844237.614 1  25089117.906 1 101023480.515 1
E18  29328253.344 1 154120973.315 2  29328250.649 1 118092672.525 1
E24  26728540.998 1 140459394.413 2  26728536.907 1 107624757.839 1
E09  24627975.726 1 129420854.292 2  24627972.186 1  99166631.003 1
E04  23952892.267 1 125873290.107 1  23952886.534 1  96448348.129 1
E11                                  27568287.465 8               9
E10                                  28790461.597 1 115927173.557 4
> 2022 02 25 13 28 15.0000000  0 34                     
G03  24443892.408 1 128453540.190 2  24443886.930 1 100093615.242 2
E12  27232244.341 1 143106381.811 4  27232242.153 1 109652854.213 2
G29  24248571.196 1 127427113.507 2  24248563.868 1  99293826.637 2
G26  20160997.814 1 105946765.785 1  20160991.586 1  82555902.125 1
G22  21112489.273 1 110946866.978 1                                
C19  24317358.953 1 126626870.714 1
C37  23738471.791 1 123612439.187 1
C20  21991991.996 1 114518127.199 1
C27  25787769.706 1 134283675.049 2
C30  26842234.229 1 139774553.654 1
C36  25915288.961 1 134947713.045 1
R13  22423550.937 2 119740548.041 3  22423543.331 2  93131494.007 3
R11  21795614.136 1 116469143.829 1  21795604.717 1  90587038.039 1
R01  19283268.057 1 103080216.211 1  19283261.863 1  80173406.482 1
R02  21909145.120 1 116911501.064 1  21909140.042 1  90931091.295 1
G32  21042483.600 1 110578978.497 1  21042476.305 1  86165471.229 1
G25  24325477.358 1 127831210.970 1  24325472.167 1  99608694.401 2
G10  23277829.560 1 122325727.472 1  23277823.800 1  95318775.004 2
G31  21660161.786 1 113824896.110 1  21660151.086 1  88694682.274 1
G16  22180653.096 1 116560109.744 1                                
C32  23611065.269 1 122948996.562 1
C28  26573389.601 1 138374606.359 4
R08  21348045.801 1 114317785.580 1  21348036.469 1  88913785.900 1
R12  20063238.488 1 107174171.186 1  20063232.125 1  83357755.733 1
E19  26040468.359 1 136843656.652 3  26040464.104 1 104854303.864 2
E31  23643387.698 1 124246813.321 1  23643384.088 1  95202109.112 1
G27  25601737.768 1 134538009.182 3  25601733.984 1 104834802.333 4
E01  25099708.407 1 131899870.170 1  25099704.475 1 101066108.053 1
E18  29324908.858 1 154103395.972 2  29324905.543 1 118079204.182 1
E24  26726757.676 1 140450024.143 1  26726753.602 1 107617578.023 1
E09  24625968.089 1 129410306.532 1  24625964.884 1  99158548.942 1
E04  23955350.792 1 125886206.923 1  23955344.467 1  96458245.416 1
E11                                  27576478.939 8               9
E10                                  28797853.008 1 115956936.041 4
> 2022 02 25 13 28 30.0000000  0 34                     
G03  24440664.847 1 128436580.249 2  24440659.683 1 100080399.736 2
E12  27238384.909 1 143138650.644 3  27238382.742 1 109677579.637 2
G29  24252941.713 1 127450080.538 2  24252934.700 1  99311723.024 2
G26  20163703.900 1 105960987.039 1  20163697.782 1  82566983.625 1
G22  21114231.761 1 110956025.574 1                                
C19  24314083.947 1 126609812.899 1
C37  23748604.563 1 123665202.068 1
C20  21995314.353 1 114535427.792 1
C27  25787696.272 1 134283292.477 2
C30  26843049.310 1 139778797.258 2
C36  25914918.842 1 134945785.506 1
R13  22422081.317 2 119732698.416 3  22422073.932 2  93125388.743 3
R11  21808982.688 1 116540583.693 1  21808974.190 1  90642602.364 1
R01  19287237.167 1 103101433.553 1  19287230.971 1  80189908.851 1
R02  21903030.775 1 116878874.714 1  21903025.765 1  90905715.272 1
G32  21047340.524 1 110604502.432 1  21047333.504 1  86185359.999 1
G25  24340366.530 1 127909454.794 2  24340361.463 1  99669663.579 2
G10  23292513.850 1 122402893.571 1  23292507.775 1  95378904.398 1
G31  21667547.883 1 113863710.985 1  21667537.314 1  88724927.635 1
G16  22176356.967 1 116537531.285 1                                
C32  23622747.203 1 123009830.149 1
C28  26574953.903 1 138382755.291 5
R08  21360962.681 1 114386956.299 1  21360953.506 1  88967585.302 1
R12  20069473.357 1 107207475.797 1  20069466.694 1  83383659.316 1
E19  26049407.982 1 136890635.577 3  26049404.095 1 104890300.693 2
E31  23647065.504 1 124266142.165 1  23647062.026 1  95216919.532 1
G27  25598207.200 1 134519455.112 3  25598203.355 1 104820344.641 3
E01  25110302.743 1 131955543.408 1  25110298.714 1 101108766.742 1
E10  28805229.562 2 151372494.44415  28805231.956 1 115986647.726 4
E18  29321547.830 1 154085733.801 2  29321544.583 1 118065670.839 1
E24  26724985.749 1 140440710.714 1  26724981.387 1 107610441.782 1
E09  24623959.747 1 129399755.749 2  24623957.127 1  99150464.598 1
E04  23957819.411 1 125899179.823 1  23957813.160 1  96468185.681 1
E11                                  27584664.557 4               9
> 2022 02 25 13 28 45.0000000  0 34                     
G03  24437453.400 1 128419704.638 2  24437447.842 1 100067249.911 2
E12  27244510.776 1 143170840.489 3  27244508.399 1 109702244.525 2
G29  24257332.238 1 127473153.671 2  24257325.194 1  99329702.122 2
G26  20166436.436 1 105975346.521 1  20166430.117 1  82578172.829 1
G22  21115985.116 1 110965239.938 1                                
C19  24310817.512 1 126592805.486 1
C37  23758738.048 1 123717969.543 1
C20  21998658.797 1 114552844.923 1
C27  25787616.635 1 134282875.645 2
C30  26843848.889 1 139782962.402 2
C36  25914558.700 1 134943910.638 1
R13  22420631.403 2 119724957.760 4  22420624.306 2  93119368.222 3
R11  21822352.993 1 116612030.359 1  21822344.641 1  90698171.980 1
R01  19291240.364 1 103122832.592 1  19291234.637 1  80206552.540 1
R02  21896924.942 1 116846293.725 1  21896919.908 1  90880374.523 1
G32  21052214.997 1 110630116.987 1  21052207.820 1  86205319.379 1
G25  24355259.466 1 127987717.461 2  24355254.335 1  99730647.390 2
G10  23307202.824 1 122480087.865 1  23307198.403 1  95439055.726 1
G31  21674936.127 1 113902535.823 1  21674925.422 1  88755180.745 1
G16  22172077.342 1 116515042.738 1                                
C32  23634444.713 1 123070740.697 1
C28  26576525.501 1 138390939.665 3
R08  21373904.209 1 114456256.261 1  21373894.855 1  89021485.228 1
R12  20075729.631 1 107240897.389 1  20075723.115 1  83409653.886 1
E19  26058359.638 1 136937677.236 3  26058355.688 1 104926345.585 2
E31  23650760.525 1 124285559.622 1  23650757.126 1  95231797.840 1
G27  25594663.442 1 134500831.847 2  25594659.815 1 104805832.987 3
E01  25120905.384 1 132011257.910 1  25120900.861 1 101151457.061 1
E10  28812603.673 2 151411205.277 5  28812598.741 1 116016309.214 4
E18  29318170.801 1 154067987.804 2  29318167.698 1 118052073.263 1
E24  26723224.750 1 140431455.107 2  26723220.186 1 107603349.826 1
E09  24621951.710 1 129389202.954 1  24621948.945 1  99142378.701 1
E04  23960299.349 1 125912209.882 1  23960292.887 1  96478169.734 1
E11                                  27592842.862 4               9
> 2022 02 25 13 29 00.0000000  0 34                     
G03  24434257.645 1 128402911.207 2  24434252.402 1 100054164.147 2
E12  27250620.689 1 143202948.783 4  27250618.599 1 109726846.929 2
G29  24261742.324 1 127496330.476 2  24261735.612 1  99347761.942 2
G26  20169195.035 1 105989841.706 1  20169188.544 1  82589467.773 1
G22  21117748.615 1 110974507.773 1                                
C19  24307560.449 1 126575846.166 1
C37  23768871.785 1 123770738.933 1
C20  22002025.767 1 114570376.208 1
C27  25787529.041 1 134282422.207 2
C30  26844633.375 1 139787046.792 3
C36  25914208.347 1 134942085.945 1
R13  22419201.248 2 119717323.671 4  22419194.489 2  93113430.602 3
R11  21835724.088 1 116683480.965 1  21835716.032 1  90753744.652 1
R01  19295277.383 1 103144411.108 1  19295271.379 1  80223335.817 1
R02  21890827.458 1 116813756.095 1  21890821.509 1  90855067.479 1
G32  21057106.155 1 110655819.821 1  21057099.077 1  86225347.545 1
G25  24370155.346 1 128065996.140 2  24370150.133 1  99791643.753 2
G10  23321897.698 1 122557307.446 1  23321892.467 1  95499226.722 2
G31  21682325.389 1 113941367.701 1  21682315.071 1  88785439.336 1
G16  22167814.705 1 116492641.888 1                                
C32  23646156.915 1 123131725.528 1
C28  26578103.652 1 138399157.443 4
R08  21386869.435 1 114525682.188 1  21386859.456 1  89075483.130 1
R12  20082007.779 1 107274432.946 1  20082001.358 1  83435737.090 1
E19  26067323.004 1 136984778.979 3  26067319.277 1 104962436.478 2
E31  23654472.004 1 124305063.096 1  23654468.486 1  95246742.055 1
G27  25591105.552 1 134482136.980 3  25591102.205 1 104791265.536 3
E01  25131514.868 1 132067010.955 1  25131510.338 1 101194176.914 1
E18  29314777.259 1 154050155.617 2  29314774.406 1 118038409.635 1
E24  26721473.503 1 140422254.937 2  26721469.609 1 107596300.344 1
E09  24619943.600 1 129378645.857 2  24619939.976 1  99134289.496 1
E04  23962789.482 1 125925294.771 1  23962782.752 1  96488195.804 1
E11                                  27601010.873 8               9
E10                                  28819951.974 1 116045918.391 4
> 2022 02 25 13 29 15.0000000  0 34                     
G03  24431078.147 1 128386202.866 2  24431072.705 1 100041144.674 2
E12  27256715.887 1 143234978.199 4  27256713.191 1 109751388.922 3
G29  24266172.933 1 127519613.869 2  24266166.168 1  99365904.838 2
G26  20171979.746 1 106004475.320 1  20171973.070 1  82600870.586 1
G22  21119523.072 1 110983832.173 1                                
C19  24304313.002 1 126558938.004 1
C37  23779006.757 1 123823512.777 1
C20  22005414.827 1 114588024.470 1
C27  25787435.538 1 134281935.252 2
C30  26845402.603 1 139791053.193 3
C36  25913867.979 1 134940314.082 2
R13  22417792.124 2 119709798.878 5  22417785.392 2  93107577.985 3
R11  21849096.369 1 116754937.829 1  21849087.977 1  90809322.177 1
R01  19299348.226 1 103166172.008 1  19299342.478 1  80240260.957 1
R02  21884738.920 1 116781265.621 1  21884733.078 1  90829797.123 1
G32  21062014.358 1 110681613.900 1  21062007.534 1  86245446.820 1
G25  24385055.110 1 128144293.266 2  24385049.700 1  99852654.420 2
G10  23336597.494 1 122634554.649 1  23336591.185 1  95559419.321 1
G31  21689716.953 1 113980209.521 1  21689706.431 1  88815705.688 1
G16  22163569.172 1 116470331.833 1                                
C32  23657882.944 1 123192787.157 1
C28  26579688.883 1 138407411.476 4
R08  21399857.952 1 114595236.600 2  21399848.577 1  89129580.973 1
R12  20088307.705 1 107308084.874 1  20088300.734 1  83461910.815 1
E19  26076298.279 1 137031943.693 2  26076294.308 1 104998575.671 2
E31  23658200.472 1 124324655.272 1  23658196.838 1  95261754.245 1
G27  25587534.825 1 134463373.606 2  25587531.380 1 104776644.725 2
E01  25142132.342 1 132122805.071 1  25142127.533 1 101236928.249 1
E18  29311368.229 1 154032240.109 2  29311365.105 1 118024682.188 1
E24  26719734.201 1 140413113.059 2  26719730.021 1 107589295.541 1
E09  24617933.841 1 129368087.311 2  24617931.049 1  99126199.201 1
E04  23965290.070 1 125938437.387 1  23965283.680 1  96498266.117 1
E11                                  27609173.915 8               9
E10                                  28827293.149 1 116075477.370 4
> 2022 02 25 13 29 30.0000000  0 34                     
G03  24427914.469 1 128369578.026 2  24427909.471 1 100028190.311 2
E12  27262795.432 1 143266926.791 3  27262793.207 1 109775868.940 2
G29  24270623.907 1 127543002.163 3  24270616.479 1  99384129.472 2
G26  20174790.440 1 106019245.428 1  20174783.858 1  82612379.762 1
G22  21121308.414 1 110993211.749 1                                
C19  24301074.910 1 126542079.332 1
C37  23789141.685 1 123876288.997 1
C20  22008826.347 1 114605787.910 1
C27  25787335.416 1 134281413.036 2
C30  26846157.166 1 139794979.861 2
C36  25913537.510 1 134938593.137 1
R13  22416402.868 2 119702381.465 4  22416395.870 2  93101808.902 3
R11  21862468.976 1 116826398.664 1  21862461.148 1  90864902.788 1
R01  19303452.969 1 103188113.419 1  19303446.797 1  80257326.483 1
R02  21878659.129 1 116748820.622 1  21878653.126 1  90804562.121 1
G32  21066939.702 1 110707497.432 1  21066932.966 1  86265615.802 1
G25  24399957.743 1 128222606.530 2  24399952.258 1  99913677.699 2
G10  23351301.606 1 122711827.196 1  23351296.160 1  95619631.622 1
G31  21697109.679 1 114019059.144 1  21697099.466 1  88845978.121 1
G16  22159341.066 1 116448110.914 1                                
C32  23669623.863 1 123253923.446 1
C28  26581280.415 1 138415700.258 5
R08  21412870.132 1 114664917.631 1  21412861.243 1  89183777.291 1
R12  20094628.691 1 107341851.036 1  20094621.607 1  83488173.391 1
E19  26085285.473 1 137079169.519 2  26085281.284 1 105034761.644 2
E31  23661945.582 1 124344334.158 1  23661941.629 1  95276832.864 1
G27  25583950.690 1 134444539.884 2  25583947.537 1 104761969.085 2
E01  25152756.984 1 132178638.114 1  25152752.329 1 101279709.399 1
E10  28834630.856 2 151527000.18815  28834620.998 1 116104984.458 4
E18  29307942.732 1 154014239.517 2  29307939.944 1 118010889.521 1
E24  26718004.643 1 140404027.630 2  26718001.099 1 107582333.996 1
E09  24615924.309 1 129357525.584 1  24615921.297 1  99118106.465 1
E04  23967801.603 1 125951635.992 1  23967795.276 1  96508379.330 1
E11                                  27617328.388 4               9
> 2022 02 25 13 29 45.0000000  0 34                     
G03  24424767.007 1 128353037.162 2  24424761.529 1 100015301.334 2
E12  27268859.175 1 143298794.681 4  27268857.712 1 109800287.178 2
G29  24275094.744 1 127566495.802 2  24275087.014 1  99402436.195 2
G26  20177627.188 1 106034152.144 1  20177620.568 1  82623995.384 1
G22  21123103.882 1 111002646.734 1                                
C19  24297847.538 1 126525270.597 1
C37  23799277.154 1 123929067.577 1
C20  22012259.619 1 114623666.794 1
C27  25787228.691 1 134280855.940 2
C30  26846895.742 1 139798827.022 2
C36  25913217.158 1 134936923.247 1
R13  22415034.107 2 119695071.576 4  22415026.741 2  93096123.466 2
R11  21875842.868 1 116897863.217 1  21875835.448 1  90920486.302 1
R01  19307591.492 1 103210235.771 1  19307585.172 1  80274532.758 1
R02  21872587.635 1 116716421.624 1  21872581.974 1  90779362.907 1
G32  21071882.382 1 110733470.808 1  21071875.335 1  86285854.773 1
G25  24414863.350 1 128300935.814 2  24414857.742 1  99974713.450 2
G10  23366011.534 1 122789124.831 1  23366005.591 1  95679863.497 2
G31  21704503.978 1 114057916.648 1  21704494.134 1  88876256.659 1
G16  22155129.318 1 116425979.558 1                                
C32  23681378.635 1 123315134.355 1
C28  26582878.674 2 138424024.025 6
R08  21425906.782 1 114734724.921 1  21425896.467 1  89238071.812 1
R12  20100970.827 1 107375731.026 1  20100964.647 1  83514524.503 1
E19  26094283.944 1 137126456.471 3  26094279.664 1 105070994.492 2
E31  23665706.660 1 124364099.819 1  23665702.776 1  95291977.986 1
G27  25580353.383 1 134425636.223 2  25580350.598 1 104747238.973 3
E01  25163389.243 1 132234509.994 1  25163384.467 1 101322520.310 1
E10  28841941.408 2 151565441.990 5  28841936.550 1 116134439.790 3
E18  29304501.259 1 153996154.097 2  29304498.314 1 117997031.880 1
E24  26716287.171 1 140394998.970 2  26716282.939 1 107575415.926 1
E09  24613914.027 1 129346961.033 1  24613910.987 1  99110011.560 1
E04  23970323.812 1 125964890.929 1  23970317.507 1  96518535.702 1
E11                                  27625474.230 4 111236338.62818
> 2022 02 25 13 30 00.0000000  0 34                     
G03  24421635.429 1 128336581.192 2  24421629.499 1 100002478.474 3
E12  27274908.253 1 143330582.380 3  27274906.357 1 109824643.941 2
G29  24279585.535 1 127590095.472 3  24279578.204 1  99420825.526 2
G26  20180490.076 1 106049196.094 1  20180483.577 1  82635717.933 1
G22  21124910.157 1 111012137.845 1                                
C19  24294629.621 1 126508512.690 1
C37  23809413.198 1 123981848.943 1
C20  22015715.478 1 114641661.811 1
C27  25787115.355 1 134280264.830 2
C30  26847619.130 1 139802595.293 2
C36  25912906.616 1 134935304.990 1
R13  22413685.315 2 119687870.003 4  22413678.935 2  93090522.210 3
R11  21889217.278 1 116969331.699 1  21889209.341 1  90976072.886 1
R01  19311763.874 1 103232539.908 1  19311757.700 1  80291880.398 1
R02  21866524.156 1 116684070.267 1  21866519.406 1  90754200.794 1
G32  21076842.366 1 110759534.823 1  21076835.187 1  86306164.376 1
G25  24429772.023 1 128379281.419 2  24429766.750 1 100035761.928 2
G10  23380725.194 1 122866447.838 1  23380719.364 1  95740115.137 2
G31  21711899.942 1 114096782.347 1  21711890.246 1  88906541.611 1
G16  22150935.081 1 116403938.624 1                                
C32  23693147.763 1 123376420.255 1
C28  26584483.871 1 138432383.860 4
R08  21438966.702 1 114804658.557 1  21438956.208 1  89292464.619 1
R12  20107334.596 1 107409725.471 1  20107328.467 1  83540964.598 1
E19  26103293.915 1 137173805.115 3  26103289.541 1 105107274.579 2
E31  23669484.579 1 124383952.802 1  23669480.626 1  95307190.011 1
G27  25576743.105 1 134406663.534 3  25576739.917 1 104732455.065 2
E01  25174028.623 1 132290421.130 1  25174024.034 1 101365361.306 1
E10  28849245.228 2 151603792.64016  28849238.552 1 116163843.709 5
E18  29301043.686 1 153977984.653 2  29301040.789 1 117983109.844 1
E24  26714579.727 1 140386027.773 2  26714575.765 1 107568541.908 1
E09  24611903.200 1 129336394.363 2  24611899.965 1  99101915.050 1
E04  23972856.685 1 125978202.984 1  23972850.699 1  96528735.842 1
E11                                  27633612.652 4 111269109.232 6
> 2022 02 25 13 30 15.0000000  0 34                     
G03  24418519.624 1 128320209.666 2  24418514.129 1  99989721.505 2
E12  27280942.199 1 143362289.232 3  27280939.767 1 109848938.733 3
G29  24284096.660 1 127613800.660 2  24284089.316 1  99439297.115 2
G26  20183378.722 1 106064376.553 1  20183372.032 1  82647546.864 1
G22  21126726.751 1 111021684.715 1                                
C19  24291421.198 1 126491805.199 1
C37  23819549.511 1 124034632.242 1
C20  22019193.407 1 114659772.401 1
C27  25786994.785 1 134279639.269 2
C30  26848327.838 1 139806284.091 2
C36  25912605.647 1 134933737.670 1
R13  22412356.889 2 119680775.789 4  22412350.794 2  93085004.555 2
R11  21902592.556 1 117040803.105 1  21902584.495 1  91031661.722 1
R01  19315970.183 1 103255025.353 1  19315964.181 1  80309369.063 1
R02  21860469.412 1 116651765.432 1  21860464.921 1  90729074.822 1
G32  21081819.313 1 110785688.962 1  21081812.085 1  86326544.209 1
G25  24444683.311 1 128457642.303 2  24444678.250 1 100096822.321 2
G10  23395443.939 1 122943795.125 2  23395438.201 1  95800385.712 1
G31  21719297.397 1 114135655.466 1  21719287.725 1  88936832.337 1
G16  22146758.156 1 116381987.880 1                                
C32  23704931.063 1 123437780.272 1
C28  26586096.513 1 138440779.167 4
R08  21452049.868 1 114874717.729 1  21452039.340 1  89346955.067 1
R12  20113719.800 1 107443833.136 1  20113713.502 1  83567492.789 1
E19  26112315.760 1 137221214.755 3  26112311.285 1 105143601.424 2
E31  23673278.667 1 124403892.366 1  23673275.072 1  95322468.376 1
G27  25573119.323 1 134387621.277 2  25573115.878 1 104717616.950 2
E01  25184675.027 1 132346370.606 1  25184670.827 1 101408231.666 1
E10  28856535.362 2 151642099.351 5  28856527.450 1 116193195.519 4
E18  29297569.952 1 153959730.618 1  29297567.182 1 117969123.005 1
E24  26712883.214 1 140377113.518 2  26712879.398 1 107561711.503 1
E09  24609892.296 1 129325825.176 1  24609888.484 1  99093816.577 1
E04  23975400.610 1 125991571.638 1  23975394.850 1  96538979.350 1
E11                                  27641744.111 1 111301847.748 7
> 2022 02 25 13 30 30.0000000  0 34                     
G03  24415420.677 1 128303924.969 2  24415415.556 1  99977032.159 2
E12  27286960.814 1 143393917.255 3  27286958.476 1 109873173.177 3
G29  24288627.690 1 127637613.611 2  24288620.778 1  99457852.624 2
G26  20186293.654 1 106079695.608 1  20186287.244 1  82659483.789 1
G22  21128554.176 1 111031289.786 1                                
C19  24288222.940 1 126475150.482 1
C37  23829686.790 1 124087419.375 1
C20  22022693.646 1 114678000.734 1
C27  25786868.483 1 134278981.609 2
C30  26849021.175 1 139809895.545 3
C36  25912315.188 1 134932223.317 1
R13  22411048.694 2 119673791.300 4  22411043.484 2  93079572.170 2
R11  21915968.541 1 117112279.154 1  21915960.190 1  91087254.190 1
R01  19320210.846 1 103277694.279 1  19320204.696 1  80327000.446 1
R02  21854424.795 1 116619510.475 1  21854420.481 1  90703987.660 1
G32  21086813.623 1 110811935.499 1  21086806.485 1  86346996.041 1
G25  24459598.126 1 128536020.241 3  24459593.442 1 100157895.957 2
G10  23410168.158 1 123021168.392 1  23410162.301 1  95860676.522 2
G31  21726696.718 1 114174538.015 1  21726686.863 1  88967130.417 1
G16  22142598.733 1 116360129.654 1                                
C32  23716729.213 1 123499216.252 1
C28  26587716.555 1 138449212.473 4
R08  21465156.872 1 114944904.484 1  21465146.835 1  89401544.746 1
R12  20120126.133 1 107478055.805 1  20120119.814 1  83594110.420 1
E19  26121349.775 1 137268687.574 3  26121345.114 1 105179976.679 2
E31  23677089.679 1 124423920.528 1  23677086.326 1  95337814.631 1
G27  25569483.065 1 134368511.741 3  25569479.389 1 104702726.390 2
E01  25195329.059 1 132402360.282 1  25195325.238 1 101451132.832 1
E10  28863811.028 2 151680340.067 5  28863804.921 1 116222496.791 4
E18  29294080.883 1 153941394.262 2  29294078.067 1 117955073.071 1
E24  26711198.343 1 140368258.343 1  26711194.241 1 107554926.382 1
E09  24607880.963 1 129315255.666 1  24607877.535 1  99085717.867 1
E04  23977955.135 1 126004999.168 1  23977950.011 1  96549267.977 1
E11                                  27649866.412 8               9
> 2022 02 25 13 30 45.0000000  0 34                     
G03  24412338.570 1 128287725.926 2  24412333.189 1  99964409.508 2
E12  27292964.482 1 143425464.873 4  27292961.841 1 109897345.961 3
G29  24293179.313 1 127661532.955 3  24293172.330 1  99476491.090 2
G26  20189234.954 1 106095151.724 1  20189228.460 1  82671527.501 1
G22  21130393.201 1 111040951.822 1                                
C19  24285034.521 1 126458547.296 1
C37  23839824.716 1 124140208.677 1
C20  22026216.776 1 114696345.401 1
C27  25786736.049 1 134278290.613 2
C30  26849699.766 1 139813428.371 3
C36  25912034.315 1 134930760.443 1
R13  22409761.113 2 119666915.423 4  22409755.796 2  93074224.255 3
R11  21929345.016 1 117183758.038 1  21929336.637 1  91142848.853 1
R01  19324485.485 1 103300545.376 1  19324479.375 1  80344773.512 1
R02  21848389.739 1 116587304.013 1  21848385.131 1  90678938.245 1
G32  21091825.434 1 110838273.131 1  21091818.408 1  86367518.876 1
G25  24474516.041 1 128614413.397 2  24474510.967 1 100218981.503 3
G10  23424895.756 1 123098565.827 1  23424890.223 1  95920986.133 1
G31  21734096.866 1 114213428.353 1  21734087.334 1  88997434.560 1
G16  22138456.486 1 116338362.746 1                                
C32  23728542.010 1 123560726.522 1
C28  26589342.880 1 138457682.393 3
R08  21478287.208 1 115015216.712 1  21478277.048 1  89456232.007 1
R12  20126554.446 1 107512391.538 1  20126547.251 1  83620815.983 1
E19  26130394.970 1 137316221.936 3  26130390.775 1 105216399.072 2
E31  23680917.328 1 124444035.690 1  23680914.151 1  95353227.546 1
G27  25565833.820 1 134349333.659 3  25565830.171 1 104687782.423 2
E01  25205990.957 1 132458388.434 1  25205986.950 1 101494063.481 1
E10  28871069.166 2 151718513.261 6  28871069.637 1 116251746.294 4
E18  29290575.340 1 153922974.149 2  29290572.583 1 117940958.973 1
E24  26709524.357 1 140359460.895 2  26709520.168 1 107548185.500 1
E09  24605868.925 1 129304684.478 2  24605865.525 1  99077617.895 1
E04  23980521.159 1 126018484.243 1  23980516.192 1  96559600.698 1
E11                                  27657982.439 4               9
> 2022 02 25 13 31 00.0000000  0 34                     
G03  24409272.166 1 128271611.399 2  24409266.549 1  99951852.770 2
E12  27298952.295 1 143456930.686 3  27298949.405 1 109921456.117 3
G29  24297751.134 1 127685557.566 3  24297743.897 1  99495211.560 2
G26  20192201.842 1 106110743.480 1  20192195.393 1  82683676.932 1
G22  21132242.370 1 111050669.669 1                                
C19  24281855.821 1 126441994.569 1
C37  23849963.012 1 124192998.578 1
C20  22029761.630 1 114714805.142 1
C27  25786596.326 1 134277565.025 2
C30  26850362.913 1 139816881.212 3
C36  25911762.360 1 134929347.625 1
R13  22408493.177 2 119660146.139 4  22408488.266 2  93068959.275 3
R11  21942721.249 1 117255237.937 1  21942712.910 1  91198444.294 1
R01  19328794.163 1 103323577.417 1  19328787.951 1  80362687.303 1
R02  21842363.732 1 116555145.692 1  21842358.700 1  90653926.240 1
G32  21096854.411 1 110864700.649 1  21096847.727 1  86388111.728 1
G25  24489436.390 1 128692820.060 2  24489431.555 1 100280077.562 3
G10  23439628.440 1 123175985.622 1  23439622.685 1  95981313.209 1
G31  21741498.815 1 114252325.027 1  21741489.306 1  89027743.649 1
G16  22134331.517 1 116316685.983 1                                
C32  23740367.488 1 123622309.474 1
C28  26590976.097 1 138466187.904 4
R08  21491440.750 1 115085652.578 1  21491430.568 1  89511015.425 1
R12  20133003.236 1 107546838.555 1  20132995.972 1  83647608.127 1
E19  26139451.888 1 137363816.666 2  26139447.662 1 105252867.734 2
E31  23684761.556 1 124464236.425 1  23684758.184 1  95368706.029 1
G27  25562171.064 1 134330085.900 3  25562167.200 1 104672784.155 3
E01  25216659.899 1 132514453.447 1  25216655.638 1 101537022.378 1
E10  28878323.859 2 151756617.247 5  28878320.923 1 116280942.870 3
E18  29287054.689 1 153904469.128 2  29287051.260 1 117926779.797 1
E24  26707860.982 1 140350719.906 2  26707856.813 1 107541487.860 1
E09  24603857.075 1 129294110.456 1  24603853.027 1  99069515.731 1
E04  23983097.949 1 126032025.649 1  23983093.013 1  96569976.593 1
E11                                  27666088.471 8               9
> 2022 02 25 13 31 15.0000000  0 34                     
G03  24406222.662 1 128255585.037 2  24406217.478 1  99939364.730 2
E12  27304925.011 1 143488317.926 4  27304922.117 1 109945506.065 3
G29  24302343.404 1 127709690.819 3  24302336.655 1  99514016.682 2
G26  20195195.264 1 106126474.168 1  20195189.007 1  82695934.622 1
G22  21134102.753 1 111060446.670 1                                
C19  24278687.059 1 126425495.895 1
C37  23860101.586 1 124245792.244 1
C20  22033329.415 1 114733383.355 1
C27  25786451.138 1 134276808.531 2
C30  26851011.173 1 139820257.501 2
C36  25911501.209 1 134927988.163 1
R13  22407246.407 2 119653487.169 4  22407241.835 2  93063780.096 2
R11  21956098.411 1 117326721.774 1  21956090.218 1  91254042.835 1
R01  19333137.602 1 103346793.894 1  19333131.347 1  80380744.554 1
R02  21836346.782 1 116523038.771 1  21836341.376 1  90628954.204 1
G32  21101901.452 1 110891221.578 1  21101894.466 1  86408777.370 1
G25  24504359.676 1 128771243.266 2  24504354.696 1 100341186.477 3
G10  23454365.644 1 123253430.721 2  23454360.534 1  96041659.971 1
G31  21748901.992 1 114291231.179 1  21748892.867 1  89058060.119 1
G16  22130224.571 1 116295103.168 2                                
C32  23752208.016 1 123683968.207 1
C28  26592617.134 1 138474732.506 5
R08  21504617.730 1 115156215.210 1  21504607.858 1  89565897.458 1
R12  20139472.807 1 107581399.980 1  20139466.217 1  83674489.223 1
E19  26148520.259 1 137411474.777 3  26148516.916 1 105289384.974 2
E31  23688622.754 1 124484525.956 1  23688619.155 1  95384252.554 1
G27  25558495.847 1 134310771.967 3  25558491.737 1 104657734.376 3
E01  25227336.371 1 132570558.460 1  25227332.045 1 101580011.916 1
E10  28885552.530 4 151794655.440 6  28885559.737 1 116310088.915 3
E18  29283518.218 1 153885882.621 2  29283514.225 1 117912538.191 1
E24  26706209.117 1 140342038.790 1  26706204.767 1 107534836.124 1
E09  24601844.526 1 129283537.073 1  24601841.080 1  99061414.051 1
E04  23985686.392 1 126045626.915 1  23985681.219 1  96580398.335 1
E11                                  27674187.317 4 111432485.40518
> 2022 02 25 13 31 30.0000000  0 34                     
G03  24403189.724 1 128239647.294 2  24403184.812 1  99926945.727 2
E12  27310882.391 1 143519626.792 4  27310880.470 1 109969495.946 3
G29  24306956.715 1 127733933.118 2  24306949.714 1  99532906.767 2
G26  20198215.160 1 106142344.015 1  20198208.845 1  82708300.725 1
G22  21135974.507 1 111070283.766 1                                
C19  24275528.204 1 126409051.709 1
C37  23870240.583 1 124298589.708 1
C20  22036920.231 1 114752080.336 1
C27  25786299.944 1 134276021.542 2
C30  26851645.109 1 139823557.510 2
C36  25911250.687 1 134926682.233 2
R13  22406020.090 2 119646938.836 4  22406015.111 2  93058686.961 2
R11  21969476.208 1 117398209.539 1  21969468.312 1  91309644.404 1
R01  19337514.908 1 103370195.402 1  19337508.785 1  80398945.720 1
R02  21830339.722 1 116490984.405 1  21830334.352 1  90604023.036 1
G32  21106966.183 1 110917836.327 1  21106959.198 1  86429516.116 1
G25  24519286.293 1 128849682.897 2  24519281.499 1 100402308.196 3
G10  23469107.497 1 123330901.041 1  23469102.561 1  96102026.366 2
G31  21756307.085 1 114330146.906 1  21756297.949 1  89088384.047 1
G16  22126135.605 1 116273614.868 1                                
C32  23764063.649 1 123745702.694 1
C28  26594265.857 2 138483316.798 5
R08  21517818.718 1 115226904.727 1  21517808.304 1  89620878.155 1
R12  20145964.521 1 107616075.643 1  20145957.496 1  83701459.195 1
E19  26157601.104 1 137459196.651 3  26157598.287 1 105325951.047 2
E31  23692500.602 1 124504904.469 1  23692496.953 1  95399867.257 1
G27  25554808.155 1 134291392.405 2  25554804.293 1 104642633.382 3
E01  25238020.126 1 132626703.424 1  25238016.169 1 101623032.074 1
E10  28892789.895 4 151832627.714 5  28892785.324 1 116339184.579 4
E18  29279965.628 1 153867215.016 2  29279962.069 1 117898234.432 1
E24  26704568.656 1 140333417.934 1  26704564.065 1 107528230.537 1
E09  24599832.968 1 129272964.758 1  24599829.266 1  99053313.188 1
E04  23988286.335 1 126059288.409 1  23988280.870 1  96590866.226 1
E11                                  27682279.923 4 111465066.784 8
> 2022 02 25 13 31 45.0000000  0 34                     
G03  24400173.264 1 128223795.843 2  24400167.869 1  99914593.980 2
E12  27316825.350 1 143550854.654 3  27316822.747 1 109993423.726 3
G29  24311590.174 1 127758281.870 2  24311583.634 1  99551879.797 2
G26  20201261.140 1 106158350.304 1  20201254.623 1  82720773.168 1
G22  21137857.215 1 111080178.493 1                                
C19  24272380.744 1 126392659.690 1
C37  23880380.225 1 124351388.171 1
C20  22040533.056 1 114770893.560 1
C27  25786142.289 1 134275201.678 2
C30  26852263.883 1 139826778.674 2
C36  25911009.198 1 134925427.192 2
R13  22404814.018 2 119640498.363 4  22404809.163 2  93053677.717 2
R11  21982854.181 1 117469698.162 1  21982846.551 1  91365246.645 1
R01  19341926.384 1 103393779.178 1  19341920.497 1  80417288.655 1
R02  21824342.013 1 116458980.495 1  21824336.749 1  90579131.132 1
G32  21112048.058 1 110944542.382 1  21112041.244 1  86450326.017 1
G25  24534215.090 1 128928135.990 2  24534210.570 1 100463440.468 3
G10  23483854.607 1 123408393.446 1  23483849.128 1  96162410.016 1
G31  21763714.187 1 114369069.408 1  21763704.792 1  89118713.246 1
G16  22122063.914 1 116252218.452 1                                
C32  23775933.593 1 123807510.104 1
C28  26595921.308 1 138491938.385 4
R08  21531042.091 1 115297717.871 1  21531032.088 1  89675955.009 1
R12  20152476.817 1 107650862.538 1  20152469.740 1  83728515.662 1
E19  26166694.745 1 137506979.704 3  26166691.109 1 105362564.008 2
E31  23696394.990 1 124525369.200 1  23696391.349 1  95415548.022 1
G27  25551107.331 1 134271944.649 2  25551103.315 1 104627479.262 2
E01  25248711.595 1 132682885.499 1  25248707.559 1 101666080.670 1
E10  28899990.768 4 151870531.518 7  28899997.988 1 116368227.620 4
E18  29276397.443 1 153848463.787 1  29276393.671 1 117883866.614 1
E24  26702938.576 1 140324854.750 1  26702934.472 1 107521669.160 1
E09  24597821.053 1 129262390.980 1  24597817.144 1  99045211.234 1
E04  23990897.040 1 126073007.686 1  23990891.477 1  96601378.391 1
E11                                  27690363.005 4 111497615.337 8
> 2022 02 25 13 32 00.0000000  0 34                     
G03  24097380.825 1 126632611.651 2  24097375.446 1  98674710.210 2
E12  27022960.551 1 142006585.250 4  27022958.459 1 108810152.325 2
G29  24016452.106 1 126207320.754 2  24016445.372 1  98343338.686 2
G26  19904541.175 1 104599075.864 1  19904534.610 1  81505754.119 1
G22  20839958.799 1 109514713.591 1                                
C19  23969450.676 1 124815222.809 1
C37  23590728.290 1 122843094.744 1
C20  21744376.686 1 113228728.133 1
C27  25486186.506 1 132713252.835 2
C30  26553075.450 1 138268825.083 2
C36  25610985.538 1 133363126.674 2
R13  22103835.846 2 118033292.121 4  22103831.689 2  91803628.416 2
R11  21696440.941 1 115939193.800 1  21696433.643 1  90174854.328 1
R01  19046580.884 1 101814986.288 1  19046574.467 1  79189338.607 1
R02  21518561.759 1 114827276.817 1  21518556.561 1  89310028.286 1
G32  20817355.632 1 109395923.520 1  20817348.869 1  85243610.012 1
G25  24249355.936 1 127431189.189 3  24249350.866 1  99296988.364 3
G10  23198813.994 1 121910494.549 1  23198808.120 1  94995216.026 2
G31  21471330.649 1 112832582.837 1  21471321.088 1  87921450.973 1
G16  21818217.430 1 114655494.920 1                                
C32  23488025.556 1 122308298.120 1
C28  26297792.887 1 136939501.742 4
R08  21244497.551 1 113763286.167 1  21244487.925 1  88482508.088 1
R12  19859217.853 1 106084326.996 1  19859210.864 1  82510099.113 1
E19  25876007.385 1 135979408.797 3  25876004.059 1 104192087.558 2
E31  23400513.691 1 122970503.230 1  23400510.326 1  94224157.212 1
G27  25247601.152 1 132677009.353 2  25247596.983 1 103384672.542 3
E01  24959618.728 1 131163689.969 1  24959614.277 1 100502021.738 1
E10  28607404.014 2 150332950.853 5  28607406.212 1 115190081.384 3
E18  28973021.146 1 152254209.587 1  28973017.055 1 116662295.222 1
E24  26401527.750 1 138740930.561 1  26401523.874 1 106308012.975 1
E09  24296016.338 1 127676397.025 1  24296012.434 1  97829969.123 1
E04  23693727.020 1 124511367.572 1  23693721.207 1  95404796.996 1
E11                                  27398646.551 8               9
> 2022 02 25 13 32 15.0000000  0 34                     
G03  24094397.742 1 126616936.949 2  24094392.488 1  98662496.197 2
E12  27028872.302 1 142037654.241 4  27028870.313 1 108833958.349 3
G29  24021127.038 1 126231886.520 2  24021119.807 1  98362480.808 2
G26  19907639.410 1 104615358.333 1  19907632.886 1  81518441.756 1
G22  20841864.498 1 109524727.581 1                                
C19  23966324.020 1 124798939.313 1
C37  23600868.072 1 122895898.055 1
C20  21748034.470 1 113247777.465 1
C27  25486017.231 1 132712371.283 2
C30  26553664.251 1 138271892.251 2
C36  25610764.891 1 133361976.644 2
R13  22102670.603 2 118027070.901 4  22102666.707 2  91798789.710 2
R11  21709820.068 1 116010686.375 1  21709812.333 1  90230459.637 1
R01  19051061.777 1 101838938.681 1  19051054.961 1  79207968.229 1
R02  21512584.065 1 114795377.884 1  21512579.132 1  89285218.012 1
G32  20822473.285 1 109422816.175 1  20822466.091 1  85264565.321 1
G25  24264290.589 1 127509671.621 2  24264285.591 1  99358143.474 3
G10  23213569.285 1 121988033.506 1  23213564.057 1  95055635.891 1
G31  21478740.717 1 112871521.690 1  21478730.785 1  87951792.929 1
G16  21814181.636 1 114634287.145 1                                
C32  23499923.770 1 122370254.086 1
C28  26299463.775 1 136948201.945 3
R08  21257767.702 1 113834349.324 1  21257758.742 1  88537779.413 1
R12  19865772.310 1 106119338.662 1  19865765.423 1  82537330.408 1
E19  25885123.622 1 136027317.333 3  25885120.800 1 104228796.663 2
E31  23404441.537 1 122991143.555 1  23404437.905 1  94239972.526 1
G27  25243875.134 1 132657429.222 2  25243871.395 1 103369415.282 2
E01  24970324.490 1 131219948.929 1  24970320.248 1 100545129.262 1
E10  28614591.627 2 150370720.470 7  28614593.416 1 115219021.689 4
E18  28969421.702 1 152235294.922 1  28969417.638 1 116647802.164 1
E24  26399920.710 1 138732486.432 2  26399916.867 1 106301542.819 1
E09  24294004.372 1 127665824.291 2  24294000.494 1  97821867.935 1
E04  23696360.691 1 124525206.273 1  23696354.760 1  95415400.668 1
E11                                  27406714.789 8               9
> 2022 02 25 13 32 30.0000000  0 34                     
G03  24091432.291 1 126601353.953 2  24091426.807 1  98650353.617 2
E12  27034769.487 1 142068646.515 4  27034768.309 1 108857705.696 3
G29  24025822.992 1 126256563.953 2  24025815.627 1  98381709.974 2
G26  19910764.954 1 104631781.757 1  19910758.273 1  81531239.223 1
G22  20843782.141 1 109534804.499 1                                
C19  23963208.011 1 124782713.352 1
C37  23611009.115 1 122948706.386 1
C20  21751716.153 1 113266947.857 1
C27  25485842.525 1 132711462.081 2
C30  26554238.940 1 138274885.414 2
C36  25610554.563 1 133360881.968 2
R13  22101526.735 2 118020962.304 4  22101522.267 2  91794038.612 2
R11  21723199.410 1 116082183.132 1  21723192.159 1  90286068.185 1
R01  19055577.571 1 101863078.611 1  19055571.233 1  79226743.713 1
R02  21506616.195 1 114763535.668 1  21506611.903 1  89260451.879 1
G32  20827609.018 1 109449805.268 1  20827601.945 1  85285595.768 1
G25  24279228.813 1 127588171.102 2  24279224.068 1  99419311.851 4
G10  23228329.645 1 122065598.018 1  23228323.695 1  95116075.742 2
G31  21486152.586 1 112910471.551 1  21486142.534 1  87982143.449 1
G16  21810164.675 1 114613177.012 1                                
C32  23511836.773 1 122432286.850 1
C28  26301142.582 1 136956944.817 4
R08  21271062.442 1 113905539.588 1  21271052.738 1  88593149.572 1
R12  19872347.881 1 106154465.145 1  19872341.385 1  82564651.003 1
E19  25894253.080 1 136075291.418 3  25894249.991 1 104265555.994 2
E31  23408386.612 1 123011874.459 1  23408382.942 1  94255857.238 1
G27  25240137.188 1 132637786.118 2  25240133.777 1 103354108.945 3
E01  24981037.764 1 131276248.930 1  24981033.846 1 100588268.198 1
E10  28621768.204 2 150408425.708 6  28621768.933 1 115247912.692 3
E18  28965807.453 1 152216301.674 1  28965803.357 1 116633248.898 1
E24  26398325.936 1 138724104.954 2  26398321.893 1 106295120.655 1
E09  24291992.478 1 127655255.201 2  24291989.751 1  97813769.572 1
E04  23699006.132 1 124539107.864 1  23699000.185 1  95426052.528 1
E11                                  27414774.039 8               9
> 2022 02 25 13 32 45.0000000  0 34                     
G03  24088484.359 1 126585860.099 2  24088478.832 1  98638280.502 2
E12  27040652.521 1 142099559.369 4  27040650.947 1 108881392.118 2
G29  24030539.700 1 126281350.370 2  24030531.865 1  98401024.070 2
G26  19913916.564 1 104648343.201 1  19913909.679 1  81544144.243 1
G22  20845711.159 1 109544941.800 1                                
C19  23960102.563 1 124766542.360 1
C37  23621150.911 1 123001516.742 1
C20  21755420.327 1 113286236.542 1
C27  25485662.973 1 132710522.731 2
C30  26554798.611 1 138277801.830 2
C36  25610354.584 1 133359839.741 2
R13  22100403.247 2 118014963.365 4  22100398.856 2  91789372.772 2
R11  21736579.548 1 116153681.089 1  21736571.877 1  90341677.667 1
R01  19060128.009 1 101887403.212 1  19060121.759 1  79245662.838 1
R02  21500659.277 1 114731747.241 1  21500654.474 1  89235727.577 1
G32  20832762.759 1 109476888.155 1  20832755.674 1  85306699.293 1
G25  24294169.741 1 127666684.453 3  24294164.567 1  99480491.021 3
G10  23243093.733 1 122143184.937 1  23243087.453 1  95176533.015 2
G31  21493565.870 1 112949429.327 1  21493556.085 1  88012500.141 1
G16  21806165.354 1 114592161.850 1                                
C32  23523763.721 1 122494393.376 1
C28  26302828.637 1 136965727.684 3
R08  21284379.802 1 113976854.251 1  21284369.981 1  88648616.495 1
R12  19878944.192 1 106189703.269 1  19878938.007 1  82592058.429 1
E19  25903394.603 1 136123328.373 3  25903391.008 1 104302363.508 2
E31  23412348.834 1 123032693.021 1  23412344.659 1  94271809.112 1
G27  25236386.567 1 132618077.482 2  25236383.327 1 103338751.531 3
E01  24991758.492 1 131332586.849 1  24991754.597 1 100631436.196 1
E10  28628926.602 2 150446063.660 6  28628931.084 1 115276752.105 4
E18  28962177.863 1 152197227.095 1  28962173.427 1 116618633.320 1
E24  26396741.907 1 138715783.286 2  26396738.348 1 106288744.321 1
E09  24289982.358 1 127644687.130 1  24289978.964 1  97805671.966 1
E04  23701662.692 1 124553069.615 1  23701657.040 1  95436750.488 1
E11                                  27422825.676 8               9
> 2022 02 25 13 33 00.0000000  0 34                     
G03  24085551.962 1 126570451.784 2  24085546.827 1  98626274.050 2
E12  27046519.169 1 142130388.741 4  27046517.669 1 108905014.588 3
G29  24035276.049 1 126306242.068 2  24035268.294 1  98420420.189 2
G26  19917093.554 1 104665038.800 1  19917086.845 1  81557153.795 1
G22  20847651.194 1 109555135.918 1                                
C19  23957007.042 1 124750422.859 1
C37  23631292.243 1 123054325.154 1
C20  21759146.910 1 113305639.806 1
C27  25485476.082 1 132709549.629 2
C30  26555343.221 1 138280637.735 2
C36  25610163.587 1 133358846.164 2
R13  22099299.958 2 118009070.238 4  22099294.859 2  91784789.253 3
R11  21749958.998 1 116225175.851 1  21749950.784 1  90397284.679 1
R01  19064712.070 1 101911908.522 1  19064705.663 1  79264722.513 1
R02  21494712.400 1 114700009.529 1  21494706.744 1  89211042.711 1
G32  20837933.751 1 109504061.168 1  20837926.333 1  85327873.045 1
G25  24309112.139 1 127745207.559 3  24309107.120 1  99541677.800 3
G10  23257861.320 1 122220789.990 1  23257855.690 1  95237004.449 1
G31  21500979.909 1 112988391.111 1  21500970.476 1  88042859.948 1
G16  21802183.747 1 114571238.234 1                                
C32  23535703.597 1 122556569.632 1
C28  26304522.821 1 136974547.012 3
R08  21297719.881 1 114048288.662 1  21297710.216 1  88704176.563 1
R12  19885561.183 1 106225048.698 1  19885554.771 1  82619549.327 1
E19  25912546.800 1 136171423.992 2  25912543.226 1 104339215.975 2
E31  23416326.299 1 123053595.264 1  23416322.236 1  94287825.127 1
G27  25232623.058 1 132598299.686 3  25232619.714 1 103323340.293 3
E01  25002485.979 1 131388958.642 1  25002481.799 1 100674630.145 1
E10  28636077.824 2 150483630.273 6  28636079.725 1 115305536.855 4
E18  28958530.889 1 152178067.531 1  28958527.310 1 116603952.627 1
E24  26395169.070 1 138707517.742 2  26395165.360 1 106282410.994 1
E09  24287970.084 1 127634116.347 1  24287967.304 1  97797572.315 1
E04  23704330.299 1 124567087.897 1  23704324.600 1  95447491.766 1
E11                                  27430869.651 8               9
> 2022 02 25 13 33 15.0000000  0 34                     
G03  24082637.300 1 126555135.110 2  24082632.198 1  98614338.993 2
E12  27052371.309 1 142161140.482 4  27052369.431 1 108928577.565 3
G29  24040034.372 1 126331244.808 2  24040025.986 1  98439902.802 2
G26  19920297.169 1 104681874.273 1  19920290.546 1  81570272.348 1
G22  20849603.061 1 109565392.852 1                                
C19  23953922.502 1 124734360.734 1
C37  23641434.785 1 123107137.130 1
C20  21762896.118 1 113325163.465 1
C27  25485283.762 1 132708548.734 2
C30  26555873.650 1 138283398.977 2
C36  25609983.320 1 133357906.857 2
R13  22098216.726 2 118003288.893 4  22098212.331 2  91780292.646 3
R11  21763338.313 1 116296672.983 1  21763330.491 1  90452893.548 1
R01  19069331.443 1 101936601.091 1  19069325.031 1  79283927.829 1
R02  21488775.383 1 114668328.515 1  21488769.142 1  89186401.918 1
G32  20843122.976 1 109531330.203 1  20843115.724 1  85349121.628 1
G25  24324057.285 1 127823745.807 3  24324052.543 1  99602876.421 3
G10  23272633.615 1 122298418.537 1  23272627.889 1  95297494.172 1
G31  21508396.291 1 113027362.570 1  21508386.392 1  88073227.306 1
G16  21798220.802 1 114550412.029 1                                
C32  23547658.619 1 122618821.083 1
C28  26306224.146 1 136983408.796 3
R08  21311083.235 1 114119848.881 1  21311073.663 1  88759834.462 1
R12  19892199.108 1 106260506.829 1  19892192.735 1  82647127.866 1
E19  25921711.677 1 136219584.392 3  25921707.960 1 104376118.042 2
E31  23420320.489 1 123074586.900 1  23420316.891 1  94303909.626 1
G27  25228847.805 1 132578458.710 4  25228844.217 1 103307879.769 2
E01  25013220.715 1 131445369.815 1  25013216.501 1 100717854.271 1
E10  28643212.934 4 150521131.311 6  28643216.144 1 115334271.320 3
E18  28954870.347 1 152158828.867 1  28954866.370 1 116589211.314 1
E24  26393608.092 1 138699314.169 1  26393604.313 1 106276125.144 1
E09  24285959.234 1 127623548.849 1  24285956.283 1  97789475.141 1
E04  23707010.017 1 124581168.632 1  23707004.058 1  95458280.889 1
E11                                  27438906.658 8               9
> 2022 02 25 13 33 30.0000000  0 34                     
G03  24079739.100 1 126539906.228 2  24079734.122 1  98602472.331 2
E12  27058207.286 1 142191810.382 4  27058205.674 1 108952077.891 3
G29  24044812.347 1 126356354.739 2  24044804.662 1  98459468.996 2
G26  19923526.753 1 104698845.512 1  19923520.183 1  81583496.683 1
G22  20851566.070 1 109575708.834 1                                
C19  23950847.939 1 124718352.308 1
C37  23651576.669 1 123159948.500 1
C20  21766667.591 1 113344803.547 1
C27  25485085.862 1 132707516.300 2
C30  26556389.074 1 138286081.633 2
C36  25609812.610 1 133357017.848 2
R13  22097154.383 2 117997615.012 4  22097149.293 2  91775879.669 3
R11  21776717.580 1 116368167.859 1  21776709.481 1  90508500.637 1
R01  19073984.984 1 101961476.636 1  19073978.540 1  79303275.473 1
R02  21482848.286 1 114636701.108 1  21482842.271 1  89161802.818 1
G32  20848329.652 1 109558691.409 1  20848322.700 1  85370442.033 1
G25  24339004.895 1 127902294.880 3  24339000.000 1  99664083.427 3
G10  23287409.343 1 122376066.230 2  23287403.413 1  95357998.807 2
G31  21515813.570 1 113066339.486 1  21515803.370 1  88103598.925 1
G16  21794275.581 1 114529679.671 1                                
C32  23559626.772 1 122681143.520 1
C28  26307933.385 1 136992309.297 3
R08  21324469.630 1 114191529.961 1  21324460.120 1  88815586.387 1
R12  19898856.896 1 106296073.278 1  19898851.241 1  82674790.656 1
E19  25930887.326 1 136267805.237 3  25930883.843 1 104413066.470 2
E31  23424330.984 1 123095663.788 1  23424327.618 1  94320059.447 1
G27  25225059.019 1 132558550.626 3  25225055.397 1 103292366.958 2
E01  25023961.764 1 131501816.107 1  25023957.781 1 100761105.309 1
E10  28650331.743 4 150558562.486 7  28650338.792 1 115362952.275 3
E18  28951193.458 1 152139507.182 1  28951189.533 1 116574406.384 1
E24  26392058.276 1 138691168.630 1  26392054.321 1 106269883.767 1
E09  24283948.451 1 127612980.720 1  24283945.141 1  97781377.486 1
E04  23709700.301 1 124595307.907 1  23709694.691 1  95469114.868 1
E11                                  27446933.688 8               9
> 2022 02 25 13 33 45.0000000  0 34                     
G03  24076858.120 1 126524767.210 2  24076853.106 1  98590675.714 2
E12  27064028.202 1 142222400.255 4  27064026.806 1 108975516.840 3
G29  24049611.489 1 126381573.820 2  24049604.211 1  98479120.229 2
G26  19926782.346 1 104715954.275 1  19926775.833 1  81596828.181 1
G22  20853540.807 1 109586085.876 1                                
C19  23947783.718 1 124702399.584 1
C37  23661718.730 1 123212760.877 1
C20  21770462.151 1 113364561.926 1
C27  25484881.117 1 132706454.330 2
C30  26556889.796 1 138288687.618 2
C36  25609651.957 1 133356180.823 2
R13  22096112.720 2 117992050.614 4  22096106.378 2  91771551.794 2
R11  21790096.665 1 116439662.139 1  21790089.103 1  90564107.268 1
R01  19078673.127 1 101986536.982 1  19078666.832 1  79322766.828 1
R02  21476931.483 1 114605129.431 1  21476925.798 1  89137247.088 1
G32  20853554.499 1 109586146.741 1  20853547.048 1  85391835.776 1
G25  24353954.770 1 127980856.243 3  24353949.661 1  99725300.049 3
G10  23302188.942 1 122453734.431 2  23302183.264 1  95418519.441 2
G31  21523231.735 1 113105323.488 1  21523221.914 1  88133976.057 1
G16  21790348.432 1 114509043.096 2                                
C32  23571609.154 1 122743538.483 1
C28  26309650.432 1 137001250.557 3
R08  21337878.520 1 114263333.320 1  21337869.300 1  88871433.401 1
R12  19905535.608 1 106331749.406 1  19905529.312 1  82702538.743 1
E19  25940075.364 1 136316088.433 3  25940071.645 1 104450062.663 2
E31  23428358.444 1 123116827.625 1  23428354.988 1  94336275.889 1
G27  25221257.842 1 132538577.551 3  25221254.824 1 103276803.528 2
E01  25034710.162 1 131558299.101 1  25034705.905 1 100804384.467 1
E10  28657449.260 2 150595925.438 6  28657448.982 1 115391581.050 3
E18  28947501.383 1 152120104.406 1  28947497.278 1 116559539.330 1
E24  26390519.725 1 138683083.009 1  26390515.666 1 106263688.290 1
E09  24281937.463 1 127602413.914 1  24281934.192 1  97773280.854 1
E04  23712402.323 1 124609507.718 1  23712396.831 1  95479995.242 1
E11                                  27454951.974 4               9
> 2022 02 25 13 34 00.0000000  0 34                     
G03  24073994.298 1 126509717.255 2  24073988.437 1  98578948.468 2
E12  27069834.640 1 142252908.963 4  27069832.547 1 108998893.596 3
G29  24054431.141 1 126406901.057 2  24054423.992 1  98498855.746 2
G26  19930064.036 1 104733199.372 1  19930057.401 1  81610265.922 1
G22  20855527.393 1 109596523.125 1                                
C19  23944731.417 1 124686501.727 1
C37  23671860.620 1 123265572.977 1
C20  21774278.885 1 113384437.565 1
C27  25484671.376 1 132705361.909 1
C30  26557375.058 1 138291215.835 2
C36  25609501.013 1 133355394.648 2
R13  22095091.091 2 117986594.394 3  22095084.770 2  91767308.106 2
R11  21803475.755 1 116511154.177 1  21803467.482 1  90619712.154 1
R01  19083395.532 1 102011781.274 1  19083389.549 1  79342401.268 1
R02  21471024.857 1 114573612.499 1  21471019.954 1  89112733.949 1
G32  20858796.465 1 109613695.262 1  20858789.253 1  85413302.141 1
G25  24368906.331 1 128059428.362 3  24368901.647 1  99786525.029 3
G10  23316972.859 1 122531421.606 1  23316966.912 1  95479054.863 1
G31  21530651.228 1 113144313.360 1  21530641.653 1  88164357.770 1
G16  21786439.356 1 114488501.569 1                                
C32  23583604.927 1 122806004.632 1
C28  26311374.493 1 137010231.657 3
R08  21351309.666 1 114335257.452 1  21351300.601 1  88927374.360 1
R12  19912234.239 1 106367533.838 1  19912227.632 1  82730371.100 1
E19  25949275.128 1 136364432.865 3  25949271.179 1 104487105.758 2
E31  23432402.172 1 123138077.225 1  23432398.670 1  94352558.048 1
G27  25217445.098 1 132518538.589 3  25217441.769 1 103261188.696 2
E01  25045465.178 1 131614817.410 1  25045460.928 1 100847690.702 1
E10  28664538.838 2 150633219.044 5  28664546.085 1 115420156.595 3
E18  28943793.582 1 152100619.601 2  28943789.378 1 116544609.407 1
E24  26388992.928 1 138675056.290 1  26388988.214 1 106257537.962 1
E09  24279926.414 1 127591847.484 1  24279923.142 1  97765184.522 1
E04  23715115.164 1 124623767.092 1  23715110.341 1  95490921.249 1
E11                                  27462963.629 9               9
> 2022 02 25 13 34 15.0000000  0 34                     
G03  24071147.985 1 126494758.001 2  24071141.918 1  98567291.887 2
E12  27075625.324 1 142283337.739 4  27075623.119 1 109022209.195 3
G29  24059271.512 1 126432338.088 2  24059264.469 1  98518676.805 3
G26  19933371.912 1 104750582.184 1  19933365.332 1  81623810.978 1
G22  20857525.283 1 109607022.216 1                                
C19  23941689.664 1 124670660.451 1
C37  23682002.402 1 123318386.027 1
C20  21778118.897 1 113404431.931 1
C27  25484456.340 1 132704240.769 2
C30  26557846.233 1 138293667.839 2
C36  25609360.245 1 133354660.644 2
R13  22094090.307 2 117981248.114 4  22094082.946 2  91763149.872 2
R11  21816854.831 1 116582644.969 1  21816845.938 1  90675316.115 1
R01  19088152.805 1 102037211.103 1  19088146.438 1  79362180.008 1
R02  21465129.529 1 114542152.784 1  21465124.011 1  89088265.282 1
G32  20864056.695 1 109641338.506 1  20864049.694 1  85434842.331 1
G25  24383860.518 1 128138012.441 4  24383855.524 1  99847759.328 3
G10  23331759.681 1 122609128.868 2  23331754.429 1  95539605.892 1
G31  21538072.318 1 113183310.385 1  21538062.290 1  88194745.053 1
G16  21782548.976 1 114468056.688 1                                
C32  23595615.534 1 122868543.110 1
C28  26313106.873 1 137019254.300 3
R08  21364763.483 1 114407304.120 1  21364754.851 1  88983410.617 1
R12  19918953.536 1 106403427.612 1  19918947.188 1  82758288.472 1
E19  25958486.670 1 136412839.842 3  25958482.835 1 104524196.806 2
E31  23436462.679 1 123159413.886 1  23436458.943 1  94368906.910 1
G27  25213619.851 1 132498435.236 3  25213616.330 1 103245523.748 2
E01  25056227.266 1 131671372.233 1  25056223.045 1 100891024.911 1
E10  28671628.676 2 150670444.533 7  28671629.700 1 115448679.934 3
E18  28940069.967 1 152081054.260 1  28940066.116 1 116529617.791 1
E24  26387476.794 1 138667089.974 2  26387472.442 1 106251433.901 1
E09  24277916.468 1 127581283.026 1  24277912.836 1  97757089.685 1
E04  23717840.719 1 124638087.613 1  23717835.426 1  95501894.102 1
E11                                  27470965.601 9               9
> 2022 02 25 13 34 30.0000000  0 34                     
G03  24068318.691 1 126479890.160 2  24068312.896 1  98555706.574 2
E12  27081400.236 1 142313687.065 4  27081398.574 1 109045463.852 3
G29  24064132.552 1 126457885.450 2  24064125.763 1  98538583.821 2
G26  19936706.117 1 104768103.031 1  19936699.441 1  81637463.582 1
G22  20859535.120 1 109617583.900 1                                
C19  23938658.344 1 124654876.414 1
C37  23692144.655 1 123371200.226 1
C20  21781981.647 1 113424545.492 1
C27  25484235.555 1 132703091.470 2
C30  26558302.732 1 138296044.041 2
C36  25609229.181 1 133353979.242 2
R13  22093109.588 2 117976011.907 4  22093102.908 2  91759077.287 3
R11  21830232.878 1 116654134.792 1  21830224.064 1  90730919.311 1
R01  19092944.866 1 102062827.045 1  19092938.457 1  79382103.505 1
R02  21459244.702 1 114510750.430 1  21459238.643 1  89063841.233 1
G32  20869335.390 1 109669077.079 1  20869327.654 1  85456456.786 1
G25  24398816.411 1 128216608.498 3  24398812.095 1  99909002.958 3
G10  23346550.969 1 122686856.172 1  23346545.247 1  95600172.575 2
G31  21545494.611 1 113222314.877 1  21545484.485 1  88225138.145 1
G16  21778677.501 1 114447709.234 1                                
C32  23607639.504 1 122931154.105 1
C28  26314848.063 1 137028319.125 3
R08  21378240.782 1 114479472.783 1  21378231.577 1  89039541.775 1
R12  19925693.556 1 106439430.740 1  19925687.372 1  82786290.904 1
E19  25967710.003 1 136461309.730 3  25967706.489 1 104561336.035 2
E31  23440539.520 1 123180837.922 1  23440535.775 1  94385322.726 1
G27  25209782.246 1 132478268.294 3  25209778.370 1 103229809.201 3
E01  25066996.408 1 131727963.758 1  25066992.116 1 100934387.235 1
E10  28678691.867 2 150707602.091 6  28678700.063 1 115477151.293 3
E18  28936331.609 1 152061408.958 2  28936327.790 1 116514564.912 1
E24  26385972.446 1 138659184.571 1  26385968.005 1 106245376.531 1
E09  24275906.705 1 127570721.124 1  24275902.676 1  97748996.813 1
E04  23720577.384 1 124652469.857 1  23720572.227 1  95512914.253 1
E11                                  27478959.106 9               9
